{"type":"Topology","objects":{"subunits":{"type":"GeometryCollection","name":"BRA_subunits","crs":{"type":"name","properties":{"name":"urn:ogc:def:crs:OGC:1.3:CRS84"}},"geometries":[{"type":"Polygon","properties":{"name":"Rio Grande do Sul","fips":"BR23","scalerank":2,"country":"BRA","latitude":-29.7277,"longitude":-53.656,"type":"Estado","iso":"BR-RS"},"id":"RS","arcs":[[0,1,2,3,4,5,6,7,8,9,10,11,12,13,14,15,16,17,18,19,20,21,22,23,24,25,26,27,28,29,30,31,32,33,34,35,36,37,38,39]]},{"type":"Polygon","properties":{"name":"Roraima","fips":"BR25","scalerank":2,"country":"BRA","latitude":1.93803,"longitude":-61.3325,"type":"Estado","iso":"BR-RR"},"id":"RR","arcs":[[40,41,42]]},{"type":"MultiPolygon","properties":{"name":"Pará","fips":"BR16","scalerank":2,"country":"BRA","latitude":-4.44313,"longitude":-52.6491,"type":"Estado","iso":"BR-PA"},"id":"PA","arcs":[[[43,44,45,46,47,48,49,50,51,52,53,54,55,56,57,58,59,60,61,62,63,64,65,66,67,68,69,70,71,72,73,74,75,76,77,78,79,80,81,82,83,84,85,86,87,88,89,90,91,92,93,94,95,96,-41,97]],[[98]],[[99]],[[100,101,102]],[[103]],[[104,105,106,107,108]],[[109]],[[110,111,112,113,114,115,116,117,118,119,120]],[[121]],[[122,123,124,125,126,127,128,129,130,131,132,133,134,135,136,137,138,139,140,141,142,143,144,145,146,147,148,149,150,151,152,153]],[[154,155,156,157,158]],[[159,160,161,162,163,164]],[[165,166,167,168]],[[169,170,171,172,173,174,175,176,177]],[[178,179,180,181]],[[182,183,184,185,186]],[[187]]]},{"type":"Polygon","properties":{"name":"Acre","fips":"BR01","scalerank":2,"country":"BRA","latitude":-8.9285,"longitude":-70.2976,"type":"Estado","iso":"BR-AC"},"id":"AC","arcs":[[188,189,190]]},{"type":"MultiPolygon","properties":{"name":"Amapá","fips":"BR03","scalerank":2,"country":"BRA","latitude":1.41157,"longitude":-51.6842,"type":"Estado","iso":"BR-AP"},"id":"AP","arcs":[[[191,192,193,194,195,196,197,198,199,200,201,202,203,204,205,206,207,208,209,210,211,212,213,214,215,216,-44]],[[217,218,219,220,221]],[[222]],[[223,224,225,226]],[[227]]]},{"type":"Polygon","properties":{"name":"Mato Grosso do Sul","fips":"BR11","scalerank":2,"country":"BRA","latitude":-20.6756,"longitude":-54.5502,"type":"Estado","iso":"BR-MS"},"id":"MS","arcs":[[228,229,230,231,232,233]]},{"type":"MultiPolygon","properties":{"name":"Paraná","fips":"BR18","scalerank":2,"country":"BRA","latitude":-24.6618,"longitude":-51.3228,"type":"Estado","iso":"BR-PR"},"id":"PR","arcs":[[[-233,234,235,236,237,238,239,240,241,242]],[[243]]]},{"type":"MultiPolygon","properties":{"name":"Santa Catarina","fips":"BR26","scalerank":2,"country":"BRA","latitude":-27.0392,"longitude":-51.1586,"type":"Estado","iso":"BR-SC"},"id":"SC","arcs":[[[244,-242,245,246,247,248,249,250,251,252,253,254,255,256,257,258,259,260,-1]],[[261]],[[262]]]},{"type":"Polygon","properties":{"name":"Amazonas","fips":"BR04","scalerank":2,"country":"BRA","latitude":-4.21774,"longitude":-63.7853,"type":"Estado","iso":"BR-AM"},"id":"AM","arcs":[[-42,-97,263,264,-189,265]]},{"type":"Polygon","properties":{"name":"Rondônia","fips":"BR24","scalerank":2,"country":"BRA","latitude":-10.9712,"longitude":-63.1439,"type":"Estado","iso":"BR-RO"},"id":"RO","arcs":[[-190,-265,266,267]]},{"type":"Polygon","properties":{"name":"Mato Grosso","fips":"BR14","scalerank":2,"country":"BRA","latitude":-13.3926,"longitude":-55.9235,"type":"Estado","iso":"BR-MT"},"id":"MT","arcs":[[268,-267,-264,-96,269,270,-229]]},{"type":"MultiPolygon","properties":{"name":"Maranhão","fips":"BR13","scalerank":2,"country":"BRA","latitude":-5.01897,"longitude":-45.389,"type":"Estado","iso":"BR-MA"},"id":"MA","arcs":[[[271,272,273,274,275,276,277,278,279,280,281,282,283,284,285,286,287,288,289,290,291,292,293,294,295,296,297,298,299,300,301,302,303,304,305,-94]],[[306]],[[307]],[[308]],[[309]],[[310]]]},{"type":"Polygon","properties":{"name":"Piauí","fips":"BR20","scalerank":2,"country":"BRA","latitude":-8.08698,"longitude":-43.1974,"type":"Estado","iso":"BR-PI"},"id":"PI","arcs":[[311,312,313,314,315,316,317,-305]]},{"type":"Polygon","properties":{"name":"Ceará","fips":"BR06","scalerank":2,"country":"BRA","latitude":-5.37602,"longitude":-39.3429,"type":"Estado","iso":"BR-CE"},"id":"CE","arcs":[[318,319,320,321,322,323,324,325,326,327,328,329,330,331,332,333,334,335,-315]]},{"type":"Polygon","properties":{"name":"Rio Grande do Norte","fips":"BR22","scalerank":2,"country":"BRA","latitude":-5.66157,"longitude":-36.5472,"type":"Estado","iso":"BR-RN"},"id":"RN","arcs":[[336,337,338,339,340,341,342,343,344,345,-334]]},{"type":"Polygon","properties":{"name":"Paraíba","fips":"BR17","scalerank":2,"country":"BRA","latitude":-7.34234,"longitude":-36.2726,"type":"Estado","iso":"BR-PB"},"id":"PB","arcs":[[346,347,348,349,350,-335,-346]]},{"type":"MultiPolygon","properties":{"name":"Pernambuco","fips":"BR30","scalerank":2,"country":"BRA","latitude":-8.47283,"longitude":-37.2958,"type":"Estado","iso":"BR-PE"},"id":"PE","arcs":[[[351,352,353,354,355,356,357,358,359,-316,-336,-351]],[[360]]]},{"type":"Polygon","properties":{"name":"Alagoas","fips":"BR02","scalerank":2,"country":"BRA","latitude":-9.77391,"longitude":-36.6917,"type":"Estado","iso":"BR-AL"},"id":"AL","arcs":[[361,362,363,364,365,366,367,368,369,370,-359]]},{"type":"Polygon","properties":{"name":"Sergipe","fips":"BR28","scalerank":2,"country":"BRA","latitude":-10.5918,"longitude":-37.3836,"type":"Estado","iso":"BR-SE"},"id":"SE","arcs":[[371,372,373,374,375,376,377,-370]]},{"type":"MultiPolygon","properties":{"name":"Bahia","fips":"BR05","scalerank":2,"country":"BRA","latitude":-12.3651,"longitude":-41.8027,"type":"Estado","iso":"BR-BA"},"id":"BA","arcs":[[[378,379,380,381,382,383,384,385,386,387,388,389,390,391,392,393,394,395,396,397,398,399,400,401,402,403,404,405,406,407,408,409,410,-317,-360,-371,-378]],[[411]],[[412]]]},{"type":"Polygon","properties":{"name":"Espírito Santo","fips":"BR08","scalerank":2,"country":"BRA","latitude":-19.6916,"longitude":-40.5436,"type":"Estado","iso":"BR-ES"},"id":"ES","arcs":[[413,414,415,416,417,418,419,420,421,422,423,424,425,426,-408]]},{"type":"MultiPolygon","properties":{"name":"Rio de Janeiro","fips":"BR21","scalerank":2,"country":"BRA","latitude":-22.4049,"longitude":-43.1152,"type":"Estado","iso":"BR-RJ"},"id":"RJ","arcs":[[[427,428,429,430,431,432,433,434,435,436,437,438,439,440,441,442,443,444,445,446,447,448,449,450,451,452,453,454,455,-426]],[[456]]]},{"type":"MultiPolygon","properties":{"name":"São Paulo","fips":"BR27","scalerank":2,"country":"BRA","latitude":-22.2267,"longitude":-48.5206,"type":"Estado","iso":"BR-SP"},"id":"SP","arcs":[[[457,458,459,460,461,462,463,464,465,466,467,468,469,470,471,472,-235,-232,473,-455]],[[474]],[[475,476,477,478]]]},{"type":"Polygon","properties":{"name":"Goiás","fips":"BR29","scalerank":2,"country":"BRA","latitude":-15.863,"longitude":-49.5786,"type":"Estado","iso":"BR-GO"},"id":"GO","arcs":[[-410,479,480,481,-230,-271,482]]},{"type":"Polygon","properties":{"name":"Distrito Federal","fips":"BR07","scalerank":2,"country":"BRA","latitude":-15.7665,"longitude":-47.7902,"type":"Distrito Federal","iso":"BR-DF"},"id":"DF","arcs":[[-481]]},{"type":"Polygon","properties":{"name":"Minas Gerais","fips":"BR15","scalerank":2,"country":"BRA","latitude":-18.5895,"longitude":-44.4808,"type":"Estado","iso":"BR-MG"},"id":"MG","arcs":[[-480,-409,-427,-456,-474,-231,-482]]},{"type":"Polygon","properties":{"name":"Tocantins","fips":"BR31","scalerank":2,"country":"BRA","latitude":-10.223,"longitude":-48.2502,"type":"Estado","iso":"BR-TO"},"id":"TO","arcs":[[-411,-483,-270,-95,-306,-318]]}]},"places":{"type":"GeometryCollection","name":"BRA_places","crs":{"type":"name","properties":{"name":"urn:ogc:def:crs:OGC:1.3:CRS84"}},"geometries":[{"type":"Point","properties":{"name":"Grajau","scalerank":8,"subregion":"Maranhão","latitude":-5.809996,"longitude":-46.149984},"id":"Q2043418","coordinates":[3718,4848]},{"type":"Point","properties":{"name":"Presidente Dutra","scalerank":8,"subregion":"Maranhão","latitude":-5.25003,"longitude":-44.519981},"id":"Q637452","coordinates":[3763,4880]},{"type":"Point","properties":{"name":"Itapecuru Mirim","scalerank":8,"subregion":"Maranhão","latitude":-3.400013,"longitude":-44.360016},"id":"Q2012733","coordinates":[3767,4987]},{"type":"Point","properties":{"name":"São José de Ribamar","scalerank":8,"subregion":"Maranhão","latitude":-2.549988,"longitude":-44.069982},"id":"Q1006367","coordinates":[3775,5036]},{"type":"Point","properties":{"name":"Santa Inês","scalerank":8,"subregion":"Maranhão","latitude":-3.659998,"longitude":-45.390031},"id":"Q2469099","coordinates":[3739,4972]},{"type":"Point","properties":{"name":"Rosário","scalerank":8,"subregion":"Maranh","latitude":-2.940042,"longitude":-44.260022},"id":"Q2106358","coordinates":[3770,5013]},{"type":"Point","properties":{"name":"Timon","scalerank":8,"subregion":"Maranh","latitude":-5.114999,"longitude":-42.844967},"id":"Q1017101","coordinates":[3809,4888]},{"type":"Point","properties":{"name":"Capanema","scalerank":8,"subregion":"Pará","latitude":-1.190019,"longitude":-47.179999},"id":"Q1947031","coordinates":[3689,5114]},{"type":"Point","properties":{"name":"Portel","scalerank":8,"subregion":"Pará","latitude":-1.949973,"longitude":-50.819984},"id":"Q2089210","coordinates":[3588,5071]},{"type":"Point","properties":{"name":"Itupiranga","scalerank":8,"subregion":"Pará","latitude":-5.120012,"longitude":-49.300025},"id":"Q2008167","coordinates":[3630,4888]},{"type":"Point","properties":{"name":"Pimenta Bueno","scalerank":8,"subregion":"Rondônia","latitude":-11.640027,"longitude":-61.209995},"id":"Q1803175","coordinates":[3299,4512]},{"type":"Point","properties":{"name":"Ponta Porã","scalerank":8,"subregion":"Mato Grosso do Sul","latitude":-22.530009,"longitude":-55.729968},"id":"Q928094","coordinates":[3452,3885]},{"type":"Point","properties":{"name":"Maracaju","scalerank":8,"subregion":"Mato Grosso do Sul","latitude":-21.610013,"longitude":-55.180028},"id":"Q1792127","coordinates":[3467,3938]},{"type":"Point","properties":{"name":"Jardim","scalerank":8,"subregion":"Mato Grosso do Sul","latitude":-21.479943,"longitude":-56.15002},"id":"Q927504","coordinates":[3440,3946]},{"type":"Point","properties":{"name":"Três Lagoas","scalerank":8,"subregion":"Mato Grosso do Sul","latitude":-20.790011,"longitude":-51.720006},"id":"Q1637454","coordinates":[3563,3986]},{"type":"Point","properties":{"name":"Guanhães","scalerank":8,"subregion":"Minas Gerais","latitude":-18.780005,"longitude":-42.950025},"id":"Q1756864","coordinates":[3807,4101]},{"type":"Point","properties":{"name":"Leopoldina","scalerank":8,"subregion":"Minas Gerais","latitude":-21.530018,"longitude":-42.640044},"id":"Q1805359","coordinates":[3815,3943]},{"type":"Point","properties":{"name":"Nova Lima","scalerank":8,"subregion":"Minas Gerais","latitude":-19.980035,"longitude":-43.850021},"id":"Q1642662","coordinates":[3782,4032]},{"type":"Point","properties":{"name":"Pouso Alegre","scalerank":8,"subregion":"Minas Gerais","latitude":-22.220002,"longitude":-45.940023},"id":"Q949798","coordinates":[3724,3903]},{"type":"Point","properties":{"name":"Itaúna","scalerank":8,"subregion":"Minas Gerais","latitude":-20.06003,"longitude":-44.570029},"id":"Q628877","coordinates":[3762,4028]},{"type":"Point","properties":{"name":"Caratinga","scalerank":8,"subregion":"Minas Gerais","latitude":-19.790021,"longitude":-42.139997},"id":"Q905175","coordinates":[3829,4043]},{"type":"Point","properties":{"name":"Diamantina","scalerank":8,"subregion":"Minas Gerais","latitude":-18.239986,"longitude":-43.609984},"id":"Q34028","coordinates":[3788,4132]},{"type":"Point","properties":{"name":"Nanuque","scalerank":8,"subregion":"Minas Gerais","latitude":-17.839959,"longitude":-40.350028},"id":"Q83011","coordinates":[3879,4155]},{"type":"Point","properties":{"name":"Barbacena","scalerank":8,"subregion":"Minas Gerais","latitude":-21.220011,"longitude":-43.77},"id":"Q807311","coordinates":[3784,3961]},{"type":"Point","properties":{"name":"Poços de Caldas","scalerank":8,"subregion":"Minas Gerais","latitude":-21.780029,"longitude":-46.569985},"id":"Q817216","coordinates":[3706,3929]},{"type":"Point","properties":{"name":"Guaxupé","scalerank":8,"subregion":"Minas Gerais","latitude":-21.290033,"longitude":-46.70995},"id":"Q1791417","coordinates":[3702,3957]},{"type":"Point","properties":{"name":"São João del Rei","scalerank":8,"subregion":"Minas Gerais","latitude":-21.130042,"longitude":-44.249997},"id":"Q740965","coordinates":[3770,3966]},{"type":"Point","properties":{"name":"Muriaé","scalerank":8,"subregion":"Minas Gerais","latitude":-21.130042,"longitude":-42.389981},"id":"Q1637446","coordinates":[3822,3966]},{"type":"Point","properties":{"name":"Passos","scalerank":8,"subregion":"Minas Gerais","latitude":-20.710016,"longitude":-46.609982},"id":"Q985579","coordinates":[3705,3990]},{"type":"Point","properties":{"name":"Conselheiro Lafaiete","scalerank":8,"subregion":"Minas Gerais","latitude":-20.670019,"longitude":-43.789999},"id":"Q570312","coordinates":[3783,3992]},{"type":"Point","properties":{"name":"Formiga","scalerank":8,"subregion":"Minas Gerais","latitude":-20.460006,"longitude":-45.430028},"id":"Q1791720","coordinates":[3738,4005]},{"type":"Point","properties":{"name":"Frutal","scalerank":8,"subregion":"Minas Gerais","latitude":-20.030006,"longitude":-48.940021},"id":"Q1790819","coordinates":[3640,4029]},{"type":"Point","properties":{"name":"Iturama","scalerank":8,"subregion":"Minas Gerais","latitude":-19.729973,"longitude":-50.200021},"id":"Q1780277","coordinates":[3605,4047]},{"type":"Point","properties":{"name":"Ituiutaba","scalerank":8,"subregion":"Minas Gerais","latitude":-18.970019,"longitude":-49.459989},"id":"Q1756328","coordinates":[3626,4090]},{"type":"Point","properties":{"name":"Araguari","scalerank":8,"subregion":"Minas Gerais","latitude":-18.640013,"longitude":-48.199988},"id":"Q1637522","coordinates":[3661,4109]},{"type":"Point","properties":{"name":"Almenara","scalerank":8,"subregion":"Minas Gerais","latitude":-16.170035,"longitude":-40.700007},"id":"Q979377","coordinates":[3869,4252]},{"type":"Point","properties":{"name":"Várzea Grande","scalerank":8,"subregion":"Mato Grosso","latitude":-15.650015,"longitude":-56.140021},"id":"Q983884","coordinates":[3440,4282]},{"type":"Point","properties":{"name":"Cáceres","scalerank":8,"subregion":"Mato Grosso","latitude":-16.050042,"longitude":-57.510015},"id":"Q986526","coordinates":[3402,4259]},{"type":"Point","properties":{"name":"Santana do Livramento","scalerank":8,"subregion":"Rio Grande do Sul","latitude":-30.880042,"longitude":-55.530006},"id":"Q917693","coordinates":[3457,3405]},{"type":"Point","properties":{"name":"Canoas","scalerank":8,"subregion":"Rio Grande do Sul","latitude":-29.919997,"longitude":-51.179987},"id":"Q194325","coordinates":[3578,3460]},{"type":"Point","properties":{"name":"Quaraí","scalerank":8,"subregion":"Rio Grande do Sul","latitude":-30.38002,"longitude":-56.459949},"id":"Q1637478","coordinates":[3431,3433]},{"type":"Point","properties":{"name":"Santa Vitória do Palmar","scalerank":8,"subregion":"Rio Grande do Sul","latitude":-33.520035,"longitude":-53.369983},"id":"Q984562","coordinates":[3517,3252]},{"type":"Point","properties":{"name":"São Lourenço do Sul","scalerank":8,"subregion":"Rio Grande do Sul","latitude":-31.369986,"longitude":-51.980016},"id":"Q326349","coordinates":[3556,3376]},{"type":"Point","properties":{"name":"Canela","scalerank":8,"subregion":"Rio Grande do Sul","latitude":-29.360031,"longitude":-50.81001},"id":"Q995318","coordinates":[3588,3492]},{"type":"Point","properties":{"name":"São Gabriel","scalerank":8,"subregion":"Rio Grande do Sul","latitude":-30.320024,"longitude":-54.320028},"id":"Q929890","coordinates":[3491,3437]},{"type":"Point","properties":{"name":"Rosário do Sul","scalerank":8,"subregion":"Rio Grande do Sul","latitude":-30.250002,"longitude":-54.920018},"id":"Q266960","coordinates":[3474,3441]},{"type":"Point","properties":{"name":"Cachoeira do Sul","scalerank":8,"subregion":"Rio Grande do Sul","latitude":-30.029964,"longitude":-52.909985},"id":"Q166378","coordinates":[3530,3453]},{"type":"Point","properties":{"name":"Osório","scalerank":8,"subregion":"Rio Grande do Sul","latitude":-29.879999,"longitude":-50.269991},"id":"Q983519","coordinates":[3603,3462]},{"type":"Point","properties":{"name":"Santa Cruz do Sul","scalerank":8,"subregion":"Rio Grande do Sul","latitude":-29.710035,"longitude":-52.44004},"id":"Q781510","coordinates":[3543,3472]},{"type":"Point","properties":{"name":"São Luiz Gonzaga","scalerank":8,"subregion":"Rio Grande do Sul","latitude":-28.410011,"longitude":-54.959989},"id":"Q647406","coordinates":[3473,3547]},{"type":"Point","properties":{"name":"Santo Ângelo","scalerank":8,"subregion":"Rio Grande do Sul","latitude":-28.300044,"longitude":-54.280031},"id":"Q824031","coordinates":[3492,3553]},{"type":"Point","properties":{"name":"Carazinho","scalerank":8,"subregion":"Rio Grande do Sul","latitude":-28.290019,"longitude":-52.800044},"id":"Q772910","coordinates":[3533,3554]},{"type":"Point","properties":{"name":"Erechim","scalerank":8,"subregion":"Rio Grande do Sul","latitude":-27.630007,"longitude":-52.269998},"id":"Q642088","coordinates":[3548,3592]},{"type":"Point","properties":{"name":"Guaira","scalerank":8,"subregion":"Paraná","latitude":-24.089965,"longitude":-54.26998},"id":"Q135983","coordinates":[3492,3796]},{"type":"Point","properties":{"name":"Palmas","scalerank":8,"subregion":"Paraná","latitude":-26.48,"longitude":-51.999989},"id":"Q928397","coordinates":[3555,3658]},{"type":"Point","properties":{"name":"Arapongas","scalerank":8,"subregion":"Paraná","latitude":-23.410007,"longitude":-51.43005},"id":"Q1650073","coordinates":[3571,3835]},{"type":"Point","properties":{"name":"Paranaguá","scalerank":8,"subregion":"Paraná","latitude":-25.527876,"longitude":-48.534454},"id":"Q503852","coordinates":[3651,3713]},{"type":"Point","properties":{"name":"São José dos Pinhais","scalerank":8,"subregion":"Paraná","latitude":-25.57003,"longitude":-49.180006},"id":"Q478818","coordinates":[3634,3710]},{"type":"Point","properties":{"name":"Guarapuava","scalerank":8,"subregion":"Paraná","latitude":-25.380015,"longitude":-51.480021},"id":"Q326354","coordinates":[3570,3721]},{"type":"Point","properties":{"name":"Rio Negro","scalerank":8,"subregion":"Paraná","latitude":-26.100023,"longitude":-49.790021},"id":"Q1878476","coordinates":[3617,3680]},{"type":"Point","properties":{"name":"Apucarana","scalerank":8,"subregion":"Paraná","latitude":-23.549998,"longitude":-51.470021},"id":"Q1638385","coordinates":[3570,3827]},{"type":"Point","properties":{"name":"Lapa","scalerank":8,"subregion":"Paraná","latitude":-25.760044,"longitude":-49.729998},"id":"Q2064788","coordinates":[3618,3699]},{"type":"Point","properties":{"name":"Irati","scalerank":8,"subregion":"Paraná","latitude":-25.470036,"longitude":-50.659968},"id":"Q2064763","coordinates":[3592,3716]},{"type":"Point","properties":{"name":"Castro","scalerank":8,"subregion":"Paraná","latitude":-24.790026,"longitude":-50.009981},"id":"Q2077411","coordinates":[3610,3755]},{"type":"Point","properties":{"name":"Telêmaco Borba","scalerank":8,"subregion":"Paraná","latitude":-24.32995,"longitude":-50.619996},"id":"Q391843","coordinates":[3594,3782]},{"type":"Point","properties":{"name":"Jacarezinho","scalerank":8,"subregion":"Paraná","latitude":-23.159944,"longitude":-49.979983},"id":"Q1814491","coordinates":[3611,3849]},{"type":"Point","properties":{"name":"Concórdia","scalerank":8,"subregion":"Santa Catarina","latitude":-27.230032,"longitude":-52.030013},"id":"Q749798","coordinates":[3554,3615]},{"type":"Point","properties":{"name":"Blumenau","scalerank":8,"subregion":"Santa Catarina","latitude":-26.920025,"longitude":-49.089986},"id":"Q155557","coordinates":[3636,3633]},{"type":"Point","properties":{"name":"Brusque","scalerank":8,"subregion":"Santa Catarina","latitude":-27.129986,"longitude":-48.930021},"id":"Q329488","coordinates":[3640,3620]},{"type":"Point","properties":{"name":"Araranguá","scalerank":8,"subregion":"Santa Catarina","latitude":-28.940005,"longitude":-49.499987},"id":"Q626231","coordinates":[3625,3516]},{"type":"Point","properties":{"name":"Jaraguá do Sul","scalerank":8,"subregion":"Santa Catarina","latitude":-26.48,"longitude":-49.099985},"id":"Q849584","coordinates":[3636,3658]},{"type":"Point","properties":{"name":"Tubarão","scalerank":8,"subregion":"Santa Catarina","latitude":-28.480033,"longitude":-49.020016},"id":"Q1815730","coordinates":[3638,3543]},{"type":"Point","properties":{"name":"Laguna","scalerank":8,"subregion":"Santa Catarina","latitude":-28.480033,"longitude":-48.779979},"id":"Q1615291","coordinates":[3645,3543]},{"type":"Point","properties":{"name":"Joaçaba","scalerank":8,"subregion":"Santa Catarina","latitude":-27.170035,"longitude":-51.499968},"id":"Q1758467","coordinates":[3569,3618]},{"type":"Point","properties":{"name":"Caçador","scalerank":8,"subregion":"Santa Catarina","latitude":-26.770008,"longitude":-51.020023},"id":"Q986540","coordinates":[3582,3641]},{"type":"Point","properties":{"name":"Canoinhas","scalerank":8,"subregion":"Santa Catarina","latitude":-26.179967,"longitude":-50.400009},"id":"Q1799304","coordinates":[3600,3675]},{"type":"Point","properties":{"name":"Camocim","scalerank":8,"subregion":"Ceará","latitude":-2.899992,"longitude":-40.850024},"id":"Q1807057","coordinates":[3865,5016]},{"type":"Point","properties":{"name":"Russas","scalerank":8,"subregion":"Ceará","latitude":-4.940023,"longitude":-37.979992},"id":"Q1806654","coordinates":[3945,4898]},{"type":"Point","properties":{"name":"Sobral","scalerank":8,"subregion":"Ceará","latitude":-3.690022,"longitude":-40.350028},"id":"Q1815899","coordinates":[3879,4970]},{"type":"Point","properties":{"name":"Iguatu","scalerank":8,"subregion":"Ceará","latitude":-6.359988,"longitude":-39.299989},"id":"Q931326","coordinates":[3908,4817]},{"type":"Point","properties":{"name":"Quixadá","scalerank":8,"subregion":"Ceará","latitude":-4.969995,"longitude":-39.020006},"id":"Q2013932","coordinates":[3916,4897]},{"type":"Point","properties":{"name":"Canindé","scalerank":8,"subregion":"Ceará","latitude":-4.350033,"longitude":-39.309988},"id":"Q1008278","coordinates":[3908,4932]},{"type":"Point","properties":{"name":"Campo Maior","scalerank":8,"subregion":"Piauí","latitude":-4.82003,"longitude":-42.18002},"id":"Q2105005","coordinates":[3828,4905]},{"type":"Point","properties":{"name":"Barras","scalerank":8,"subregion":"Piauí","latitude":-4.250039,"longitude":-42.299987},"id":"Q808836","coordinates":[3825,4938]},{"type":"Point","properties":{"name":"Rio Largo","scalerank":8,"subregion":"Alagoas","latitude":-9.480004,"longitude":-35.839968},"id":"Q530211","coordinates":[4004,4637]},{"type":"Point","properties":{"name":"Palmeira dos Índios","scalerank":8,"subregion":"Alagoas","latitude":-9.416597,"longitude":-36.616639},"id":"Q948268","coordinates":[3982,4641]},{"type":"Point","properties":{"name":"Santa Cruz Cabrália","scalerank":8,"subregion":"Bahia","latitude":-16.280002,"longitude":-39.02998},"id":"Q993466","coordinates":[3915,4245]},{"type":"Point","properties":{"name":"Paulo Afonso","scalerank":8,"subregion":"Bahia","latitude":-9.330659,"longitude":-38.265659},"id":"Q956008","coordinates":[3938,4641]},{"type":"Point","properties":{"name":"Brumado","scalerank":8,"subregion":"Bahia","latitude":-14.21,"longitude":-41.670025},"id":"Q1808298","coordinates":[3842,4364]},{"type":"Point","properties":{"name":"Jaguaquara","scalerank":8,"subregion":"Bahia","latitude":-13.529989,"longitude":-39.97},"id":"Q733973","coordinates":[3889,4404]},{"type":"Point","properties":{"name":"Itapetinga","scalerank":8,"subregion":"Bahia","latitude":-15.249988,"longitude":-40.249983},"id":"Q921827","coordinates":[3882,4305]},{"type":"Point","properties":{"name":"Ubaitaba","scalerank":8,"subregion":"Bahia","latitude":-14.30002,"longitude":-39.330013},"id":"Q1762068","coordinates":[3907,4359]},{"type":"Point","properties":{"name":"Cachoeiro de Itapemirim","scalerank":8,"subregion":"Espírito Santo","latitude":-20.850008,"longitude":-41.129981},"id":"Q1439193","coordinates":[3857,3982]},{"type":"Point","properties":{"name":"Barra Mansa","scalerank":8,"subregion":"Rio de Janeiro","latitude":-22.560033,"longitude":-44.16995},"id":"Q808797","coordinates":[3773,3884]},{"type":"Point","properties":{"name":"Nova Iguaçu","scalerank":8,"subregion":"Rio de Janeiro","latitude":-22.740022,"longitude":-43.469967},"id":"Q188897","coordinates":[3793,3872]},{"type":"Point","properties":{"name":"Duque de Caxias","scalerank":8,"subregion":"Rio de Janeiro","latitude":-22.769994,"longitude":-43.309977},"id":"Q193021","coordinates":[3797,3870]},{"type":"Point","properties":{"name":"Niterói","scalerank":8,"subregion":"Rio de Janeiro","latitude":-22.900012,"longitude":-43.09999},"id":"Q178725","coordinates":[3802,3865]},{"type":"Point","properties":{"name":"Cabo Frio","scalerank":8,"subregion":"Rio de Janeiro","latitude":-22.889987,"longitude":-42.039977},"id":"Q735025","coordinates":[3832,3865]},{"type":"Point","properties":{"name":"Macaé","scalerank":8,"subregion":"Rio de Janeiro","latitude":-22.379992,"longitude":-41.789992},"id":"Q473250","coordinates":[3839,3894]},{"type":"Point","properties":{"name":"Miracema","scalerank":8,"subregion":"Rio de Janeiro","latitude":-21.410025,"longitude":-42.199967},"id":"Q1804056","coordinates":[3827,3950]},{"type":"Point","properties":{"name":"Apodi","scalerank":8,"subregion":"Rio Grande do Norte","latitude":-5.650005,"longitude":-37.800003},"id":"Q2008084","coordinates":[3950,4857]},{"type":"Point","properties":{"name":"Santa Cruz","scalerank":8,"subregion":"Rio Grande do Norte","latitude":-6.219996,"longitude":-36.029982},"id":"Q1854793","coordinates":[3999,4825]},{"type":"Point","properties":{"name":"Morrinhos","scalerank":8,"subregion":"Goiás","latitude":-17.730043,"longitude":-49.109985},"id":"Q1025767","coordinates":[3635,4162]},{"type":"Point","properties":{"name":"Ceres","scalerank":8,"subregion":"Goiás","latitude":-15.303318,"longitude":-49.6052},"id":"Q2019995","coordinates":[3622,4302]},{"type":"Point","properties":{"name":"Catalão","scalerank":8,"subregion":"Goiás","latitude":-18.180042,"longitude":-47.950004},"id":"Q35135","coordinates":[3668,4136]},{"type":"Point","properties":{"name":"Cristalina","scalerank":8,"subregion":"Goiás","latitude":-16.769998,"longitude":-47.610025},"id":"Q1012541","coordinates":[3677,4217]},{"type":"Point","properties":{"name":"Trindade","scalerank":8,"subregion":"Goiás","latitude":-16.650006,"longitude":-49.499987},"id":"Q985583","coordinates":[3625,4224]},{"type":"Point","properties":{"name":"Iporá","scalerank":8,"subregion":"Goiás","latitude":-16.450018,"longitude":-51.129991},"id":"Q675142","coordinates":[3579,4235]},{"type":"Point","properties":{"name":"Inhumas","scalerank":8,"subregion":"Goiás","latitude":-16.359998,"longitude":-49.499987},"id":"Q986245","coordinates":[3625,4241]},{"type":"Point","properties":{"name":"Itaberaí","scalerank":8,"subregion":"Goiás","latitude":-16.019967,"longitude":-49.809968},"id":"Q527149","coordinates":[3616,4260]},{"type":"Point","properties":{"name":"Santo André","scalerank":8,"subregion":"São Paulo","latitude":-23.652834,"longitude":-46.527817},"id":"Q191652","coordinates":[3707,3821]},{"type":"Point","properties":{"name":"Pindamonhangaba","scalerank":8,"subregion":"São Paulo","latitude":-22.919959,"longitude":-45.470026},"id":"Q974642","coordinates":[3737,3863]},{"type":"Point","properties":{"name":"Rio Claro","scalerank":8,"subregion":"São Paulo","latitude":-22.409964,"longitude":-47.560028},"id":"Q291277","coordinates":[3679,3892]},{"type":"Point","properties":{"name":"Ourinhos","scalerank":8,"subregion":"São Paulo","latitude":-22.970033,"longitude":-49.86999},"id":"Q985605","coordinates":[3614,3860]},{"type":"Point","properties":{"name":"Itanhaem","scalerank":8,"subregion":"São Paulo","latitude":-24.179985,"longitude":-46.800022},"id":"Q983491","coordinates":[3700,3790]},{"type":"Point","properties":{"name":"Jaboticabal","scalerank":8,"subregion":"São Paulo","latitude":-21.250035,"longitude":-48.329981},"id":"Q938162","coordinates":[3657,3959]},{"type":"Point","properties":{"name":"Bragança Paulista","scalerank":8,"subregion":"São Paulo","latitude":-22.950035,"longitude":-46.549986},"id":"Q897232","coordinates":[3707,3861]},{"type":"Point","properties":{"name":"Jundiaí","scalerank":8,"subregion":"São Paulo","latitude":-23.199994,"longitude":-46.879992},"id":"Q275109","coordinates":[3697,3847]},{"type":"Point","properties":{"name":"São José dos Campos","scalerank":8,"subregion":"São Paulo","latitude":-23.199994,"longitude":-45.879949},"id":"Q191642","coordinates":[3725,3847]},{"type":"Point","properties":{"name":"Guaratinguetá","scalerank":8,"subregion":"São Paulo","latitude":-22.819965,"longitude":-45.189991},"id":"Q905157","coordinates":[3744,3869]},{"type":"Point","properties":{"name":"Pirassununga","scalerank":8,"subregion":"São Paulo","latitude":-21.990042,"longitude":-47.429984},"id":"Q1750431","coordinates":[3682,3916]},{"type":"Point","properties":{"name":"Americana","scalerank":8,"subregion":"São Paulo","latitude":-22.749943,"longitude":-47.32999},"id":"Q467421","coordinates":[3685,3873]},{"type":"Point","properties":{"name":"Piracicaba","scalerank":8,"subregion":"São Paulo","latitude":-22.709998,"longitude":-47.639997},"id":"Q330175","coordinates":[3676,3874]},{"type":"Point","properties":{"name":"São João da Boa Vista","scalerank":8,"subregion":"São Paulo","latitude":-21.980016,"longitude":-46.789997},"id":"Q925419","coordinates":[3700,3917]},{"type":"Point","properties":{"name":"São Carlos","scalerank":8,"subregion":"São Paulo","latitude":-22.020014,"longitude":-47.889982},"id":"Q194338","coordinates":[3669,3915]},{"type":"Point","properties":{"name":"Tupã","scalerank":8,"subregion":"São Paulo","latitude":-21.929994,"longitude":-50.51995},"id":"Q961143","coordinates":[3596,3920]},{"type":"Point","properties":{"name":"Penápolis","scalerank":8,"subregion":"São Paulo","latitude":-21.410025,"longitude":-50.080003},"id":"Q986508","coordinates":[3609,3950]},{"type":"Point","properties":{"name":"Presidente Prudente","scalerank":8,"subregion":"São Paulo","latitude":-22.120008,"longitude":-51.39},"id":"Q525618","coordinates":[3572,3909]},{"type":"Point","properties":{"name":"Registro","scalerank":8,"subregion":"São Paulo","latitude":-24.490044,"longitude":-47.839985},"id":"Q1798084","coordinates":[3671,3773]},{"type":"Point","properties":{"name":"Tatuí","scalerank":8,"subregion":"São Paulo","latitude":-23.35001,"longitude":-47.860009},"id":"Q1795613","coordinates":[3670,3838]},{"type":"Point","properties":{"name":"Avaré","scalerank":8,"subregion":"São Paulo","latitude":-23.110025,"longitude":-48.930021},"id":"Q782812","coordinates":[3640,3852]},{"type":"Point","properties":{"name":"Garça","scalerank":8,"subregion":"São Paulo","latitude":-22.220002,"longitude":-49.659977},"id":"Q940614","coordinates":[3620,3903]},{"type":"Point","properties":{"name":"Catanduva","scalerank":8,"subregion":"São Paulo","latitude":-21.140016,"longitude":-48.979967},"id":"Q983683","coordinates":[3639,3965]},{"type":"Point","properties":{"name":"Batatais","scalerank":8,"subregion":"São Paulo","latitude":-20.890005,"longitude":-47.59},"id":"Q650500","coordinates":[3678,3980]},{"type":"Point","properties":{"name":"Barretos","scalerank":8,"subregion":"São Paulo","latitude":-20.550026,"longitude":-48.580017},"id":"Q1637488","coordinates":[3650,3999]},{"type":"Point","properties":{"name":"Marília","scalerank":8,"subregion":"São Paulo","latitude":-22.210028,"longitude":-49.950011},"id":"Q737660","coordinates":[3612,3904]},{"type":"Point","properties":{"name":"Itu","scalerank":8,"subregion":"São Paulo","latitude":-23.260042,"longitude":-47.300018},"id":"Q957653","coordinates":[3686,3843]},{"type":"Point","properties":{"name":"Itapetininga","scalerank":8,"subregion":"São Paulo","latitude":-23.589996,"longitude":-48.039998},"id":"Q942071","coordinates":[3665,3824]},{"type":"Point","properties":{"name":"Jaboatao","scalerank":8,"subregion":"Pernambuco","latitude":-8.11001,"longitude":-35.020044},"id":"Q271393","coordinates":[4027,4716]},{"type":"Point","properties":{"name":"Olinda","scalerank":8,"subregion":"Pernambuco","latitude":-7.999991,"longitude":-34.849951},"id":"Q28301","coordinates":[4032,4722]},{"type":"Point","properties":{"name":"Cabo de Santo Agostinho","scalerank":8,"subregion":"Pernambuco","latitude":-8.289999,"longitude":-35.029991},"id":"Q1637538","coordinates":[4027,4705]},{"type":"Point","properties":{"name":"Carpina","scalerank":8,"subregion":"Pernambuco","latitude":-7.840001,"longitude":-35.260003},"id":"Q1993877","coordinates":[4020,4731]},{"type":"Point","properties":{"name":"Arcoverde","scalerank":8,"subregion":"Pernambuco","latitude":-8.420017,"longitude":-37.069996},"id":"Q637902","coordinates":[3970,4698]},{"type":"Point","properties":{"name":"Manacapuru","scalerank":7,"subregion":"Amazonas","latitude":-3.289581,"longitude":-60.61998},"id":"Q983526","coordinates":[3316,4993]},{"type":"Point","properties":{"name":"Maués","scalerank":7,"subregion":"Amazonas","latitude":-3.389626,"longitude":-57.720028},"id":"Q1808581","coordinates":[3396,4988]},{"type":"Point","properties":{"name":"Pedreiras","scalerank":7,"subregion":"Maranh","latitude":-4.569606,"longitude":-44.670023},"id":"Q1957216","coordinates":[3759,4920]},{"type":"Point","properties":{"name":"Codó","scalerank":7,"subregion":"Maranhão","latitude":-4.479586,"longitude":-43.879968},"id":"Q2013225","coordinates":[3781,4925]},{"type":"Point","properties":{"name":"Coroatá","scalerank":7,"subregion":"Maranhão","latitude":-4.129581,"longitude":-44.150003},"id":"Q967552","coordinates":[3773,4945]},{"type":"Point","properties":{"name":"Chapadinha","scalerank":7,"subregion":"Maranhão","latitude":-3.739528,"longitude":-43.36},"id":"Q746060","coordinates":[3795,4967]},{"type":"Point","properties":{"name":"Pinheiro","scalerank":7,"subregion":"Maranhão","latitude":-2.519602,"longitude":-45.089997},"id":"Q1796449","coordinates":[3747,5038]},{"type":"Point","properties":{"name":"Barra do Corda","scalerank":7,"subregion":"Maranhão","latitude":-5.5096,"longitude":-45.259961},"id":"Q1807301","coordinates":[3742,4866]},{"type":"Point","properties":{"name":"Viana","scalerank":7,"subregion":"Maranhão","latitude":-3.209586,"longitude":-45.000003},"id":"Q2106072","coordinates":[3750,4998]},{"type":"Point","properties":{"name":"Colinas","scalerank":7,"subregion":"Maranhão","latitude":-6.039542,"longitude":-44.239998},"id":"Q369679","coordinates":[3771,4835]},{"type":"Point","properties":{"name":"Viseu","scalerank":7,"subregion":"Pará","latitude":-1.196479,"longitude":-46.140011},"id":"Q772569","coordinates":[3718,5114]},{"type":"Point","properties":{"name":"Capitão Poço","scalerank":7,"subregion":"Pará","latitude":-1.749623,"longitude":-47.090005},"id":"Q955914","coordinates":[3692,5082]},{"type":"Point","properties":{"name":"Castanhal","scalerank":7,"subregion":"Pará","latitude":-1.2896,"longitude":-47.930031},"id":"Q984581","coordinates":[3668,5109]},{"type":"Point","properties":{"name":"Salinópolis","scalerank":7,"subregion":"Pará","latitude":-0.609486,"longitude":-47.339989},"id":"Q1008198","coordinates":[3685,5148]},{"type":"Point","properties":{"name":"Alenquer","scalerank":7,"subregion":"Pará","latitude":-1.939586,"longitude":-54.79},"id":"Q2289869","coordinates":[3478,5071]},{"type":"Point","properties":{"name":"Oriximiná","scalerank":7,"subregion":"Pará","latitude":-1.759597,"longitude":-55.869985},"id":"Q2011919","coordinates":[3448,5081]},{"type":"Point","properties":{"name":"Xinguara","scalerank":7,"subregion":"Par","latitude":-7.100614,"longitude":-49.948047},"id":"Q2008249","coordinates":[3612,4774]},{"type":"Point","properties":{"name":"Jacundá","scalerank":7,"subregion":"Par","latitude":-4.439459,"longitude":-49.115693},"id":"Q1967407","coordinates":[3635,4927]},{"type":"Point","properties":{"name":"Uruará","scalerank":7,"subregion":"Par","latitude":-3.8296,"longitude":-54.029994},"id":"Q2009083","coordinates":[3499,4962]},{"type":"Point","properties":{"name":"Altamira","scalerank":7,"subregion":"Pará","latitude":-3.199612,"longitude":-52.210002},"id":"Q434285","coordinates":[3549,4999]},{"type":"Point","properties":{"name":"Paragominas","scalerank":7,"subregion":"Pará","latitude":-2.959575,"longitude":-47.490006},"id":"Q935005","coordinates":[3680,5012]},{"type":"Point","properties":{"name":"Cametá","scalerank":7,"subregion":"Pará","latitude":-2.239619,"longitude":-49.509986},"id":"Q1805206","coordinates":[3624,5054]},{"type":"Point","properties":{"name":"Rolim de Moura","scalerank":7,"subregion":"Rondinia","latitude":-11.730203,"longitude":-61.780632},"id":"Q1784242","coordinates":[3284,4507]},{"type":"Point","properties":{"name":"Ariquemes","scalerank":7,"subregion":"Rondônia","latitude":-9.939614,"longitude":-63.079985},"id":"Q1646975","coordinates":[3247,4610]},{"type":"Point","properties":{"name":"Abunã","scalerank":7,"subregion":"Rondinia","latitude":-9.695391,"longitude":-65.359716},"id":"Q4670642","coordinates":[3184,4624]},{"type":"Point","properties":{"name":"Tocantinópolis","scalerank":7,"subregion":"Tocantins","latitude":-6.319577,"longitude":-47.419984},"id":"Q587927","coordinates":[3682,4819]},{"type":"Point","properties":{"name":"Gurupi","scalerank":7,"subregion":"Tocantins","latitude":-11.719609,"longitude":-49.059988},"id":"Q1784265","coordinates":[3637,4508]},{"type":"Point","properties":{"name":"Aquidauana","scalerank":7,"subregion":"Mato Grosso do Sul","latitude":-20.469618,"longitude":-55.790016},"id":"Q1792157","coordinates":[3450,4004]},{"type":"Point","properties":{"name":"Paranaíba","scalerank":7,"subregion":"Mato Grosso do Sul","latitude":-19.679588,"longitude":-51.200012},"id":"Q925758","coordinates":[3577,4050]},{"type":"Point","properties":{"name":"Sete Lagoas","scalerank":7,"subregion":"Minas Gerais","latitude":-19.449628,"longitude":-44.249997},"id":"Q841226","coordinates":[3770,4063]},{"type":"Point","properties":{"name":"Divinópolis","scalerank":7,"subregion":"Minas Gerais","latitude":-20.149534,"longitude":-44.899983},"id":"Q926606","coordinates":[3752,4022]},{"type":"Point","properties":{"name":"Ipatinga","scalerank":7,"subregion":"Minas Gerais","latitude":-19.4796,"longitude":-42.519999},"id":"Q318314","coordinates":[3819,4061]},{"type":"Point","properties":{"name":"Araxá","scalerank":7,"subregion":"Minas Gerais","latitude":-19.579594,"longitude":-46.950013},"id":"Q586057","coordinates":[3695,4055]},{"type":"Point","properties":{"name":"Lavras","scalerank":7,"subregion":"Minas Gerais","latitude":-21.24957,"longitude":-45.009951},"id":"Q1638425","coordinates":[3749,3959]},{"type":"Point","properties":{"name":"Ubá","scalerank":7,"subregion":"Minas Gerais","latitude":-21.119604,"longitude":-42.950025},"id":"Q922944","coordinates":[3807,3967]},{"type":"Point","properties":{"name":"Campo Belo","scalerank":7,"subregion":"Minas Gerais","latitude":-20.889592,"longitude":-45.279986},"id":"Q595804","coordinates":[3742,3980]},{"type":"Point","properties":{"name":"Ponte Nova","scalerank":7,"subregion":"Minas Gerais","latitude":-20.409621,"longitude":-42.89995},"id":"Q999139","coordinates":[3808,4007]},{"type":"Point","properties":{"name":"Curvelo","scalerank":7,"subregion":"Minas Gerais","latitude":-18.759593,"longitude":-44.429986},"id":"Q1749748","coordinates":[3765,4102]},{"type":"Point","properties":{"name":"Paracatu","scalerank":7,"subregion":"Minas Gerais","latitude":-17.199585,"longitude":-46.869992},"id":"Q1755739","coordinates":[3698,4192]},{"type":"Point","properties":{"name":"Bocaiúva","scalerank":7,"subregion":"Minas Gerais","latitude":-17.109616,"longitude":-43.81005},"id":"Q1756928","coordinates":[3783,4198]},{"type":"Point","properties":{"name":"Araçuaí","scalerank":7,"subregion":"Minas Gerais","latitude":-16.859605,"longitude":-42.069949},"id":"Q1749750","coordinates":[3831,4212]},{"type":"Point","properties":{"name":"Janaúba","scalerank":7,"subregion":"Minas Gerais","latitude":-15.799618,"longitude":-43.309977},"id":"Q1791340","coordinates":[3797,4273]},{"type":"Point","properties":{"name":"Juina","scalerank":7,"subregion":"Mato Grosso","latitude":-11.399577,"longitude":-59.500022},"id":"Q1880608","coordinates":[3367,4525]},{"type":"Point","properties":{"name":"Barra do Garças","scalerank":7,"subregion":"Mato Grosso","latitude":-15.879613,"longitude":-52.259999},"id":"Q577720","coordinates":[3548,4268]},{"type":"Point","properties":{"name":"Pontes e Lacerda","scalerank":7,"subregion":"Mato Grosso","latitude":-15.219602,"longitude":-59.34998},"id":"Q2011952","coordinates":[3351,4306]},{"type":"Point","properties":{"name":"Barra do Bugres","scalerank":7,"subregion":"Mato Grosso","latitude":-15.069585,"longitude":-57.190008},"id":"Q1805676","coordinates":[3411,4315]},{"type":"Point","properties":{"name":"Rondonópolis","scalerank":7,"subregion":"Mato Grosso","latitude":-16.4695,"longitude":-54.639983},"id":"Q983714","coordinates":[3482,4234]},{"type":"Point","properties":{"name":"Uruguaiana","scalerank":7,"subregion":"Rio Grande do Sul","latitude":-29.769618,"longitude":-57.089988},"id":"Q622823","coordinates":[3414,3468]},{"type":"Point","properties":{"name":"São Borja","scalerank":7,"subregion":"Rio Grande do Sul","latitude":-28.659609,"longitude":-56.009977},"id":"Q385327","coordinates":[3444,3532]},{"type":"Point","properties":{"name":"Novo Hamburgo","scalerank":7,"subregion":"Rio Grande do Sul","latitude":-29.709622,"longitude":-51.13999},"id":"Q321331","coordinates":[3579,3472]},{"type":"Point","properties":{"name":"Rio Grande","scalerank":7,"subregion":"Rio Grande do Sul","latitude":-32.049479,"longitude":-52.120008},"id":"Q869571","coordinates":[3552,3337]},{"type":"Point","properties":{"name":"Camaquã","scalerank":7,"subregion":"Rio Grande do Sul","latitude":-30.839631,"longitude":-51.810001},"id":"Q986275","coordinates":[3560,3407]},{"type":"Point","properties":{"name":"Bento Gonçalves","scalerank":7,"subregion":"Rio Grande do Sul","latitude":-29.1695,"longitude":-51.519967},"id":"Q548652","coordinates":[3569,3503]},{"type":"Point","properties":{"name":"Vacaria","scalerank":7,"subregion":"Rio Grande do Sul","latitude":-28.499618,"longitude":-50.940002},"id":"Q941580","coordinates":[3585,3542]},{"type":"Point","properties":{"name":"Ijuí","scalerank":7,"subregion":"Rio Grande do Sul","latitude":-28.389548,"longitude":-53.919949},"id":"Q194374","coordinates":[3502,3548]},{"type":"Point","properties":{"name":"Santa Rosa","scalerank":7,"subregion":"Rio Grande do Sul","latitude":-27.869528,"longitude":-54.459968},"id":"Q995326","coordinates":[3487,3578]},{"type":"Point","properties":{"name":"Maringá","scalerank":7,"subregion":"Paraná","latitude":-23.409541,"longitude":-51.929968},"id":"Q208669","coordinates":[3557,3835]},{"type":"Point","properties":{"name":"Cascavel","scalerank":7,"subregion":"Paraná","latitude":-24.959576,"longitude":-53.460029},"id":"Q205681","coordinates":[3515,3745]},{"type":"Point","properties":{"name":"Campo Murao","scalerank":7,"subregion":"Paraná","latitude":-24.049606,"longitude":-52.419989},"id":"Q1773327","coordinates":[3544,3798]},{"type":"Point","properties":{"name":"Foz do Iguaçu","scalerank":7,"subregion":"Paraná","latitude":-25.523469,"longitude":-54.52999},"id":"Q202316","coordinates":[3485,3713]},{"type":"Point","properties":{"name":"São Francisco do Sul","scalerank":7,"subregion":"Santa Catarina","latitude":-26.239601,"longitude":-48.59999},"id":"Q986536","coordinates":[3650,3672]},{"type":"Point","properties":{"name":"Porto União","scalerank":7,"subregion":"Santa Catarina","latitude":-26.239601,"longitude":-51.079968},"id":"Q1784679","coordinates":[3581,3672]},{"type":"Point","properties":{"name":"Itajaí","scalerank":7,"subregion":"Santa Catarina","latitude":-26.899613,"longitude":-48.680011},"id":"Q842713","coordinates":[3647,3634]},{"type":"Point","properties":{"name":"Imbituba","scalerank":7,"subregion":"Santa Catarina","latitude":-28.229609,"longitude":-48.660012},"id":"Q986545","coordinates":[3648,3557]},{"type":"Point","properties":{"name":"Lajes","scalerank":7,"subregion":"Santa Catarina","latitude":-27.809583,"longitude":-50.309989},"id":"Q762009","coordinates":[3602,3581]},{"type":"Point","properties":{"name":"Granja","scalerank":7,"subregion":"Ceará","latitude":-3.119514,"longitude":-40.839998},"id":"Q2028672","coordinates":[3865,5003]},{"type":"Point","properties":{"name":"Crato","scalerank":7,"subregion":"Ceará","latitude":-7.229599,"longitude":-39.420008},"id":"Q1004897","coordinates":[3905,4766]},{"type":"Point","properties":{"name":"Itapipoca","scalerank":7,"subregion":"Ceará","latitude":-3.499542,"longitude":-39.580024},"id":"Q1797985","coordinates":[3900,4981]},{"type":"Point","properties":{"name":"Paracuru","scalerank":7,"subregion":"Ceará","latitude":-3.399548,"longitude":-39.040031},"id":"Q542347","coordinates":[3915,4987]},{"type":"Point","properties":{"name":"Acaraú","scalerank":7,"subregion":"Ceará","latitude":-2.889605,"longitude":-40.119991},"id":"Q1796706","coordinates":[3885,5016]},{"type":"Point","properties":{"name":"Tauá","scalerank":7,"subregion":"Ceará","latitude":-5.999493,"longitude":-40.310031},"id":"Q2021015","coordinates":[3880,4837]},{"type":"Point","properties":{"name":"Crateús","scalerank":7,"subregion":"Ceará","latitude":-5.16559,"longitude":-40.666004},"id":"Q2021123","coordinates":[3870,4885]},{"type":"Point","properties":{"name":"Baturité","scalerank":7,"subregion":"Ceará","latitude":-4.329569,"longitude":-38.879989},"id":"Q2021082","coordinates":[3920,4933]},{"type":"Point","properties":{"name":"Ipú","scalerank":7,"subregion":"Ceará","latitude":-4.319596,"longitude":-40.720057},"id":"Q2026922","coordinates":[3869,4934]},{"type":"Point","properties":{"name":"Floriano","scalerank":7,"subregion":"Piauí","latitude":-6.769575,"longitude":-43.029968},"id":"Q2008644","coordinates":[3804,4793]},{"type":"Point","properties":{"name":"Piripiri","scalerank":7,"subregion":"Piauí","latitude":-4.269573,"longitude":-41.789992},"id":"Q996763","coordinates":[3839,4937]},{"type":"Point","properties":{"name":"Penedo","scalerank":7,"subregion":"Alagoas","latitude":-10.26962,"longitude":-36.580026},"id":"Q1772658","coordinates":[3983,4591]},{"type":"Point","properties":{"name":"Itabuna","scalerank":7,"subregion":"Bahia","latitude":-14.789602,"longitude":-39.280016},"id":"Q460750","coordinates":[3909,4331]},{"type":"Point","properties":{"name":"Itamaraju","scalerank":7,"subregion":"Bahia","latitude":-17.039594,"longitude":-39.529949},"id":"Q943536","coordinates":[3902,4202]},{"type":"Point","properties":{"name":"Guanambi","scalerank":7,"subregion":"Bahia","latitude":-14.229585,"longitude":-42.789983},"id":"Q786924","coordinates":[3811,4363]},{"type":"Point","properties":{"name":"Porto Seguro","scalerank":7,"subregion":"Bahia","latitude":-16.429606,"longitude":-39.080028},"id":"Q499922","coordinates":[3914,4237]},{"type":"Point","properties":{"name":"Valença","scalerank":7,"subregion":"Bahia","latitude":-13.359612,"longitude":-39.080028},"id":"Q1010498","coordinates":[3914,4413]},{"type":"Point","properties":{"name":"Serrinha","scalerank":7,"subregion":"Bahia","latitude":-11.649587,"longitude":-39.010007},"id":"Q1008215","coordinates":[3916,4512]},{"type":"Point","properties":{"name":"Tucano","scalerank":7,"subregion":"Bahia","latitude":-10.969629,"longitude":-38.789994},"id":"Q22062855","coordinates":[3922,4551]},{"type":"Point","properties":{"name":"Senhor do Bonfim","scalerank":7,"subregion":"Bahia","latitude":-10.449609,"longitude":-40.190012},"id":"Q1808316","coordinates":[3883,4581]},{"type":"Point","properties":{"name":"Remanso","scalerank":7,"subregion":"Bahia","latitude":-9.599583,"longitude":-42.109998},"id":"Q1794265","coordinates":[3830,4630]},{"type":"Point","properties":{"name":"Itambé","scalerank":7,"subregion":"Bahia","latitude":-15.239601,"longitude":-40.629985},"id":"Q686304","coordinates":[3871,4305]},{"type":"Point","properties":{"name":"Bom Jesus da Lapa","scalerank":7,"subregion":"Bahia","latitude":-13.249541,"longitude":-43.440021},"id":"Q891727","coordinates":[3793,4420]},{"type":"Point","properties":{"name":"Itaberaba","scalerank":7,"subregion":"Bahia","latitude":-12.519612,"longitude":-40.29998},"id":"Q1800730","coordinates":[3880,4462]},{"type":"Point","properties":{"name":"São Mateus","scalerank":7,"subregion":"Espírito Santo","latitude":-18.72962,"longitude":-39.859981},"id":"Q1763574","coordinates":[3892,4104]},{"type":"Point","properties":{"name":"Patos","scalerank":7,"subregion":"Paraíba","latitude":-7.019586,"longitude":-37.290008},"id":"Q1966384","coordinates":[3964,4779]},{"type":"Point","properties":{"name":"Volta Redonda","scalerank":7,"subregion":"Rio de Janeiro","latitude":-22.51957,"longitude":-44.094968},"id":"Q276176","coordinates":[3775,3886]},{"type":"Point","properties":{"name":"Petrópolis","scalerank":7,"subregion":"Rio de Janeiro","latitude":-22.509493,"longitude":-43.199984},"id":"Q189043","coordinates":[3800,3887]},{"type":"Point","properties":{"name":"Nova Cruz","scalerank":7,"subregion":"Rio Grande do Norte","latitude":-6.469594,"longitude":-35.439992},"id":"Q1802859","coordinates":[4015,4810]},{"type":"Point","properties":{"name":"Caicó","scalerank":7,"subregion":"Rio Grande do Norte","latitude":-6.45962,"longitude":-37.10002},"id":"Q1751350","coordinates":[3969,4811]},{"type":"Point","properties":{"name":"Açu","scalerank":7,"subregion":"Rio Grande do Norte","latitude":-5.579622,"longitude":-36.910057},"id":"Q1788873","coordinates":[3974,4861]},{"type":"Point","properties":{"name":"Estância","scalerank":7,"subregion":"Sergipe","latitude":-11.269611,"longitude":-37.450025},"id":"Q1005942","coordinates":[3959,4534]},{"type":"Point","properties":{"name":"Caracaraí","scalerank":7,"subregion":"Roraima","latitude":1.816232,"longitude":-61.127675},"id":"Q772563","coordinates":[3302,5287]},{"type":"Point","properties":{"name":"Porto Santana","scalerank":7,"subregion":"Amapá","latitude":-0.039598,"longitude":-51.179987},"id":"Q2105236","coordinates":[3578,5181]},{"type":"Point","properties":{"name":"Rio Verde","scalerank":7,"subregion":"Goi","latitude":-17.819598,"longitude":-50.929977},"id":"Q942064","coordinates":[3585,4157]},{"type":"Point","properties":{"name":"Pires do Rio","scalerank":7,"subregion":"Goiás","latitude":-17.299527,"longitude":-48.279984},"id":"Q987688","coordinates":[3659,4187]},{"type":"Point","properties":{"name":"Anápolis","scalerank":7,"subregion":"Goiás","latitude":-16.319587,"longitude":-48.959968},"id":"Q223422","coordinates":[3640,4243]},{"type":"Point","properties":{"name":"Goianésia","scalerank":7,"subregion":"Goiás","latitude":-15.309622,"longitude":-49.130009},"id":"Q988771","coordinates":[3635,4301]},{"type":"Point","properties":{"name":"Niquelândia","scalerank":7,"subregion":"Goiás","latitude":-14.469622,"longitude":-48.470024},"id":"Q1794378","coordinates":[3653,4350]},{"type":"Point","properties":{"name":"Itumbiara","scalerank":7,"subregion":"Goiás","latitude":-18.399615,"longitude":-49.210004},"id":"Q193350","coordinates":[3633,4123]},{"type":"Point","properties":{"name":"Jataí","scalerank":7,"subregion":"Goiás","latitude":-17.879595,"longitude":-51.750004},"id":"Q963195","coordinates":[3562,4153]},{"type":"Point","properties":{"name":"Mineiros","scalerank":7,"subregion":"Goiás","latitude":-17.569536,"longitude":-52.559981},"id":"Q1795244","coordinates":[3540,4171]},{"type":"Point","properties":{"name":"Formosa","scalerank":7,"subregion":"Goiás","latitude":-15.539479,"longitude":-47.339989},"id":"Q1003392","coordinates":[3685,4288]},{"type":"Point","properties":{"name":"São José do Rio Preto","scalerank":7,"subregion":"São Paulo","latitude":-20.799623,"longitude":-49.389968},"id":"Q192181","coordinates":[3628,3985]},{"type":"Point","properties":{"name":"Limeira","scalerank":7,"subregion":"São Paulo","latitude":-22.549542,"longitude":-47.400011},"id":"Q841241","coordinates":[3683,3883]},{"type":"Point","properties":{"name":"Taubaté","scalerank":7,"subregion":"São Paulo","latitude":-23.019539,"longitude":-45.559995},"id":"Q170540","coordinates":[3734,3857]},{"type":"Point","properties":{"name":"Jaú","scalerank":7,"subregion":"São Paulo","latitude":-22.28961,"longitude":-48.570018},"id":"Q1759235","coordinates":[3650,3899]},{"type":"Point","properties":{"name":"Assis","scalerank":7,"subregion":"São Paulo","latitude":-22.659613,"longitude":-50.419982},"id":"Q742227","coordinates":[3599,3878]},{"type":"Point","properties":{"name":"Itapeva","scalerank":7,"subregion":"São Paulo","latitude":-23.979584,"longitude":-48.880025},"id":"Q1808590","coordinates":[3642,3802]},{"type":"Point","properties":{"name":"Botucatu","scalerank":7,"subregion":"São Paulo","latitude":-22.8796,"longitude":-48.449999},"id":"Q1625598","coordinates":[3654,3865]},{"type":"Point","properties":{"name":"Novo Horizonte","scalerank":7,"subregion":"São Paulo","latitude":-21.459583,"longitude":-49.220004},"id":"Q1815907","coordinates":[3632,3947]},{"type":"Point","properties":{"name":"Andradina","scalerank":7,"subregion":"São Paulo","latitude":-20.909591,"longitude":-51.379949},"id":"Q1646937","coordinates":[3572,3979]},{"type":"Point","properties":{"name":"Fernandópolis","scalerank":7,"subregion":"São Paulo","latitude":-20.26963,"longitude":-50.260044},"id":"Q1648179","coordinates":[3604,4016]},{"type":"Point","properties":{"name":"Barreiros","scalerank":7,"subregion":"Pernambuco","latitude":-8.829605,"longitude":-35.200007},"id":"Q2102404","coordinates":[4022,4674]},{"type":"Point","properties":{"name":"Salgueiro","scalerank":7,"subregion":"Pernambuco","latitude":-8.059626,"longitude":-39.130025},"id":"Q2102772","coordinates":[3913,4719]},{"type":"Point","properties":{"name":"Goiana","scalerank":7,"subregion":"Pernambuco","latitude":-7.559605,"longitude":-34.999993},"id":"Q1767210","coordinates":[4027,4747]},{"type":"Point","properties":{"name":"Timbaúba","scalerank":7,"subregion":"Pernambuco","latitude":-7.499608,"longitude":-35.320025},"id":"Q929867","coordinates":[4018,4751]},{"type":"Point","properties":{"name":"Bacabal","scalerank":6,"subregion":"Maranhão","latitude":-4.229989,"longitude":-44.799989},"id":"Q1807313","coordinates":[3755,4939]},{"type":"Point","properties":{"name":"Bragança","scalerank":6,"subregion":"Pará","latitude":-1.050028,"longitude":-46.769998},"id":"Q320487","coordinates":[3700,5122]},{"type":"Point","properties":{"name":"Óbidos","scalerank":6,"subregion":"Pará","latitude":-1.910027,"longitude":-55.520007},"id":"Q577167","coordinates":[3457,5073]},{"type":"Point","properties":{"name":"Guajara-Miram","scalerank":6,"subregion":"Rondônia","latitude":-10.800027,"longitude":-65.349949},"id":"Q983810","coordinates":[3184,4561]},{"type":"Point","properties":{"name":"Porto Nacional","scalerank":6,"subregion":"Tocantins","latitude":-10.700033,"longitude":-48.419949},"id":"Q1784315","coordinates":[3655,4567]},{"type":"Point","properties":{"name":"Dourados","scalerank":6,"subregion":"Mato Grosso do Sul","latitude":-22.230027,"longitude":-54.809998},"id":"Q651874","coordinates":[3477,3903]},{"type":"Point","properties":{"name":"Governador Valadares","scalerank":6,"subregion":"Minas Gerais","latitude":-18.870025,"longitude":-41.970007},"id":"Q462218","coordinates":[3834,4096]},{"type":"Point","properties":{"name":"Pirapora","scalerank":6,"subregion":"Minas Gerais","latitude":-17.330016,"longitude":-44.929981},"id":"Q1756358","coordinates":[3752,4185]},{"type":"Point","properties":{"name":"Juiz de Fora","scalerank":6,"subregion":"Minas Gerais","latitude":-21.770003,"longitude":-43.374986},"id":"Q193019","coordinates":[3795,3929]},{"type":"Point","properties":{"name":"Santa Maria","scalerank":6,"subregion":"Rio Grande do Sul","latitude":-29.683319,"longitude":-53.800008},"id":"Q740833","coordinates":[3505,3473]},{"type":"Point","properties":{"name":"Passo Fundo","scalerank":6,"subregion":"Rio Grande do Sul","latitude":-28.250021,"longitude":-52.419989},"id":"Q525647","coordinates":[3544,3556]},{"type":"Point","properties":{"name":"Xapeco","scalerank":6,"subregion":"Santa Catarina","latitude":-27.100014,"longitude":-52.640028},"id":"Q817387","coordinates":[3537,3622]},{"type":"Point","properties":{"name":"Joinville","scalerank":6,"subregion":"Santa Catarina","latitude":-26.318012,"longitude":-48.841895},"id":"Q156819","coordinates":[3643,3667]},{"type":"Point","properties":{"name":"Juazeiro do Norte","scalerank":6,"subregion":"Ceará","latitude":-7.210013,"longitude":-39.320014},"id":"Q817227","coordinates":[3907,4768]},{"type":"Point","properties":{"name":"Nova Viçosa","scalerank":6,"subregion":"Bahia","latitude":-17.880008,"longitude":-39.370011},"id":"Q1794050","coordinates":[3906,4153]},{"type":"Point","properties":{"name":"Alagoinhas","scalerank":6,"subregion":"Bahia","latitude":-12.139997,"longitude":-38.429991},"id":"Q818261","coordinates":[3932,4484]},{"type":"Point","properties":{"name":"Juazeiro","scalerank":6,"subregion":"Bahia","latitude":-9.420008,"longitude":-40.499968},"id":"Q753044","coordinates":[3875,4640]},{"type":"Point","properties":{"name":"Vitória","scalerank":6,"subregion":"Espírito Santo","latitude":-20.322047,"longitude":-40.367942},"id":"Q168376","coordinates":[3879,4012]},{"type":"Point","properties":{"name":"João Pessoa","scalerank":6,"subregion":"Paraíba","latitude":-7.099189,"longitude":-34.878017},"id":"Q167436","coordinates":[4031,4774]},{"type":"Point","properties":{"name":"Campina Grande","scalerank":6,"subregion":"Paraíba","latitude":-7.230012,"longitude":-35.880017},"id":"Q193016","coordinates":[4003,4766]},{"type":"Point","properties":{"name":"Nova Friburgo","scalerank":6,"subregion":"Rio de Janeiro","latitude":-22.259999,"longitude":-42.54005},"id":"Q468563","coordinates":[3818,3901]},{"type":"Point","properties":{"name":"Araçatuba","scalerank":6,"subregion":"São Paulo","latitude":-21.209986,"longitude":-50.450006},"id":"Q626835","coordinates":[3598,3961]},{"type":"Point","properties":{"name":"Sena Madureira","scalerank":6,"subregion":"Acre","latitude":-9.070003,"longitude":-68.669979},"id":"Q1754389","coordinates":[3092,4660]},{"type":"Point","properties":{"name":"Fonte Boa","scalerank":6,"subregion":"Amazonas","latitude":-2.513814,"longitude":-66.09161},"id":"Q1793768","coordinates":[3164,5038]},{"type":"Point","properties":{"name":"Eirunepé","scalerank":6,"subregion":"Amazonas","latitude":-6.660021,"longitude":-69.873808},"id":"Q1646910","coordinates":[3059,4799]},{"type":"Point","properties":{"name":"Manicoré","scalerank":6,"subregion":"Amazonas","latitude":-5.812166,"longitude":-61.297484},"id":"Q43490","coordinates":[3297,4848]},{"type":"Point","properties":{"name":"Barcelos","scalerank":6,"subregion":"Amazonas","latitude":-0.974994,"longitude":-62.923896},"id":"Q807939","coordinates":[3252,5127]},{"type":"Point","properties":{"name":"Tonantins","scalerank":6,"subregion":"Amazonas","latitude":-2.872707,"longitude":-67.801893},"id":"Q1793355","coordinates":[3116,5017]},{"type":"Point","properties":{"name":"Tefé","scalerank":6,"subregion":"Amazonas","latitude":-3.360016,"longitude":-64.699989},"id":"Q975545","coordinates":[3202,4989]},{"type":"Point","properties":{"name":"Coari","scalerank":6,"subregion":"Amazonas","latitude":-4.079972,"longitude":-63.129982},"id":"Q645204","coordinates":[3246,4948]},{"type":"Point","properties":{"name":"São Gabriel da Cachoeira","scalerank":6,"subregion":"Amazonas","latitude":-0.133236,"longitude":-67.083306},"id":"Q694840","coordinates":[3136,5175]},{"type":"Point","properties":{"name":"Novo Airão","scalerank":6,"subregion":"Amazonas","latitude":-2.620785,"longitude":-60.943784},"id":"Q1750332","coordinates":[3307,5032]},{"type":"Point","properties":{"name":"Itacoatiara","scalerank":6,"subregion":"Amazonas","latitude":-3.140029,"longitude":-58.439984},"id":"Q1750426","coordinates":[3376,5002]},{"type":"Point","properties":{"name":"Parintins","scalerank":6,"subregion":"Amazonas","latitude":-2.610036,"longitude":-56.74001},"id":"Q926713","coordinates":[3424,5032]},{"type":"Point","properties":{"name":"Natal","scalerank":6,"subregion":"Amazonas","latitude":-6.983826,"longitude":-60.269949},"coordinates":[3326,4781]},{"type":"Point","properties":{"name":"Crato","scalerank":6,"subregion":"Amazonas","latitude":-7.4639,"longitude":-63.039961},"coordinates":[3249,4753]},{"type":"Point","properties":{"name":"Imperatriz","scalerank":6,"subregion":"Maranhão","latitude":-5.520039,"longitude":-47.490006},"id":"Q504755","coordinates":[3680,4865]},{"type":"Point","properties":{"name":"Balsas","scalerank":6,"subregion":"Maranhão","latitude":-7.52002,"longitude":-46.049991},"id":"Q1813001","coordinates":[3720,4750]},{"type":"Point","properties":{"name":"Breves","scalerank":6,"subregion":"Pará","latitude":-1.680015,"longitude":-50.490004},"id":"Q1804770","coordinates":[3597,5086]},{"type":"Point","properties":{"name":"Jacareacanga","scalerank":6,"subregion":"Par","latitude":-6.266609,"longitude":-57.650006},"id":"Q1805252","coordinates":[3395,4824]},{"type":"Point","properties":{"name":"Tucuruí","scalerank":6,"subregion":"Pará","latitude":-3.679996,"longitude":-49.719999},"id":"Q374432","coordinates":[3620,4966]},{"type":"Point","properties":{"name":"Itaituba","scalerank":6,"subregion":"Pará","latitude":-4.258617,"longitude":-55.925021},"id":"Q655734","coordinates":[3446,4938]},{"type":"Point","properties":{"name":"Conceição do Araguaia","scalerank":6,"subregion":"Pará","latitude":-8.250002,"longitude":-49.290025},"id":"Q1788037","coordinates":[3630,4708]},{"type":"Point","properties":{"name":"Abaetetuba","scalerank":6,"subregion":"Pará","latitude":-1.724531,"longitude":-48.88488},"id":"Q1615298","coordinates":[3642,5083]},{"type":"Point","properties":{"name":"Principe da Beira","scalerank":6,"subregion":"Rondinia","latitude":-12.416672,"longitude":-64.416647},"coordinates":[3210,4468]},{"type":"Point","properties":{"name":"Araguaína","scalerank":6,"subregion":"Tocantins","latitude":-7.190015,"longitude":-48.210014},"id":"Q625279","coordinates":[3660,4769]},{"type":"Point","properties":{"name":"Palmas","scalerank":6,"subregion":"Tocantins","latitude":-10.237736,"longitude":-48.287787},"id":"Q178993","coordinates":[3658,4593]},{"type":"Point","properties":{"name":"Teófilo Otoni","scalerank":6,"subregion":"Minas Gerais","latitude":-17.870035,"longitude":-41.50001},"id":"Q1637552","coordinates":[3847,4154]},{"type":"Point","properties":{"name":"Uberaba","scalerank":6,"subregion":"Minas Gerais","latitude":-19.779996,"longitude":-47.950004},"id":"Q381733","coordinates":[3668,4044]},{"type":"Point","properties":{"name":"Januária","scalerank":6,"subregion":"Minas Gerais","latitude":-15.48,"longitude":-44.36999},"id":"Q22062457","coordinates":[3767,4291]},{"type":"Point","properties":{"name":"Santissima Trindade","scalerank":6,"subregion":"Mato Grosso","latitude":-15.000029,"longitude":-59.950021},"id":"Q732088","coordinates":[3334,4319]},{"type":"Point","properties":{"name":"Aripuanã","scalerank":6,"subregion":"Mato Grosso","latitude":-10.17666,"longitude":-59.44387},"id":"Q1805412","coordinates":[3348,4597]},{"type":"Point","properties":{"name":"Sinop","scalerank":6,"subregion":"Mato Grosso","latitude":-11.849989,"longitude":-55.459985},"id":"Q180192","coordinates":[3459,4500]},{"type":"Point","properties":{"name":"Jaguarão","scalerank":6,"subregion":"Rio Grande do Sul","latitude":-32.560042,"longitude":-53.369983},"id":"Q942201","coordinates":[3517,3308]},{"type":"Point","properties":{"name":"Bagé","scalerank":6,"subregion":"Rio Grande do Sul","latitude":-31.320015,"longitude":-54.100016},"id":"Q119140","coordinates":[3497,3379]},{"type":"Point","properties":{"name":"Londrina","scalerank":6,"subregion":"Paraná","latitude":-23.300039,"longitude":-51.179987},"id":"Q192387","coordinates":[3578,3841]},{"type":"Point","properties":{"name":"Criciúma","scalerank":6,"subregion":"Santa Catarina","latitude":-28.680021,"longitude":-49.389968},"id":"Q1439157","coordinates":[3628,3531]},{"type":"Point","properties":{"name":"Aracati","scalerank":6,"subregion":"Ceará","latitude":-4.559994,"longitude":-37.770031},"id":"Q1754397","coordinates":[3950,4920]},{"type":"Point","properties":{"name":"Icó","scalerank":6,"subregion":"Ceará","latitude":-6.400037,"longitude":-38.849991},"id":"Q1807902","coordinates":[3920,4814]},{"type":"Point","properties":{"name":"Parnaíba","scalerank":6,"subregion":"Piauí","latitude":-2.910018,"longitude":-41.769968},"id":"Q1643864","coordinates":[3839,5015]},{"type":"Point","properties":{"name":"Picos","scalerank":6,"subregion":"Piauí","latitude":-7.079996,"longitude":-41.439988},"id":"Q1810825","coordinates":[3849,4775]},{"type":"Point","properties":{"name":"Arapiraca","scalerank":6,"subregion":"Alagoas","latitude":-9.750013,"longitude":-36.669995},"id":"Q626175","coordinates":[3981,4621]},{"type":"Point","properties":{"name":"Jequié","scalerank":6,"subregion":"Bahia","latitude":-13.850022,"longitude":-40.079993},"id":"Q630203","coordinates":[3886,4385]},{"type":"Point","properties":{"name":"Ilhéus","scalerank":6,"subregion":"Bahia","latitude":-14.780042,"longitude":-39.050004},"id":"Q373705","coordinates":[3915,4332]},{"type":"Point","properties":{"name":"Canavieiras","scalerank":6,"subregion":"Bahia","latitude":-15.640042,"longitude":-38.96001},"id":"Q1772515","coordinates":[3917,4282]},{"type":"Point","properties":{"name":"Santa Maria da Vitória","scalerank":6,"subregion":"Bahia","latitude":-13.389998,"longitude":-44.210025},"id":"Q1761852","coordinates":[3772,4412]},{"type":"Point","properties":{"name":"Irecê","scalerank":6,"subregion":"Bahia","latitude":-11.299996,"longitude":-41.870013},"id":"Q1762180","coordinates":[3837,4532]},{"type":"Point","properties":{"name":"Xique-Xique","scalerank":6,"subregion":"Bahia","latitude":-10.820026,"longitude":-42.730012},"id":"Q1762114","coordinates":[3813,4560]},{"type":"Point","properties":{"name":"Linhares","scalerank":6,"subregion":"Espírito Santo","latitude":-19.389994,"longitude":-40.050021},"id":"Q1755402","coordinates":[3887,4066]},{"type":"Point","properties":{"name":"Campos","scalerank":6,"subregion":"Rio de Janeiro","latitude":-21.749953,"longitude":-41.320021},"id":"Q689868","coordinates":[3852,3930]},{"type":"Point","properties":{"name":"Mossoró","scalerank":6,"subregion":"Rio Grande do Norte","latitude":-5.190033,"longitude":-37.340005},"id":"Q694845","coordinates":[3962,4884]},{"type":"Point","properties":{"name":"Aracaju","scalerank":6,"subregion":"Sergipe","latitude":-10.900021,"longitude":-37.119967},"id":"Q170578","coordinates":[3968,4555]},{"type":"Point","properties":{"name":"Laranjal do Jari","scalerank":6,"subregion":"Amapi","latitude":-0.85004,"longitude":-52.480011},"id":"Q1117969","coordinates":[3542,5134]},{"type":"Point","properties":{"name":"Amapá","scalerank":6,"subregion":"Amapi","latitude":2.04999,"longitude":-50.800011},"id":"Q586263","coordinates":[3589,5301]},{"type":"Point","properties":{"name":"Vila Velha","scalerank":6,"subregion":"Amapi","latitude":3.216663,"longitude":-51.216652},"coordinates":[3577,5368]},{"type":"Point","properties":{"name":"Santos","scalerank":6,"subregion":"São Paulo","latitude":-23.951778,"longitude":-46.334889},"id":"Q81882","coordinates":[3713,3803]},{"type":"Point","properties":{"name":"Bauru","scalerank":6,"subregion":"São Paulo","latitude":-22.330021,"longitude":-49.080012},"id":"Q241645","coordinates":[3636,3897]},{"type":"Point","properties":{"name":"Iguape","scalerank":6,"subregion":"São Paulo","latitude":-24.720004,"longitude":-47.569949},"id":"Q1646941","coordinates":[3678,3759]},{"type":"Point","properties":{"name":"Franca","scalerank":6,"subregion":"São Paulo","latitude":-20.530027,"longitude":-47.390012},"id":"Q504587","coordinates":[3683,4001]},{"type":"Point","properties":{"name":"Garanhuns","scalerank":6,"subregion":"Pernambuco","latitude":-8.890014,"longitude":-36.500031},"id":"Q771575","coordinates":[3986,4671]},{"type":"Point","properties":{"name":"Caruaru","scalerank":6,"subregion":"Pernambuco","latitude":-8.280026,"longitude":-35.980011},"id":"Q622830","coordinates":[4000,4706]},{"type":"Point","properties":{"name":"Rio Branco","scalerank":4,"subregion":"Acre","latitude":-9.966589,"longitude":-67.800007},"id":"Q171612","coordinates":[3116,4609]},{"type":"Point","properties":{"name":"São Luís","scalerank":4,"subregion":"Maranhão","latitude":-2.514039,"longitude":-44.267937},"id":"Q28441","coordinates":[3770,5038]},{"type":"Point","properties":{"name":"Porto Velho","scalerank":4,"subregion":"Rondônia","latitude":-8.750023,"longitude":-63.900012},"id":"Q172512","coordinates":[3225,4679]},{"type":"Point","properties":{"name":"Alvorada","scalerank":4,"subregion":"Tocantins","latitude":-12.470002,"longitude":-49.082002},"id":"Q22060164","coordinates":[3636,4465]},{"type":"Point","properties":{"name":"Corumbá","scalerank":4,"subregion":"Mato Grosso do Sul","latitude":-19.016011,"longitude":-57.650006},"id":"Q271215","coordinates":[3398,4088]},{"type":"Point","properties":{"name":"Belo Horizonte","scalerank":4,"subregion":"Minas Gerais","latitude":-19.91308,"longitude":-43.91695},"id":"Q42800","coordinates":[3780,4036]},{"type":"Point","properties":{"name":"Montes Claros","scalerank":4,"subregion":"Minas Gerais","latitude":-16.720027,"longitude":-43.860021},"id":"Q651906","coordinates":[3781,4220]},{"type":"Point","properties":{"name":"Uberlândia","scalerank":4,"subregion":"Minas Gerais","latitude":-18.899998,"longitude":-48.279984},"id":"Q194328","coordinates":[3659,4094]},{"type":"Point","properties":{"name":"Colíder","scalerank":4,"subregion":"Mato Grosso","latitude":-10.817287,"longitude":-55.45058},"id":"Q1805608","coordinates":[3459,4560]},{"type":"Point","properties":{"name":"Alta Floresta","scalerank":4,"subregion":"Mato Grosso","latitude":-9.90003,"longitude":-55.909983},"id":"Q433574","coordinates":[3447,4613]},{"type":"Point","properties":{"name":"Cuiabá","scalerank":4,"subregion":"Mato Grosso","latitude":-15.567661,"longitude":-56.086931},"id":"Q170762","coordinates":[3442,4286]},{"type":"Point","properties":{"name":"Pelotas","scalerank":4,"subregion":"Rio Grande do Sul","latitude":-31.750014,"longitude":-52.330021},"id":"Q109188","coordinates":[3546,3354]},{"type":"Point","properties":{"name":"Caxias do Sul","scalerank":4,"subregion":"Rio Grande do Sul","latitude":-29.17999,"longitude":-51.17004},"id":"Q110017","coordinates":[3578,3502]},{"type":"Point","properties":{"name":"Ponta Grossa","scalerank":4,"subregion":"Paraná","latitude":-25.090007,"longitude":-50.16005},"id":"Q242906","coordinates":[3606,3738]},{"type":"Point","properties":{"name":"Teresina","scalerank":4,"subregion":"Piauí","latitude":-5.093055,"longitude":-42.781955},"id":"Q165341","coordinates":[3811,4890]},{"type":"Point","properties":{"name":"Maceió","scalerank":4,"subregion":"Alagoas","latitude":-9.61805,"longitude":-35.73192},"id":"Q168888","coordinates":[4007,4629]},{"type":"Point","properties":{"name":"Vitória da Conquista","scalerank":4,"subregion":"Bahia","latitude":-14.850012,"longitude":-40.839998},"id":"Q22062839","coordinates":[3865,4328]},{"type":"Point","properties":{"name":"Barreiras","scalerank":4,"subregion":"Bahia","latitude":-12.139997,"longitude":-45.000003},"id":"Q1384520","coordinates":[3750,4484]},{"type":"Point","properties":{"name":"Vila Velha","scalerank":4,"subregion":"Espírito Santo","latitude":-20.367608,"longitude":-40.317989},"id":"Q334197","coordinates":[3880,4012]},{"type":"Point","properties":{"name":"Natal","scalerank":4,"subregion":"Rio Grande do Norte","latitude":-5.778077,"longitude":-35.24195},"id":"Q131620","coordinates":[4021,4850]},{"type":"Point","properties":{"name":"Campinas","scalerank":4,"subregion":"São Paulo","latitude":-22.898066,"longitude":-47.101976},"id":"Q171617","coordinates":[3693,3864]},{"type":"Point","properties":{"name":"Sorocaba","scalerank":4,"subregion":"São Paulo","latitude":-23.490002,"longitude":-47.469981},"id":"Q188901","coordinates":[3681,3830]},{"type":"Point","properties":{"name":"Ribeirão Preto","scalerank":4,"subregion":"São Paulo","latitude":-21.17004,"longitude":-47.829985},"id":"Q188892","coordinates":[3671,3964]},{"type":"Point","properties":{"name":"Petrolina","scalerank":4,"subregion":"Pernambuco","latitude":-9.38001,"longitude":-40.509967},"id":"Q842143","coordinates":[3874,4643]},{"type":"Point","properties":{"name":"Cruzeiro do Sul","scalerank":3,"subregion":"Acre","latitude":-7.629988,"longitude":-72.669968},"id":"Q941136","coordinates":[2981,4743]},{"type":"Point","properties":{"name":"Manaus","scalerank":3,"subregion":"Amazonas","latitude":-3.098086,"longitude":-60.001963},"id":"Q40236","coordinates":[3333,5004]},{"type":"Point","properties":{"name":"Caxias","scalerank":3,"subregion":"Maranh","latitude":-4.833001,"longitude":-43.350026},"id":"Q997107","coordinates":[3795,4904]},{"type":"Point","properties":{"name":"Santarém","scalerank":3,"subregion":"Pará","latitude":-2.433251,"longitude":-54.699979},"id":"Q659450","coordinates":[3480,5043]},{"type":"Point","properties":{"name":"Marabá","scalerank":3,"subregion":"Pará","latitude":-5.349972,"longitude":-49.115979},"id":"Q509818","coordinates":[3635,4875]},{"type":"Point","properties":{"name":"Vilhena","scalerank":3,"subregion":"Rondônia","latitude":-12.716602,"longitude":-60.1166},"id":"Q1749958","coordinates":[3330,4450]},{"type":"Point","properties":{"name":"Ji-Paraná","scalerank":3,"subregion":"Rondinia","latitude":-10.833307,"longitude":-61.967003},"id":"Q983815","coordinates":[3278,4559]},{"type":"Point","properties":{"name":"Campo Grande","scalerank":3,"subregion":"Mato Grosso do Sul","latitude":-20.448086,"longitude":-54.618571},"id":"Q168929","coordinates":[3482,4005]},{"type":"Point","properties":{"name":"Florianópolis","scalerank":3,"subregion":"Santa Catarina","latitude":-27.578039,"longitude":-48.521966},"id":"Q132997","coordinates":[3652,3595]},{"type":"Point","properties":{"name":"Feira de Santana","scalerank":3,"subregion":"Bahia","latitude":-12.250016,"longitude":-38.970009},"id":"Q194343","coordinates":[3917,4477]},{"type":"Point","properties":{"name":"Boa Vista","scalerank":3,"subregion":"Roraima","latitude":2.816093,"longitude":-60.665998},"id":"Q181056","coordinates":[3315,5345]},{"type":"Point","properties":{"name":"Macapá","scalerank":3,"subregion":"Amapá","latitude":0.033007,"longitude":-51.050021},"id":"Q180215","coordinates":[3582,5185]},{"type":"Point","properties":{"name":"Belém","scalerank":2,"subregion":"Pará","latitude":-1.448057,"longitude":-48.481969},"id":"Q12829733","coordinates":[3653,5099]},{"type":"Point","properties":{"name":"Brasília","scalerank":2,"subregion":"Distrito Federal","latitude":-15.781394,"longitude":-47.917998},"id":"Q2844","coordinates":[3669,4274]},{"type":"Point","properties":{"name":"Porto Alegre","scalerank":2,"subregion":"Rio Grande do Sul","latitude":-30.048069,"longitude":-51.201958},"id":"Q40269","coordinates":[3577,3452]},{"type":"Point","properties":{"name":"Curitiba","scalerank":2,"subregion":"Paraná","latitude":-25.418067,"longitude":-49.321944},"id":"Q4361","coordinates":[3630,3719]},{"type":"Point","properties":{"name":"Fortaleza","scalerank":2,"subregion":"Ceará","latitude":-3.748072,"longitude":-38.581927},"id":"Q43463","coordinates":[3928,4967]},{"type":"Point","properties":{"name":"Salvador","scalerank":2,"subregion":"Bahia","latitude":-12.968026,"longitude":-38.481933},"id":"Q36947","coordinates":[3931,4436]},{"type":"Point","properties":{"name":"Goiânia","scalerank":2,"subregion":"Goiás","latitude":-16.718081,"longitude":-49.301971},"id":"Q83189","coordinates":[3630,4220]},{"type":"Point","properties":{"name":"Recife","scalerank":2,"subregion":"Pernambuco","latitude":-8.0737,"longitude":-34.917551},"id":"Q48344","coordinates":[4030,4719]},{"type":"Point","properties":{"name":"Rio de Janeiro","scalerank":0,"subregion":"Rio de Janeiro","latitude":-22.923077,"longitude":-43.226967},"id":"Q8678","coordinates":[3799,3864]},{"type":"Point","properties":{"name":"São Paulo","scalerank":0,"subregion":"São Paulo","latitude":-23.556734,"longitude":-46.626966},"id":"Q174","coordinates":[3704,3826]}]},"land":{"type":"GeometryCollection","name":"BRA_land","crs":{"type":"name","properties":{"name":"urn:ogc:def:crs:OGC:1.3:CRS84"}},"geometries":[{"type":"MultiPolygon","properties":{"scalerank":0},"arcs":[[[483]],[[484,193,485,486,487,197,488,199,489,490,202,491,204,492,493,494,495,209,496,211,497,498,499,500,501,45,502,503,504,505,506,507,52,508,54,509,510,57,511,59,512,61,513,514,515,65,516,67,517,518,519,520,521,522,523,524,76,525,78,526,527,528,529,530,531,85,532,533,88,534,535,536,537,538,539,540,275,541,542,543,544,280,545,282,546,547,548,286,549,550,551,552,553,554,555,556,557,558,559,298,560,561,301,562,563,564,565,566,320,567,568,323,569,325,570,327,571,329,572,573,574,575,338,576,340,577,578,343,579,580,348,581,352,582,583,355,584,585,586,587,588,365,589,590,591,371,592,593,594,595,596,597,598,599,382,600,601,602,603,604,605,606,390,607,608,609,610,611,396,612,613,399,614,615,402,616,617,405,618,619,415,620,621,418,622,420,623,422,624,625,427,626,627,430,628,629,630,631,632,436,633,438,634,635,636,637,638,639,640,641,642,643,644,450,645,452,646,458,647,648,461,649,650,651,652,653,467,654,469,655,656,657,658,659,660,239,661,246,662,248,663,250,664,665,666,667,668,669,257,670,259,671,672,3,673,5,674,675,676,677,10,678,679,680,14,681,682,683,684,685,686,687,22,688,24,689,26,690,28,691,30,692,32,693,694,35,695,37,696,697]],[[698]],[[699]],[[700],[701]],[[702]],[[110,703,112,704,705,706,707,708,709,710,711]],[[712]],[[713,123,714,125,715,716,717,129,718,131,719,720,134,721,136,722,723,724,725,726,727,728,144,729,146,730,731,149,732,151,733,734]],[[735]],[[736]],[[737]],[[738]],[[739]],[[740]],[[741]],[[742]],[[743]],[[744]],[[745]],[[746]],[[747]],[[748]],[[749]],[[750]],[[751]],[[752]],[[753]],[[754]],[[755]],[[756]],[[757]],[[758]],[[759]],[[760]],[[761]],[[762]],[[763]],[[764]],[[765]],[[766]],[[767]],[[768]],[[769]],[[770]],[[771]],[[772]],[[773]],[[774]],[[775]],[[776]],[[777]],[[778]],[[779]],[[780]],[[781]],[[782]],[[783]],[[784]],[[785]],[[786]],[[787]],[[788]],[[789]],[[790]],[[791]],[[792]],[[793]],[[794]],[[795]],[[796]],[[797]],[[798]],[[799]],[[800]],[[801]],[[802]],[[803]],[[804]],[[805]],[[806]],[[807]],[[808]],[[809]],[[810]],[[811]],[[812]]]},{"type":"MultiPolygon","properties":{"scalerank":6},"arcs":[[[813,814,815]],[[816,817,106,818,819]],[[820,821,219,822,221]],[[823]],[[824]],[[825]],[[826]],[[827]]]},{"type":"MultiPolygon","properties":{"scalerank":5},"arcs":[[[828]],[[829]],[[830]],[[831]],[[832,833,184,834,186]],[[835,836,837,838]],[[839]],[[840]],[[841]],[[842]],[[843]],[[844]],[[845]],[[846]],[[847]],[[848]],[[849]],[[850]],[[851]],[[852]],[[853]],[[854]],[[855]],[[856]],[[857]],[[858]],[[859]],[[860]],[[861]],[[862]],[[863]],[[864]],[[865]],[[866]],[[867]],[[868]],[[869]],[[870]],[[871]],[[872]],[[873]],[[874]],[[875]],[[876]],[[877]],[[878]],[[879]],[[880]],[[881]],[[882]],[[475,883,477,884]],[[885]],[[886]],[[887]],[[888]],[[889]],[[890]],[[891]],[[892]],[[893]],[[894]],[[895]],[[896]],[[897]],[[898]],[[899]],[[900]],[[901]],[[902]],[[903]],[[904]],[[905]],[[906]],[[907]],[[908]],[[909]],[[910]],[[911]],[[912]],[[913]],[[914]],[[915]],[[916]],[[917]],[[918]],[[919]],[[920]],[[921]],[[922]],[[923]],[[924]],[[925]],[[926]],[[927]],[[928]],[[929]],[[930]],[[931]],[[932]],[[933]],[[934]],[[935]],[[936]],[[937]],[[938]],[[939]],[[940]],[[941]],[[942]],[[943]],[[944]],[[945]],[[946]],[[947]],[[948]],[[949]],[[950]],[[951]],[[952]],[[953]],[[954]],[[955]],[[956]],[[957]],[[958]],[[959]],[[960]],[[961]],[[962]],[[963]],[[964]],[[965]],[[966]],[[967]],[[968]],[[969]],[[970]],[[971]],[[972]],[[973]],[[974]],[[975]],[[976]],[[977]],[[978]],[[979]],[[980]],[[981]],[[982]],[[983]],[[984]],[[985]],[[986]],[[987]],[[988]],[[989]],[[990]],[[991]],[[992]],[[993]],[[994]],[[995]],[[996]],[[997]],[[998]],[[999]],[[1000]],[[1001]],[[1002]],[[1003]],[[1004]],[[1005]],[[1006]],[[1007]],[[1008]],[[1009]],[[1010]],[[1011]],[[1012]],[[1013]],[[1014]],[[1015]],[[1016]],[[1017]],[[1018]],[[1019]],[[1020]],[[1021]],[[1022]],[[1023]],[[1024]],[[1025]],[[1026]],[[1027]],[[1028]],[[1029]],[[1030]],[[1031]],[[1032]],[[1033]],[[1034]],[[1035]],[[1036]],[[1037]],[[1038]],[[1039]],[[1040]],[[1041]],[[1042]],[[1043]],[[1044]],[[1045]],[[1046]],[[1047]],[[1048]],[[1049]],[[1050]],[[1051]]]},{"type":"MultiPolygon","properties":{"scalerank":6},"arcs":[[[1052]],[[1053]],[[1054]],[[1055]],[[1056]],[[1057]]]},{"type":"MultiPolygon","properties":{"scalerank":5},"arcs":[[[1058]],[[1059]],[[1060]],[[1061]],[[1062]],[[1063]],[[1064]],[[1065]],[[1066]],[[1067]],[[1068]],[[1069]],[[1070]],[[1071]],[[1072]],[[1073]],[[1074]],[[1075]],[[1076]],[[1077]]]},{"type":"MultiPolygon","properties":{"scalerank":3},"arcs":[[[1078]],[[1079]],[[1080,155,1081,1082,158]],[[1083,1084,161,1085,1086,1087]],[[1088]],[[1089,1090,1091,1092]],[[1093,170,1094,172,1095,1096,175,1097,177]],[[1098,1099,1100,181]],[[1101]],[[1102]],[[1103]],[[1104]],[[1105]],[[1106]],[[1107]],[[1108]],[[1109]],[[1110]],[[1111]],[[1112]],[[1113]],[[1114]],[[1115]],[[1116]],[[1117]],[[1118]],[[1119]],[[1120]],[[1121]],[[1122]],[[1123]],[[1124]],[[1125]],[[1126]],[[1127]],[[1128]],[[1129]],[[1130]],[[1131]],[[1132]],[[1133]],[[1134]],[[1135]],[[1136]],[[1137]],[[1138]],[[1139]],[[1140]],[[1141]],[[1142]],[[1143]],[[1144]],[[1145]],[[1146]],[[1147]],[[1148]],[[1149]],[[1150]],[[1151]],[[1152]],[[1153]],[[1154]],[[1155]],[[1156]],[[1157]],[[1158]],[[1159]],[[1160]],[[1161]],[[1162]],[[1163]],[[1164]],[[1165]],[[1166]],[[1167]],[[1168]],[[1169]],[[1170]],[[1171]],[[1172]],[[1173]],[[1174]],[[1175]],[[1176]],[[1177]],[[1178]],[[1179]],[[1180]],[[1181]],[[1182]],[[1183]],[[1184]],[[1185]],[[1186]],[[1187]],[[1188]],[[1189]],[[1190]],[[1191]],[[1192]],[[1193]],[[1194]],[[1195]],[[1196]],[[1197]],[[1198]],[[1199]],[[1200]],[[1201]],[[1202]],[[1203]],[[1204]],[[1205]],[[1206]],[[1207]],[[1208]],[[1209]],[[1210]],[[1211]],[[1212]],[[1213]],[[1214]],[[1215]],[[1216]],[[1217]],[[1218]],[[1219]],[[1220]],[[1221]],[[1222]],[[1223]],[[1224]],[[1225]],[[1226]],[[1227]],[[1228]],[[1229]],[[1230]],[[1231]],[[1232]],[[1233]],[[1234]],[[1235]],[[1236]],[[1237]],[[1238]],[[1239]],[[1240]],[[1241]],[[1242]],[[1243]],[[1244]],[[1245]],[[1246]],[[1247]],[[1248]],[[1249]],[[1250]],[[1251]],[[1252]],[[1253]],[[1254]],[[1255]],[[1256]],[[1257]],[[1258]],[[1259]],[[1260]],[[1261]],[[1262]],[[1263]],[[1264]],[[1265]],[[1266]],[[1267]],[[1268]],[[1269]],[[1270]],[[1271]],[[1272]],[[1273]],[[1274]],[[1275]],[[1276]],[[1277]],[[1278]],[[1279]],[[1280]],[[1281]],[[1282]],[[1283]],[[1284]],[[1285]],[[1286]],[[1287]],[[1288]],[[1289]],[[1290]],[[1291]],[[1292]],[[1293]],[[1294]],[[1295]],[[1296]],[[1297]],[[1298]],[[1299]],[[1300]],[[1301]],[[1302]],[[1303]],[[1304]],[[1305]],[[1306]],[[1307]],[[1308]],[[1309]],[[1310]],[[1311]],[[1312]],[[1313]],[[1314]],[[1315]],[[1316]],[[1317]],[[1318]],[[1319]],[[1320]],[[1321]],[[1322]],[[1323]],[[1324]],[[1325]],[[1326]],[[1327]],[[1328]],[[1329]],[[1330]],[[1331]],[[1332]],[[1333]],[[1334]],[[1335]],[[1336]],[[1337]]]},{"type":"MultiPolygon","properties":{"scalerank":0},"arcs":[[[1338]],[[1339]],[[1340]],[[1341]],[[1342]],[[1343]],[[1344]],[[1345]],[[1346]],[[1347]],[[1348]],[[1349]],[[1350]],[[1351]],[[1352]],[[1353]],[[1354]],[[1355]],[[1356]],[[1357]],[[1358]],[[1359]],[[1360]],[[1361]],[[1362]],[[1363]],[[1364]],[[1365]],[[1366]],[[1367]],[[1368]],[[1369]],[[1370]],[[1371]],[[1372]],[[1373]],[[1374]],[[1375]],[[1376]],[[1377]],[[1378]],[[1379]],[[1380]],[[1381]],[[1382]],[[1383]],[[1384]],[[1385]],[[1386]],[[1387]],[[1388]],[[1389]],[[1390]],[[1391]],[[1392]],[[1393]],[[1394]],[[1395]],[[1396]],[[1397]],[[1398]],[[1399]],[[1400]]]},{"type":"MultiPolygon","properties":{"scalerank":1},"arcs":[[[1401]],[[1402]],[[1403]],[[1404]],[[1405]],[[1406]],[[1407]],[[1408]],[[1409]],[[1410]],[[1411]],[[1412]],[[1413]],[[1414]],[[1415]],[[1416]],[[1417]],[[1418]],[[1419]],[[1420]],[[1421]],[[1422]],[[1423]],[[1424]],[[1425]],[[1426]]]},{"type":"MultiPolygon","properties":{"scalerank":5},"arcs":[[[1427]],[[1428]],[[1429]],[[1430]],[[1431]],[[1432]],[[1433]],[[1434]],[[1435]],[[1436]],[[1437]],[[1438]],[[1439]],[[1440]],[[1441]],[[1442]],[[1443]],[[1444]],[[1445]],[[1446]],[[1447]],[[1448]],[[1449]],[[1450]],[[1451]],[[1452]],[[1453]]]}]}},"arcs":[[[3504,3619],[2,-1],[2,1],[1,-3],[2,1],[2,0],[1,4],[2,0],[1,3],[4,-5],[2,-1],[2,1],[1,3],[1,0],[1,-5],[2,0],[1,2],[4,-5],[3,-1],[2,1],[8,-3],[2,2],[2,-4],[3,0],[0,-4],[3,-3],[0,-4],[3,0],[5,1],[2,-4],[1,1],[5,-7],[3,-5],[1,0],[3,-3],[2,-7],[1,-1],[2,-4],[1,-6],[2,-2],[1,-4],[1,-2],[3,-6],[2,-3],[1,1],[8,-3],[1,-1],[4,0],[2,1],[2,0],[1,-1],[3,-2],[1,-5],[-3,-2],[-1,-4],[-2,-2],[-1,-7],[0,-5],[-1,-9],[-2,0],[-3,-6],[0,-5],[2,-2],[1,5],[2,1],[3,0],[2,-3],[3,-3]],[[3619,3494],[-3,-7]],[[3616,3487],[-3,-11],[-2,-7],[-2,-3]],[[3609,3466],[-7,-37],[-11,-34]],[[3591,3395],[-3,-6],[-2,-4],[-4,-9],[-3,-6]],[[3579,3370],[-12,-17],[-8,-9],[-5,-10]],[[3554,3334],[0,7],[1,2],[-2,5]],[[3553,3348],[1,3],[3,-3]],[[3557,3348],[3,0],[1,4],[3,1]],[[3564,3353],[5,9],[2,7]],[[3571,3369],[3,-1]],[[3574,3368],[2,3],[2,6]],[[3578,3377],[1,8],[-1,4]],[[3578,3389],[1,5],[1,-1],[3,2]],[[3583,3395],[2,9],[5,6]],[[3590,3410],[2,3],[0,5],[0,10],[-1,6],[1,1],[2,-8],[2,10]],[[3596,3437],[0,4],[-2,3],[-2,-2],[0,-3]],[[3592,3439],[-2,-1],[-1,-1],[-3,0]],[[3586,3437],[-1,-1],[0,-6],[-3,4],[1,5],[-2,2],[-1,-1]],[[3580,3440],[-4,5],[0,4],[0,4],[-1,0],[-1,-7],[2,-5],[-1,-1]],[[3575,3440],[4,-8],[-2,0]],[[3577,3432],[-1,-3],[-1,-10]],[[3575,3419],[-3,-2]],[[3572,3417],[0,-7],[1,-5]],[[3573,3405],[-3,-1]],[[3570,3404],[0,-7],[1,-4]],[[3571,3393],[-5,-3],[-1,-7]],[[3565,3383],[-4,-1],[-2,-2],[-2,0]],[[3557,3380],[-2,-7],[0,-7]],[[3555,3366],[-2,-3],[1,-2],[-1,-3]],[[3553,3358],[-3,-2]],[[3550,3356],[-1,-4],[-1,-3]],[[3548,3349],[2,-5]],[[3550,3344],[-1,-2],[-1,-5]],[[3548,3337],[3,-4],[1,-3]],[[3552,3330],[-4,-6],[-3,-13]],[[3545,3311],[-2,-10],[-1,-7]],[[3542,3294],[-4,-17]],[[3538,3277],[-3,-9],[-3,-4]],[[3532,3264],[-7,-12],[-5,-9],[-3,-3],[-5,5],[1,15],[0,8],[0,7],[2,5],[3,4],[1,5],[3,5],[2,4],[-2,5],[-2,2],[-4,3],[-4,6],[-3,7],[0,6],[-2,4],[-1,6],[-2,1],[-3,5],[-1,1],[-2,3],[-2,-2],[-4,5],[-5,9],[-1,5],[-3,6],[-6,3],[-4,5],[-2,4],[-2,-3],[-4,5],[-1,5],[-2,1],[0,4],[-2,6],[-5,6],[-1,-1],[0,-4],[-2,0],[-1,-4],[-3,-4],[-4,0],[0,10],[0,3],[0,3],[-2,3],[-1,4],[-3,7],[-4,4],[-2,5],[-2,3],[-5,8],[-2,3],[-2,3],[-3,1],[-5,-2],[-1,-3],[0,-4],[-2,-2],[-2,-1],[-1,2],[-6,-1],[-1,5],[-1,1],[3,2],[3,6],[2,3],[1,8],[2,4],[4,1],[3,7],[0,2],[4,7],[1,5],[3,5],[1,5],[1,4],[3,3],[3,3],[0,6],[3,4],[0,5],[3,3],[2,5],[2,4],[1,5],[3,2],[0,5],[1,1],[5,-2],[0,4],[-3,5],[3,2],[2,3],[2,0],[1,4],[2,0],[3,9],[1,0],[2,3],[5,2],[1,3],[2,3],[1,6],[1,1],[1,4],[1,-2],[2,1],[2,2],[1,3],[2,-1],[2,1],[0,3],[5,-1],[2,10],[3,-1],[4,7],[3,0]],[[3362,5258],[2,-62]],[[3364,5196],[-25,0],[-7,0],[-1,-4],[-2,-2],[-1,-7],[-1,-3],[-1,-6],[-2,-5],[0,-4],[-2,-9],[0,-3],[2,-6],[1,-3],[-1,-2],[-4,-2],[-1,-5],[-3,0],[-1,-2],[-2,1],[-3,9],[-2,5],[-1,3],[-3,1],[-2,2],[-3,0],[-1,-3],[-4,-3],[-2,-2],[-2,-5],[-1,-13],[1,-4],[-1,-7],[-1,-8],[1,-7],[-4,0],[-1,3],[-2,-2],[-1,1],[-2,7],[-1,2],[-1,4],[-3,4],[-2,2],[-1,3],[-2,2],[-3,7],[-3,3],[1,5],[3,-1],[2,4],[0,7],[-2,3],[0,7],[-1,4],[-2,3],[-1,6],[-1,4],[-1,4],[2,4],[-1,5],[0,4],[1,4],[0,6],[1,4],[0,3],[-1,8],[0,3],[2,4],[-2,9],[0,6],[-3,17],[0,3],[-3,5],[-1,6],[1,6],[1,2],[-1,5],[1,4],[0,3],[-4,4],[-4,0],[-2,1],[-2,5],[0,3],[-3,-1],[-3,1],[-1,4]],[[3239,5312],[1,9],[-1,1],[-9,1],[-3,0],[-4,2],[-2,0],[-1,2],[2,6],[0,6],[-1,5],[-2,9],[-3,10],[0,7],[-1,10],[1,5],[0,5],[-3,7],[-3,3],[-3,5],[-1,3],[-3,5],[-1,8],[-2,3],[0,6],[2,-2],[2,-3],[2,-5],[6,2],[3,-1],[3,-3],[2,-10],[2,-2],[3,4],[4,-1],[3,0],[3,-4],[2,1],[1,5],[2,0],[2,-2],[2,-7],[2,-3],[4,-9],[3,-2],[2,2],[2,4],[0,7],[-1,6],[0,7],[3,2],[3,-1],[1,5],[2,3],[2,0],[5,-4],[2,0],[2,3],[3,0],[3,1],[2,4],[1,1],[2,-1],[3,1],[1,7],[2,2],[3,1],[1,1],[0,4],[4,-2],[4,2],[2,3],[1,7],[4,4],[2,3],[2,5],[0,6],[-1,10],[-3,1],[2,1],[6,-2],[1,2],[3,-1],[1,3],[2,1],[1,-2],[1,1],[2,-5],[2,-4],[-1,-17],[0,-4],[-1,-7],[-2,-2],[0,-3],[1,0],[1,-2],[4,1],[0,-2],[4,-1],[3,-4],[-2,-5],[0,-5],[3,-4],[-1,-3],[4,-9],[-1,-2],[-1,-4],[-2,-3],[0,-4],[-2,-4],[-2,-1],[-1,-4],[1,-4],[0,-5],[-3,-11],[0,-5],[-1,-3],[-1,-12],[0,-9],[2,-8],[1,-6],[0,-5],[4,-6],[0,-11],[0,-3],[0,-6],[0,-4],[3,-1],[-1,-4],[1,-2],[2,0],[1,-1],[1,-4],[5,-9],[2,-6],[8,-4]],[[3478,5324],[1,-2],[1,-9],[-2,-8],[1,-2],[-1,-3],[0,-4],[1,-9],[2,-3],[3,1],[2,-2],[3,1],[2,-2],[3,-4],[1,0],[2,-6],[3,-1],[2,-4],[1,-3],[2,0],[4,1],[0,-4],[3,0],[1,-7],[2,1],[1,-4],[-2,-2],[1,-6],[1,-6],[2,-4],[2,-5],[4,-2],[0,-2],[0,-10],[0,-9],[1,-5],[1,-3],[1,-6],[0,-5],[1,-4],[2,-10],[2,0],[4,-7],[2,-5],[0,-9],[0,-3],[3,-2],[0,-5],[0,-4],[0,-5],[3,1],[1,-3],[-1,-2],[1,-7],[4,-4],[3,-1],[1,-1],[5,1]],[[3558,5116],[-1,-1]],[[3557,5115],[0,-9]],[[3557,5106],[-2,-4],[-2,0]],[[3553,5102],[-2,1],[-1,2]],[[3550,5105],[-2,-2],[-4,-2]],[[3544,5101],[-2,-4],[-2,-2],[-4,-1],[0,-3],[3,1],[4,1]],[[3543,5093],[3,1],[1,1]],[[3547,5095],[2,-4],[-1,-4],[2,-1]],[[3550,5086],[2,4]],[[3552,5090],[3,0],[3,2]],[[3558,5092],[6,10]],[[3564,5102],[2,1],[5,4],[1,4],[4,2]],[[3576,5113],[1,4],[1,2]],[[3578,5119],[4,4]],[[3582,5123],[1,3],[0,3],[2,1]],[[3585,5130],[2,0]],[[3587,5130],[1,-1],[0,-6]],[[3588,5123],[-2,-5],[2,-6],[0,-12]],[[3588,5100],[1,-6],[3,-4]],[[3592,5090],[1,-7],[-1,-2],[-3,-7],[2,-1],[0,3],[1,3],[2,-1],[1,-4]],[[3595,5074],[3,-2],[1,-8],[1,5]],[[3600,5069],[3,5]],[[3603,5074],[2,0],[3,2],[3,2]],[[3611,5078],[5,-5],[4,0]],[[3620,5073],[2,4],[1,0],[2,4]],[[3625,5081],[2,-2],[-1,-4],[2,-1]],[[3628,5074],[0,-7],[-1,-2],[-1,-8]],[[3626,5057],[-1,-4],[0,-3],[-2,-6],[0,-6],[-1,-5],[-1,-4],[3,2],[2,10],[1,5],[2,10]],[[3629,5056],[1,6],[2,9]],[[3632,5071],[2,5],[1,5]],[[3635,5081],[3,5],[1,5]],[[3639,5091],[3,0],[0,-5],[2,3]],[[3644,5089],[4,14],[3,-11]],[[3651,5092],[4,-4],[-1,4],[-1,2],[3,2],[-1,3],[-1,-1],[-2,1],[1,10]],[[3653,5109],[4,-2]],[[3657,5107],[1,7],[1,3]],[[3659,5117],[-1,5],[3,1],[1,5]],[[3662,5128],[0,6],[0,4]],[[3662,5138],[3,7],[1,-4],[1,-3],[1,2]],[[3668,5140],[3,4],[0,4],[3,-2],[0,-4],[2,-1],[1,3],[1,6]],[[3678,5150],[1,-2],[1,-4],[1,-3],[0,6],[2,-2]],[[3683,5145],[3,4]],[[3686,5149],[3,-4],[-1,-2],[2,-1],[2,2],[0,-4]],[[3692,5140],[1,-4],[1,3],[1,-1],[2,-5],[1,6]],[[3698,5139],[2,-6],[5,3]],[[3705,5136],[0,-3],[0,-4],[1,0],[2,3],[1,-2],[0,-6]],[[3709,5124],[2,-1],[3,0],[1,6],[2,1],[-1,-5]],[[3716,5125],[0,-2],[0,-6],[1,-1],[2,5]],[[3719,5121],[1,-4],[0,-4]],[[3720,5113],[-2,-2],[-1,-4],[1,-2],[-2,-8],[1,-5],[-1,-6],[-1,-2],[-2,-1],[0,-4],[3,0],[0,-7],[-2,-12],[-3,-7],[-2,-6],[1,-9],[-2,-2],[0,-4],[-3,-3],[-2,-4],[2,-5],[-1,-4],[0,-5],[-1,-6],[-2,-6],[-2,-7],[-1,-1],[-2,-4],[-1,-7],[-2,-2],[0,-7],[-1,-9],[-1,-4],[-1,-1],[-3,-8],[-2,0],[0,-6],[-2,-6],[-2,-4],[-1,-5],[-2,-7],[-2,-3],[-4,0],[-13,-20],[-13,-23],[0,-1]],[[3646,4874],[5,-3],[4,1],[1,0],[1,-5],[2,-3],[1,0],[2,-6],[-1,-4],[-3,-1],[0,-5],[2,-6],[0,-2],[-3,-1],[0,-3],[1,-2],[0,-2],[-3,-3],[-1,-2],[1,-11],[-3,1],[-3,-5],[-1,-6],[0,-5],[-1,-2],[-3,-3],[-6,-4],[-5,-7],[-1,-3],[1,-7],[0,-8],[-1,-5],[-4,-11],[0,-6],[0,-2],[2,-4],[4,-6],[-1,-14],[-1,-4],[-2,-15],[-2,-3],[-1,-6],[-2,-8],[0,-2],[-3,-7],[-2,-2],[-2,-3],[-2,-6],[-3,-8],[-2,-3],[-2,-6],[-1,-9],[0,-6],[-1,-7],[-1,-2],[-2,-6]],[[3604,4616],[-29,3],[-106,13],[-38,6],[0,-1],[-3,4],[-3,2],[-2,-1],[-1,1],[-1,6],[-3,1],[-3,1],[-1,3],[0,6],[-1,2],[-5,5],[-2,4],[-3,5],[-3,3],[-1,5],[0,3],[-1,6],[-1,4],[1,6],[1,6],[-4,10],[-2,11],[-1,5],[0,5],[-2,4],[-1,5],[-2,7],[-2,4]],[[3385,4760],[-1,2],[-1,8],[0,3],[-3,6],[-2,3],[-1,4],[-1,6],[0,5],[1,4],[2,3],[1,5],[43,190],[10,46],[0,7],[-2,1],[0,5],[-1,0],[-4,-3],[-3,3],[0,7],[-2,1],[-5,5],[-1,3],[-1,4],[-2,3],[-2,0],[-1,3],[-2,-1],[-3,2],[-3,4],[-3,2],[-5,9],[-2,1],[-2,4],[-3,3],[-1,4],[-2,1],[-2,5],[-1,0],[-2,4],[-2,11],[-3,6],[-2,0],[-2,4],[-1,4],[0,11],[-2,2],[-1,3],[0,10],[0,5],[-1,18]],[[3362,5258],[1,-1],[1,-4],[1,-2],[2,1],[3,5],[4,-1],[1,4],[0,7],[2,1],[1,3],[1,4],[2,-2],[2,0],[1,-3],[4,0],[1,3],[0,5],[2,0],[3,3],[2,0],[3,-1],[2,1],[2,6],[1,5],[3,4],[3,-1],[3,4],[2,-4],[1,-2],[2,0],[1,-1],[3,-1],[2,2],[2,1],[2,-1],[3,2],[2,-2],[1,1],[3,-3],[1,1],[6,-4],[1,2],[1,3],[0,9],[-3,5],[-1,5],[-2,0],[1,5],[1,1],[2,3],[0,7],[2,0],[2,-3],[2,-1],[2,-3],[3,2],[6,0],[1,3],[1,2],[2,-1],[2,3],[2,-2],[2,4],[4,-8],[1,-1],[2,1]],[[3631,5082],[-1,-3],[-2,-5],[-2,2],[1,4],[2,4],[2,-2]],[[3657,5121],[1,-3],[-1,-5],[-1,0],[-3,3],[2,5],[2,0]],[[3661,5136],[1,-3],[0,-3],[-1,-6]],[[3661,5124],[-3,0],[-1,3]],[[3657,5127],[3,7],[1,2]],[[3668,5146],[1,-3],[-2,-2],[0,3],[1,2]],[[3588,5147],[0,-3],[-1,-2]],[[3587,5142],[-2,-1],[-1,-3],[-4,-3]],[[3580,5135],[0,6]],[[3580,5141],[1,3],[2,0],[1,4]],[[3584,5148],[3,3],[1,-4]],[[3676,5149],[0,-1],[0,-6],[-1,0],[-1,4],[-1,4],[3,-1]],[[3578,5147],[1,-3]],[[3579,5144],[-2,-10],[-2,-10]],[[3575,5124],[-1,1],[-3,-11]],[[3571,5114],[-3,-5],[-4,-4],[-3,-6]],[[3561,5099],[-3,-2],[-2,4]],[[3556,5101],[2,5],[1,5]],[[3559,5111],[2,3],[0,2],[2,2]],[[3563,5118],[1,4],[0,2],[0,10]],[[3564,5134],[2,3],[1,6],[2,5]],[[3569,5148],[2,3],[3,2]],[[3574,5153],[2,-1],[2,-5]],[[3578,5175],[1,-1],[0,-6],[-2,-5],[-4,-7],[-1,2],[2,4],[2,8],[2,5]],[[3653,5150],[0,-3],[0,-7],[-2,-3],[0,-6]],[[3651,5131],[-2,-2],[-1,-9]],[[3648,5120],[-3,-3],[-2,-4]],[[3643,5113],[1,-4]],[[3644,5109],[-1,-8],[-3,7],[1,-5],[2,-3]],[[3643,5100],[-2,-4],[-4,-1]],[[3637,5095],[-2,2],[-1,5],[-1,0]],[[3633,5102],[-1,-13]],[[3632,5089],[-2,1],[-1,2],[-1,-4],[-2,1],[-1,2],[-2,-3]],[[3623,5088],[0,-4]],[[3623,5084],[-2,-1],[-1,-2],[-2,0],[-2,-3]],[[3616,5078],[-3,3],[-2,1],[-2,3]],[[3609,5085],[-3,-5]],[[3606,5080],[0,2],[-3,1],[0,-4],[-3,-2]],[[3600,5077],[-5,2],[-1,7]],[[3594,5086],[-4,9],[-2,6]],[[3588,5101],[0,6],[1,8]],[[3589,5115],[0,5],[3,-3],[3,2],[0,3],[-3,-2],[-2,0],[-1,4],[0,6]],[[3589,5130],[0,6],[0,2],[0,7]],[[3589,5145],[1,6],[1,11]],[[3591,5162],[2,6],[2,4]],[[3595,5172],[2,2],[2,-1]],[[3599,5173],[2,4],[7,-2]],[[3608,5175],[8,-4],[4,-2]],[[3620,5169],[7,1]],[[3627,5170],[1,2],[5,3]],[[3633,5175],[1,-1],[4,0],[1,-2],[2,2]],[[3641,5174],[1,-4]],[[3642,5170],[2,1],[3,-2],[3,1]],[[3650,5170],[4,-2]],[[3654,5168],[2,-2],[0,-5]],[[3656,5161],[-1,-2],[-1,-4],[-1,-5]],[[3584,5166],[-2,3],[0,4]],[[3582,5173],[2,9],[5,3]],[[3589,5185],[3,-3],[1,-4]],[[3593,5178],[-2,-5],[-2,-2],[-4,-7]],[[3585,5164],[-1,2]],[[3615,5177],[1,2],[2,4],[3,3]],[[3621,5186],[3,1],[3,0]],[[3627,5187],[2,-5]],[[3629,5182],[0,-3],[-3,-3]],[[3626,5176],[-1,-1],[-6,0]],[[3619,5175],[0,-1],[-4,3]],[[3593,5187],[0,4],[1,2]],[[3594,5193],[3,-1],[1,-2]],[[3598,5190],[1,-6],[-1,-2]],[[3598,5182],[-3,1],[-2,4]],[[3620,5205],[3,0],[1,-5]],[[3624,5200],[-5,-5]],[[3619,5195],[-2,-5],[-2,-7]],[[3615,5183],[-4,-3],[-2,4]],[[3609,5184],[-4,1],[-3,-2]],[[3602,5183],[-1,3],[0,3],[-1,1]],[[3600,5190],[1,5]],[[3601,5195],[3,1],[4,0]],[[3608,5196],[2,4],[3,0],[7,5]],[[3600,5197],[-1,-1],[0,-4],[-3,3]],[[3596,5195],[2,4],[1,7],[0,2],[0,6],[1,4],[1,-2]],[[3601,5216],[0,-9],[1,-5],[0,-3]],[[3602,5199],[-2,-2]],[[3602,5207],[0,6],[2,4]],[[3604,5217],[3,0],[2,3],[1,-2]],[[3610,5218],[0,-6]],[[3610,5212],[-4,-5],[-3,-4]],[[3603,5203],[-1,4]],[[3625,5087],[2,-3],[-2,-2],[-1,4],[1,1]],[[2950,4773],[31,-27],[64,-33],[16,-17],[82,-80]],[[3143,4616],[5,-4]],[[3148,4612],[0,-2],[-3,-3],[-4,-5],[-4,-10],[-4,-4],[-2,1],[-2,-1],[0,-3],[-2,0],[-2,-5],[-3,-2],[-2,-6],[-1,-6],[-1,0],[-3,3],[-5,0],[-2,-2],[-1,-5],[-2,-4],[-2,-7],[-3,-2],[-1,-2],[-3,-1],[-2,-3],[-4,-2],[-1,1],[-1,8],[-2,-2],[-3,1],[-2,2],[-6,1],[-3,1],[-3,-1],[-2,0],[-4,-1],[-2,3],[-5,0],[-6,-7],[-3,-1],[-3,0],[-1,1],[-3,6],[-3,-4],[0,26],[1,34],[0,9],[1,1],[1,4],[-1,5],[-1,4],[1,1],[2,7],[-2,-1],[-3,-5],[-2,-2],[-3,-6],[-4,-9],[-4,-3],[-1,-4],[-3,-3],[-2,0],[-23,0],[1,6],[-1,5],[-2,3],[0,5],[-2,8],[-2,3],[-3,0],[-2,1],[-6,3],[-11,0],[3,9],[2,1],[1,5],[1,4],[0,5],[-3,6],[-3,10],[-3,2],[-2,5],[0,6],[-5,7],[-1,5],[-1,5],[0,3],[-2,7],[-3,4],[0,3],[2,2],[0,4],[-3,4],[-4,8],[0,3],[1,5],[-1,4],[4,2],[2,0],[1,2],[0,5],[-2,6]],[[3478,5324],[2,0],[0,-7],[3,0],[1,-1],[0,-3],[2,-3],[3,-1],[1,-2],[2,0],[2,0],[2,-3],[2,5],[1,-1],[2,3],[2,5],[1,0],[2,3],[1,-3],[6,-4],[1,1],[3,3],[1,2],[3,-6],[-1,-3],[4,2],[2,-2],[3,-1],[1,2],[1,3],[5,6],[2,6],[2,6],[-1,4],[1,3],[3,10],[2,11],[0,4],[2,6],[2,2],[6,20],[1,5],[1,1],[0,4],[3,5],[1,6],[3,3],[1,2],[1,5],[0,4],[2,2]],[[3568,5428],[-1,6],[2,5]],[[3569,5439],[3,-5],[5,-11],[1,-8],[0,-13]],[[3578,5402],[1,1],[1,5],[1,-2]],[[3581,5406],[-1,-9],[1,-13],[-1,-7]],[[3580,5377],[2,-8],[0,-5],[2,-12],[1,-4],[0,-3]],[[3585,5345],[1,-1]],[[3586,5344],[2,-14],[2,-10]],[[3590,5320],[1,-8]],[[3591,5312],[1,-4],[-1,-3],[3,-1],[0,-4],[2,-7],[1,-3],[1,-3]],[[3598,5287],[2,-1],[2,1],[4,1]],[[3606,5288],[5,-4]],[[3611,5284],[1,-2],[1,-3]],[[3613,5279],[1,-18]],[[3614,5261],[-1,-8],[1,-3],[-3,-5]],[[3611,5245],[-1,0],[-1,-4],[-1,-1],[-2,-4],[-2,-3],[-2,-3]],[[3602,5230],[-1,-5],[-3,-5]],[[3598,5220],[-1,-5],[-3,-11]],[[3594,5204],[-5,-11],[-4,-1]],[[3585,5192],[-1,-2],[-3,-8]],[[3581,5182],[-4,-2]],[[3577,5180],[-1,-2],[0,-3],[-2,-5]],[[3574,5170],[-2,-9],[-1,-3],[0,-2]],[[3571,5156],[-3,-4],[-2,-8],[-2,-4]],[[3564,5140],[-1,-8],[0,-6],[0,-3]],[[3563,5123],[-3,-6],[-2,-1]],[[3605,5226],[-2,0],[0,3]],[[3603,5229],[1,3],[3,3]],[[3607,5235],[3,-1]],[[3610,5234],[-1,-4],[-1,-4]],[[3608,5226],[-3,0]],[[3609,5236],[-1,2],[2,3],[3,3],[-1,-5],[-3,-3]],[[3598,5304],[2,1],[1,-4],[1,-6]],[[3602,5295],[-2,-4],[-2,0]],[[3598,5291],[-1,6],[-1,1]],[[3596,5298],[1,5],[1,1]],[[3596,5306],[0,3],[2,0],[1,-3],[-1,-2],[-2,2]],[[3396,4161],[3,0],[1,-4],[3,-3],[1,-3],[1,3],[8,5],[1,1],[3,6],[0,5],[3,5],[1,5],[2,5],[3,-1],[5,1],[1,-1],[3,2],[2,4],[4,2],[2,-1],[2,-3],[4,-3],[1,-2],[2,-1],[3,-2],[2,-6],[5,-5],[2,-2],[3,-4],[3,1],[5,1],[2,3],[1,3],[2,2],[3,1],[2,-1],[3,-4],[1,-5],[2,0],[2,2],[3,1],[1,2],[2,4],[2,3],[4,9],[2,3],[1,0],[-1,-22],[-3,-3],[-4,-12],[7,-6],[4,1],[3,-1],[5,0],[4,-2],[3,1]],[[3526,4145],[0,-4],[0,-12],[1,-3],[1,-2],[2,2],[3,-2],[0,-4],[-1,-5],[-2,-5],[1,-3],[3,-2],[4,0],[3,1],[2,-2],[2,-4],[3,-1],[2,-2],[2,-2],[2,-3],[4,-3],[2,-3],[5,-5],[3,0],[4,-2],[2,-5],[4,-2],[1,0],[3,-5],[2,-6]],[[3584,4061],[1,-4],[-2,-2],[-1,-10],[1,-8],[0,-12]],[[3583,4025],[-1,-5],[-1,-4],[-2,-2],[-5,-4],[-5,-12],[-2,-1],[-1,-6],[-1,-10],[-3,-7],[-1,-6],[-2,-2],[0,-2],[0,-8],[0,-2],[-2,-4],[-1,-3],[-3,-1],[-1,-4],[2,-7],[-3,-4],[-2,-7],[-3,-5],[-1,-9],[-4,-7],[-5,-4],[-3,-5],[-1,-2],[-4,-3],[-1,-4],[-1,0],[-2,-6],[-1,-4]],[[3523,3875],[-9,-7],[-3,-5],[-1,-6],[0,-5],[-3,-11],[-4,-5],[-2,-2],[-2,-12],[-1,-11],[0,-7],[-5,-6]],[[3493,3798],[-4,4],[-1,4],[-5,6],[-6,-5],[-4,-5],[-4,-1],[-3,-1],[-5,2],[-1,3],[0,11],[-1,4],[-2,4],[0,4],[0,3],[1,5],[-2,3],[1,6],[-1,5],[-1,2],[0,4],[-1,2],[0,4],[0,7],[1,5],[-1,6],[-2,2],[-1,3],[0,7],[-3,7],[-1,-1],[-4,1],[-4,1],[-4,4],[-3,8],[-2,-1],[-2,-6],[-2,-3],[-4,0],[-1,-3],[-5,3],[-2,0],[-4,3],[-1,-1],[-3,0],[-3,2],[-4,0],[-1,4],[-2,0],[-3,-2],[-3,1],[-1,2],[0,3],[2,7],[-1,3],[0,6],[1,4],[-1,4],[1,3],[-1,2],[1,4],[2,7],[-2,3],[2,4],[0,5],[0,5],[0,3],[-2,6],[1,2],[0,3],[0,4],[-1,3],[-1,0],[-1,3],[-1,6],[1,5],[-3,3],[-1,10],[-1,3],[3,3],[3,5],[1,0],[1,2],[-7,13],[0,2],[9,38],[2,1],[0,6],[-1,2],[6,37],[2,1],[0,2],[-2,2],[-2,10],[-3,9],[1,1],[-1,5]],[[3523,3875],[2,2],[3,5],[1,1],[7,-2],[2,2],[3,-2],[2,0],[3,-1],[2,1],[1,-2],[2,2],[0,4],[2,1],[3,-2],[3,-3],[3,-1],[2,-2],[1,0],[3,-2],[3,2],[2,0],[7,-6],[6,-3],[3,-7],[2,-1],[2,2],[4,-2],[2,0],[2,2],[2,-2],[4,1],[5,1],[0,-3],[1,-1],[0,-3],[4,-3],[3,-6],[1,-4],[0,-8],[-1,-6],[2,-8],[1,-4],[0,-7],[-1,-1],[5,-13],[2,-4],[0,-4],[2,-5],[1,-2],[-2,-14],[0,-5],[2,-1],[5,0],[1,3],[2,-2],[3,1],[2,-2],[3,-1],[1,2],[4,-4],[-2,-4],[0,-14],[1,-2],[3,7],[2,-3],[2,-1],[1,1],[2,-1