{"type":"Topology","objects":{"subunits":{"type":"GeometryCollection","name":"BRA_subunits","crs":{"type":"name","properties":{"name":"urn:ogc:def:crs:OGC:1.3:CRS84"}},"geometries":[{"type":"Polygon","properties":{"name":"Rio Grande do Sul","fips":"BR23","postal":"RS","scalerank":2,"country":"BRA","latitude":-29.7277,"longitude":-53.656,"type":"Estado"},"id":"BR-RS","arcs":[[0,1]]},{"type":"Polygon","properties":{"name":"Roraima","fips":"BR25","postal":"RR","scalerank":2,"country":"BRA","latitude":1.93803,"longitude":-61.3325,"type":"Estado"},"id":"BR-RR","arcs":[[2,3,4]]},{"type":"MultiPolygon","properties":{"name":"Pará","fips":"BR16","postal":"PA","scalerank":2,"country":"BRA","latitude":-4.44313,"longitude":-52.6491,"type":"Estado"},"id":"BR-PA","arcs":[[[5,6,7,8,9,10,-3,11]],[[12]],[[13]],[[14]],[[15]],[[16]],[[17]],[[18]],[[19]]]},{"type":"Polygon","properties":{"name":"Acre","fips":"BR01","postal":"AC","scalerank":2,"country":"BRA","latitude":-8.9285,"longitude":-70.2976,"type":"Estado"},"id":"BR-AC","arcs":[[20,21,22]]},{"type":"MultiPolygon","properties":{"name":"Amapá","fips":"BR03","postal":"AP","scalerank":2,"country":"BRA","latitude":1.41157,"longitude":-51.6842,"type":"Estado"},"id":"BR-AP","arcs":[[[23,-6]],[[24]]]},{"type":"Polygon","properties":{"name":"Mato Grosso do Sul","fips":"BR11","postal":"MS","scalerank":2,"country":"BRA","latitude":-20.6756,"longitude":-54.5502,"type":"Estado"},"id":"BR-MS","arcs":[[25,26,27,28,29,30]]},{"type":"MultiPolygon","properties":{"name":"Paraná","fips":"BR18","postal":"PR","scalerank":2,"country":"BRA","latitude":-24.6618,"longitude":-51.3228,"type":"Estado"},"id":"BR-PR","arcs":[[[-30,31,32,33,34]]]},{"type":"MultiPolygon","properties":{"name":"Santa Catarina","fips":"BR26","postal":"SC","scalerank":2,"country":"BRA","latitude":-27.0392,"longitude":-51.1586,"type":"Estado"},"id":"BR-SC","arcs":[[[35,-34,36,-1]]]},{"type":"Polygon","properties":{"name":"Amazonas","fips":"BR04","postal":"AM","scalerank":2,"country":"BRA","latitude":-4.21774,"longitude":-63.7853,"type":"Estado"},"id":"BR-AM","arcs":[[-4,-11,37,38,-21,39]]},{"type":"Polygon","properties":{"name":"Rondônia","fips":"BR24","postal":"RO","scalerank":2,"country":"BRA","latitude":-10.9712,"longitude":-63.1439,"type":"Estado"},"id":"BR-RO","arcs":[[-22,-39,40,41]]},{"type":"Polygon","properties":{"name":"Mato Grosso","fips":"BR14","postal":"MT","scalerank":2,"country":"BRA","latitude":-13.3926,"longitude":-55.9235,"type":"Estado"},"id":"BR-MT","arcs":[[42,-41,-38,-10,43,44,-26]]},{"type":"MultiPolygon","properties":{"name":"Maranhão","fips":"BR13","postal":"MA","scalerank":2,"country":"BRA","latitude":-5.01897,"longitude":-45.389,"type":"Estado"},"id":"BR-MA","arcs":[[[45,46,47,-8]]]},{"type":"Polygon","properties":{"name":"Piauí","fips":"BR20","postal":"PI","scalerank":2,"country":"BRA","latitude":-8.08698,"longitude":-43.1974,"type":"Estado"},"id":"BR-PI","arcs":[[48,49,50,51,52,-47]]},{"type":"Polygon","properties":{"name":"Ceará","fips":"BR06","postal":"CE","scalerank":2,"country":"BRA","latitude":-5.37602,"longitude":-39.3429,"type":"Estado"},"id":"BR-CE","arcs":[[53,54,55,56,-50]]},{"type":"MultiPolygon","properties":{"name":"Rio Grande do Norte","fips":"BR22","postal":"RN","scalerank":2,"country":"BRA","latitude":-5.66157,"longitude":-36.5472,"type":"Estado"},"id":"BR-RN","arcs":[[[57,58,-55]]]},{"type":"Polygon","properties":{"name":"Paraíba","fips":"BR17","postal":"PB","scalerank":2,"country":"BRA","latitude":-7.34234,"longitude":-36.2726,"type":"Estado"},"id":"BR-PB","arcs":[[59,60,-56,-59]]},{"type":"MultiPolygon","properties":{"name":"Pernambuco","fips":"BR30","postal":"PE","scalerank":2,"country":"BRA","latitude":-8.47283,"longitude":-37.2958,"type":"Estado"},"id":"BR-PE","arcs":[[[61,62,63,-51,-57,-61]]]},{"type":"Polygon","properties":{"name":"Alagoas","fips":"BR02","postal":"AL","scalerank":2,"country":"BRA","latitude":-9.77391,"longitude":-36.6917,"type":"Estado"},"id":"BR-AL","arcs":[[64,65,66,-63]]},{"type":"Polygon","properties":{"name":"Sergipe","fips":"BR28","postal":"SE","scalerank":2,"country":"BRA","latitude":-10.5918,"longitude":-37.3836,"type":"Estado"},"id":"BR-SE","arcs":[[67,68,-66]]},{"type":"MultiPolygon","properties":{"name":"Bahia","fips":"BR05","postal":"BA","scalerank":2,"country":"BRA","latitude":-12.3651,"longitude":-41.8027,"type":"Estado"},"id":"BR-BA","arcs":[[[69,70,71,72,73,-52,-64,-67,-69]]]},{"type":"MultiPolygon","properties":{"name":"Espírito Santo","fips":"BR08","postal":"ES","scalerank":2,"country":"BRA","latitude":-19.6916,"longitude":-40.5436,"type":"Estado"},"id":"BR-ES","arcs":[[[74,75,76,-71]]]},{"type":"MultiPolygon","properties":{"name":"Rio de Janeiro","fips":"BR21","postal":"RJ","scalerank":2,"country":"BRA","latitude":-22.4049,"longitude":-43.1152,"type":"Estado"},"id":"BR-RJ","arcs":[[[77,78,79,-76]]]},{"type":"MultiPolygon","properties":{"name":"São Paulo","fips":"BR27","postal":"SP","scalerank":2,"country":"BRA","latitude":-22.2267,"longitude":-48.5206,"type":"Estado"},"id":"BR-SP","arcs":[[[80,-32,-29,81,-79]],[[82]]]},{"type":"Polygon","properties":{"name":"Goiás","fips":"BR29","postal":"GO","scalerank":2,"country":"BRA","latitude":-15.863,"longitude":-49.5786,"type":"Estado"},"id":"BR-GO","arcs":[[-73,83,84,85,-27,-45,86]]},{"type":"Polygon","properties":{"name":"Distrito Federal","fips":"BR07","postal":"DF","scalerank":2,"country":"BRA","latitude":-15.7665,"longitude":-47.7902,"type":"Distrito Federal"},"id":"BR-DF","arcs":[[-85]]},{"type":"Polygon","properties":{"name":"Minas Gerais","fips":"BR15","postal":"MG","scalerank":2,"country":"BRA","latitude":-18.5895,"longitude":-44.4808,"type":"Estado"},"id":"BR-MG","arcs":[[-84,-72,-77,-80,-82,-28,-86]]},{"type":"Polygon","properties":{"name":"Tocantins","fips":"BR31","postal":"TO","scalerank":2,"country":"BRA","latitude":-10.223,"longitude":-48.2502,"type":"Estado"},"id":"BR-TO","arcs":[[-74,-87,-44,-9,-48,-53]]}]},"places":{"type":"GeometryCollection","name":"BRA_places","crs":{"type":"name","properties":{"name":"urn:ogc:def:crs:OGC:1.3:CRS84"}},"geometries":[{"type":"Point","properties":{"name":"Grajau","scalerank":8,"subregion":"Maranhão","latitude":-5.809996,"longitude":-46.149984},"id":"Q2043418","coordinates":[617359,716037]},{"type":"Point","properties":{"name":"Presidente Dutra","scalerank":8,"subregion":"Maranhão","latitude":-5.25003,"longitude":-44.519981},"id":"Q637452","coordinates":[653468,730392]},{"type":"Point","properties":{"name":"Itapecuru Mirim","scalerank":8,"subregion":"Maranhão","latitude":-3.400013,"longitude":-44.360016},"id":"Q2012733","coordinates":[657012,777816]},{"type":"Point","properties":{"name":"São José de Ribamar","scalerank":8,"subregion":"Maranhão","latitude":-2.549988,"longitude":-44.069982},"id":"Q1006367","coordinates":[663437,799607]},{"type":"Point","properties":{"name":"Santa Inês","scalerank":8,"subregion":"Maranhão","latitude":-3.659998,"longitude":-45.390031},"id":"Q2469099","coordinates":[634194,771152]},{"type":"Point","properties":{"name":"Rosário","scalerank":8,"subregion":"Maranh","latitude":-2.940042,"longitude":-44.260022},"id":"Q2106358","coordinates":[659227,789608]},{"type":"Point","properties":{"name":"Timon","scalerank":8,"subregion":"Maranh","latitude":-5.114999,"longitude":-42.844967},"id":"Q1017101","coordinates":[690574,733853]},{"type":"Point","properties":{"name":"Capanema","scalerank":8,"subregion":"Pará","latitude":-1.190019,"longitude":-47.179999},"id":"Q1947031","coordinates":[594542,834469]},{"type":"Point","properties":{"name":"Portel","scalerank":8,"subregion":"Pará","latitude":-1.949973,"longitude":-50.819984},"id":"Q2089210","coordinates":[513907,814988]},{"type":"Point","properties":{"name":"Itupiranga","scalerank":8,"subregion":"Pará","latitude":-5.120012,"longitude":-49.300025},"id":"Q2008167","coordinates":[547578,733725]},{"type":"Point","properties":{"name":"Pimenta Bueno","scalerank":8,"subregion":"Rondônia","latitude":-11.640027,"longitude":-61.209995},"id":"Q1803175","coordinates":[283741,566586]},{"type":"Point","properties":{"name":"Ponta Porã","scalerank":8,"subregion":"Mato Grosso do Sul","latitude":-22.530009,"longitude":-55.729968},"id":"Q928094","coordinates":[405138,287424]},{"type":"Point","properties":{"name":"Maracaju","scalerank":8,"subregion":"Mato Grosso do Sul","latitude":-21.610013,"longitude":-55.180028},"id":"Q1792127","coordinates":[417320,311008]},{"type":"Point","properties":{"name":"Jardim","scalerank":8,"subregion":"Mato Grosso do Sul","latitude":-21.479943,"longitude":-56.15002},"id":"Q927504","coordinates":[395832,314342]},{"type":"Point","properties":{"name":"Três Lagoas","scalerank":8,"subregion":"Mato Grosso do Sul","latitude":-20.790011,"longitude":-51.720006},"id":"Q1637454","coordinates":[493969,332028]},{"type":"Point","properties":{"name":"Guanhães","scalerank":8,"subregion":"Minas Gerais","latitude":-18.780005,"longitude":-42.950025},"id":"Q1756864","coordinates":[688247,383554]},{"type":"Point","properties":{"name":"Leopoldina","scalerank":8,"subregion":"Minas Gerais","latitude":-21.530018,"longitude":-42.640044},"id":"Q1805359","coordinates":[695113,313058]},{"type":"Point","properties":{"name":"Nova Lima","scalerank":8,"subregion":"Minas Gerais","latitude":-19.980035,"longitude":-43.850021},"id":"Q1642662","coordinates":[668309,352792]},{"type":"Point","properties":{"name":"Pouso Alegre","scalerank":8,"subregion":"Minas Gerais","latitude":-22.220002,"longitude":-45.940023},"id":"Q949798","coordinates":[622010,295371]},{"type":"Point","properties":{"name":"Itaúna","scalerank":8,"subregion":"Minas Gerais","latitude":-20.06003,"longitude":-44.570029},"id":"Q628877","coordinates":[652359,350741]},{"type":"Point","properties":{"name":"Caratinga","scalerank":8,"subregion":"Minas Gerais","latitude":-19.790021,"longitude":-42.139997},"id":"Q905175","coordinates":[706191,357663]},{"type":"Point","properties":{"name":"Diamantina","scalerank":8,"subregion":"Minas Gerais","latitude":-18.239986,"longitude":-43.609984},"id":"Q34028","coordinates":[673627,397397]},{"type":"Point","properties":{"name":"Nanuque","scalerank":8,"subregion":"Minas Gerais","latitude":-17.839959,"longitude":-40.350028},"id":"Q83011","coordinates":[745843,407652]},{"type":"Point","properties":{"name":"Barbacena","scalerank":8,"subregion":"Minas Gerais","latitude":-21.220011,"longitude":-43.77},"id":"Q807311","coordinates":[670082,321005]},{"type":"Point","properties":{"name":"Poços de Caldas","scalerank":8,"subregion":"Minas Gerais","latitude":-21.780029,"longitude":-46.569985},"id":"Q817216","coordinates":[608055,306649]},{"type":"Point","properties":{"name":"Guaxupé","scalerank":8,"subregion":"Minas Gerais","latitude":-21.290033,"longitude":-46.70995},"id":"Q1791417","coordinates":[604954,319210]},{"type":"Point","properties":{"name":"São João del Rei","scalerank":8,"subregion":"Minas Gerais","latitude":-21.130042,"longitude":-44.249997},"id":"Q740965","coordinates":[659449,323312]},{"type":"Point","properties":{"name":"Muriaé","scalerank":8,"subregion":"Minas Gerais","latitude":-21.130042,"longitude":-42.389981},"id":"Q1637446","coordinates":[700653,323312]},{"type":"Point","properties":{"name":"Passos","scalerank":8,"subregion":"Minas Gerais","latitude":-20.710016,"longitude":-46.609982},"id":"Q985579","coordinates":[607169,334079]},{"type":"Point","properties":{"name":"Conselheiro Lafaiete","scalerank":8,"subregion":"Minas Gerais","latitude":-20.670019,"longitude":-43.789999},"id":"Q570312","coordinates":[669639,335104]},{"type":"Point","properties":{"name":"Formiga","scalerank":8,"subregion":"Minas Gerais","latitude":-20.460006,"longitude":-45.430028},"id":"Q1791720","coordinates":[633308,340488]},{"type":"Point","properties":{"name":"Frutal","scalerank":8,"subregion":"Minas Gerais","latitude":-20.030006,"longitude":-48.940021},"id":"Q1790819","coordinates":[555553,351511]},{"type":"Point","properties":{"name":"Iturama","scalerank":8,"subregion":"Minas Gerais","latitude":-19.729973,"longitude":-50.200021},"id":"Q1780277","coordinates":[527640,359202]},{"type":"Point","properties":{"name":"Ituiutaba","scalerank":8,"subregion":"Minas Gerais","latitude":-18.970019,"longitude":-49.459989},"id":"Q1756328","coordinates":[544034,378683]},{"type":"Point","properties":{"name":"Araguari","scalerank":8,"subregion":"Minas Gerais","latitude":-18.640013,"longitude":-48.199988},"id":"Q1637522","coordinates":[571946,387143]},{"type":"Point","properties":{"name":"Almenara","scalerank":8,"subregion":"Minas Gerais","latitude":-16.170035,"longitude":-40.700007},"id":"Q979377","coordinates":[738090,450460]},{"type":"Point","properties":{"name":"Várzea Grande","scalerank":8,"subregion":"Mato Grosso","latitude":-15.650015,"longitude":-56.140021},"id":"Q983884","coordinates":[396054,463791]},{"type":"Point","properties":{"name":"Cáceres","scalerank":8,"subregion":"Mato Grosso","latitude":-16.050042,"longitude":-57.510015},"id":"Q986526","coordinates":[365705,453536]},{"type":"Point","properties":{"name":"Santana do Livramento","scalerank":8,"subregion":"Rio Grande do Sul","latitude":-30.880042,"longitude":-55.530006},"id":"Q917693","coordinates":[409567,73373]},{"type":"Point","properties":{"name":"Canoas","scalerank":8,"subregion":"Rio Grande do Sul","latitude":-29.919997,"longitude":-51.179987},"id":"Q194325","coordinates":[505932,97983]},{"type":"Point","properties":{"name":"Quaraí","scalerank":8,"subregion":"Rio Grande do Sul","latitude":-30.38002,"longitude":-56.459949},"id":"Q1637478","coordinates":[388967,86191]},{"type":"Point","properties":{"name":"Santa Vitória do Palmar","scalerank":8,"subregion":"Rio Grande do Sul","latitude":-33.520035,"longitude":-53.369983},"id":"Q984562","coordinates":[457418,5697]},{"type":"Point","properties":{"name":"São Lourenço do Sul","scalerank":8,"subregion":"Rio Grande do Sul","latitude":-31.369986,"longitude":-51.980016},"id":"Q326349","coordinates":[488209,60813]},{"type":"Point","properties":{"name":"Canela","scalerank":8,"subregion":"Rio Grande do Sul","latitude":-29.360031,"longitude":-50.81001},"id":"Q995318","coordinates":[514128,112338]},{"type":"Point","properties":{"name":"São Gabriel","scalerank":8,"subregion":"Rio Grande do Sul","latitude":-30.320024,"longitude":-54.320028},"id":"Q929890","coordinates":[436372,87729]},{"type":"Point","properties":{"name":"Rosário do Sul","scalerank":8,"subregion":"Rio Grande do Sul","latitude":-30.250002,"longitude":-54.920018},"id":"Q266960","coordinates":[423080,89524]},{"type":"Point","properties":{"name":"Cachoeira do Sul","scalerank":8,"subregion":"Rio Grande do Sul","latitude":-30.029964,"longitude":-52.909985},"id":"Q166378","coordinates":[467608,95164]},{"type":"Point","properties":{"name":"Osório","scalerank":8,"subregion":"Rio Grande do Sul","latitude":-29.879999,"longitude":-50.269991},"id":"Q983519","coordinates":[526090,99009]},{"type":"Point","properties":{"name":"Santa Cruz do Sul","scalerank":8,"subregion":"Rio Grande do Sul","latitude":-29.710035,"longitude":-52.44004},"id":"Q781510","coordinates":[478018,103366]},{"type":"Point","properties":{"name":"São Luiz Gonzaga","scalerank":8,"subregion":"Rio Grande do Sul","latitude":-28.410011,"longitude":-54.959989},"id":"Q647406","coordinates":[422195,136691]},{"type":"Point","properties":{"name":"Santo Ângelo","scalerank":8,"subregion":"Rio Grande do Sul","latitude":-28.300044,"longitude":-54.280031},"id":"Q824031","coordinates":[437258,139510]},{"type":"Point","properties":{"name":"Carazinho","scalerank":8,"subregion":"Rio Grande do Sul","latitude":-28.290019,"longitude":-52.800044},"id":"Q772910","coordinates":[470043,139767]},{"type":"Point","properties":{"name":"Erechim","scalerank":8,"subregion":"Rio Grande do Sul","latitude":-27.630007,"longitude":-52.269998},"id":"Q642088","coordinates":[481785,156687]},{"type":"Point","properties":{"name":"Guaira","scalerank":8,"subregion":"Paraná","latitude":-24.089965,"longitude":-54.26998},"id":"Q135983","coordinates":[437480,247435]},{"type":"Point","properties":{"name":"Palmas","scalerank":8,"subregion":"Paraná","latitude":-26.48,"longitude":-51.999989},"id":"Q928397","coordinates":[487766,186167]},{"type":"Point","properties":{"name":"Arapongas","scalerank":8,"subregion":"Paraná","latitude":-23.410007,"longitude":-51.43005},"id":"Q1650073","coordinates":[500392,264865]},{"type":"Point","properties":{"name":"Paranaguá","scalerank":8,"subregion":"Paraná","latitude":-25.527876,"longitude":-48.534454},"id":"Q503852","coordinates":[564537,210574]},{"type":"Point","properties":{"name":"São José dos Pinhais","scalerank":8,"subregion":"Paraná","latitude":-25.57003,"longitude":-49.180006},"id":"Q478818","coordinates":[550236,209494]},{"type":"Point","properties":{"name":"Guarapuava","scalerank":8,"subregion":"Paraná","latitude":-25.380015,"longitude":-51.480021},"id":"Q326354","coordinates":[499285,214365]},{"type":"Point","properties":{"name":"Rio Negro","scalerank":8,"subregion":"Paraná","latitude":-26.100023,"longitude":-49.790021},"id":"Q1878476","coordinates":[536723,195907]},{"type":"Point","properties":{"name":"Apucarana","scalerank":8,"subregion":"Paraná","latitude":-23.549998,"longitude":-51.470021},"id":"Q1638385","coordinates":[499507,261277]},{"type":"Point","properties":{"name":"Lapa","scalerank":8,"subregion":"Paraná","latitude":-25.760044,"longitude":-49.729998},"id":"Q2064788","coordinates":[538053,204623]},{"type":"Point","properties":{"name":"Irati","scalerank":8,"subregion":"Paraná","latitude":-25.470036,"longitude":-50.659968},"id":"Q2064763","coordinates":[517451,212057]},{"type":"Point","properties":{"name":"Castro","scalerank":8,"subregion":"Paraná","latitude":-24.790026,"longitude":-50.009981},"id":"Q2077411","coordinates":[531850,229489]},{"type":"Point","properties":{"name":"Telêmaco Borba","scalerank":8,"subregion":"Paraná","latitude":-24.32995,"longitude":-50.619996},"id":"Q391843","coordinates":[518337,241283]},{"type":"Point","properties":{"name":"Jacarezinho","scalerank":8,"subregion":"Paraná","latitude":-23.159944,"longitude":-49.979983},"id":"Q1814491","coordinates":[532515,271276]},{"type":"Point","properties":{"name":"Concórdia","scalerank":8,"subregion":"Santa Catarina","latitude":-27.230032,"longitude":-52.030013},"id":"Q749798","coordinates":[487101,166940]},{"type":"Point","properties":{"name":"Blumenau","scalerank":8,"subregion":"Santa Catarina","latitude":-26.920025,"longitude":-49.089986},"id":"Q155557","coordinates":[552231,174887]},{"type":"Point","properties":{"name":"Brusque","scalerank":8,"subregion":"Santa Catarina","latitude":-27.129986,"longitude":-48.930021},"id":"Q329488","coordinates":[555774,169505]},{"type":"Point","properties":{"name":"Araranguá","scalerank":8,"subregion":"Santa Catarina","latitude":-28.940005,"longitude":-49.499987},"id":"Q626231","coordinates":[543148,123105]},{"type":"Point","properties":{"name":"Jaraguá do Sul","scalerank":8,"subregion":"Santa Catarina","latitude":-26.48,"longitude":-49.099985},"id":"Q849584","coordinates":[552009,186167]},{"type":"Point","properties":{"name":"Tubarão","scalerank":8,"subregion":"Santa Catarina","latitude":-28.480033,"longitude":-49.020016},"id":"Q1815730","coordinates":[553781,134896]},{"type":"Point","properties":{"name":"Laguna","scalerank":8,"subregion":"Santa Catarina","latitude":-28.480033,"longitude":-48.779979},"id":"Q1615291","coordinates":[559098,134896]},{"type":"Point","properties":{"name":"Joaçaba","scalerank":8,"subregion":"Santa Catarina","latitude":-27.170035,"longitude":-51.499968},"id":"Q1758467","coordinates":[498843,168478]},{"type":"Point","properties":{"name":"Caçador","scalerank":8,"subregion":"Santa Catarina","latitude":-26.770008,"longitude":-51.020023},"id":"Q986540","coordinates":[509475,178732]},{"type":"Point","properties":{"name":"Canoinhas","scalerank":8,"subregion":"Santa Catarina","latitude":-26.179967,"longitude":-50.400009},"id":"Q1799304","coordinates":[523210,193858]},{"type":"Point","properties":{"name":"Camocim","scalerank":8,"subregion":"Ceará","latitude":-2.899992,"longitude":-40.850024},"id":"Q1807057","coordinates":[734767,790634]},{"type":"Point","properties":{"name":"Russas","scalerank":8,"subregion":"Ceará","latitude":-4.940023,"longitude":-37.979992},"id":"Q1806654","coordinates":[798346,738339]},{"type":"Point","properties":{"name":"Sobral","scalerank":8,"subregion":"Ceará","latitude":-3.690022,"longitude":-40.350028},"id":"Q1815899","coordinates":[745843,770382]},{"type":"Point","properties":{"name":"Iguatu","scalerank":8,"subregion":"Ceará","latitude":-6.359988,"longitude":-39.299989},"id":"Q931326","coordinates":[769104,701938]},{"type":"Point","properties":{"name":"Quixadá","scalerank":8,"subregion":"Ceará","latitude":-4.969995,"longitude":-39.020006},"id":"Q2013932","coordinates":[775307,737570]},{"type":"Point","properties":{"name":"Canindé","scalerank":8,"subregion":"Ceará","latitude":-4.350033,"longitude":-39.309988},"id":"Q1008278","coordinates":[768883,753463]},{"type":"Point","properties":{"name":"Campo Maior","scalerank":8,"subregion":"Piauí","latitude":-4.82003,"longitude":-42.18002},"id":"Q2105005","coordinates":[705304,741415]},{"type":"Point","properties":{"name":"Barras","scalerank":8,"subregion":"Piauí","latitude":-4.250039,"longitude":-42.299987},"id":"Q808836","coordinates":[702647,756026]},{"type":"Point","properties":{"name":"Rio Largo","scalerank":8,"subregion":"Alagoas","latitude":-9.480004,"longitude":-35.839968},"id":"Q530211","coordinates":[845753,621957]},{"type":"Point","properties":{"name":"Palmeira dos Índios","scalerank":8,"subregion":"Alagoas","latitude":-9.416597,"longitude":-36.616639},"id":"Q948268","coordinates":[828547,623583]},{"type":"Point","properties":{"name":"Santa Cruz Cabrália","scalerank":8,"subregion":"Bahia","latitude":-16.280002,"longitude":-39.02998},"id":"Q993466","coordinates":[775086,447641]},{"type":"Point","properties":{"name":"Paulo Afonso","scalerank":8,"subregion":"Bahia","latitude":-9.330659,"longitude":-38.265659},"id":"Q956008","coordinates":[792991,623932]},{"type":"Point","properties":{"name":"Brumado","scalerank":8,"subregion":"Bahia","latitude":-14.21,"longitude":-41.670025},"id":"Q1808298","coordinates":[716602,500705]},{"type":"Point","properties":{"name":"Jaguaquara","scalerank":8,"subregion":"Bahia","latitude":-13.529989,"longitude":-39.97},"id":"Q733973","coordinates":[754262,518137]},{"type":"Point","properties":{"name":"Itapetinga","scalerank":8,"subregion":"Bahia","latitude":-15.249988,"longitude":-40.249983},"id":"Q921827","coordinates":[748059,474045]},{"type":"Point","properties":{"name":"Ubaitaba","scalerank":8,"subregion":"Bahia","latitude":-14.30002,"longitude":-39.330013},"id":"Q1762068","coordinates":[768439,498398]},{"type":"Point","properties":{"name":"Cachoeiro de Itapemirim","scalerank":8,"subregion":"Espírito Santo","latitude":-20.850008,"longitude":-41.129981},"id":"Q1439193","coordinates":[728565,330490]},{"type":"Point","properties":{"name":"Barra Mansa","scalerank":8,"subregion":"Rio de Janeiro","latitude":-22.560033,"longitude":-44.16995},"id":"Q808797","coordinates":[661222,286654]},{"type":"Point","properties":{"name":"Nova Iguaçu","scalerank":8,"subregion":"Rio de Janeiro","latitude":-22.740022,"longitude":-43.469967},"id":"Q188897","coordinates":[677277,281655]},{"type":"Point","properties":{"name":"Duque de Caxias","scalerank":8,"subregion":"Rio de Janeiro","latitude":-22.769994,"longitude":-43.309977},"id":"Q193021","coordinates":[680370,280595]},{"type":"Point","properties":{"name":"Niterói","scalerank":8,"subregion":"Rio de Janeiro","latitude":-22.900012,"longitude":-43.09999},"id":"Q178725","coordinates":[684795,278387]},{"type":"Point","properties":{"name":"Cabo Frio","scalerank":8,"subregion":"Rio de Janeiro","latitude":-22.889987,"longitude":-42.039977},"id":"Q735025","coordinates":[708406,278196]},{"type":"Point","properties":{"name":"Macaé","scalerank":8,"subregion":"Rio de Janeiro","latitude":-22.379992,"longitude":-41.789992},"id":"Q473250","coordinates":[713944,291269]},{"type":"Point","properties":{"name":"Miracema","scalerank":8,"subregion":"Rio de Janeiro","latitude":-21.410025,"longitude":-42.199967},"id":"Q1804056","coordinates":[704862,316134]},{"type":"Point","properties":{"name":"Apodi","scalerank":8,"subregion":"Rio Grande do Norte","latitude":-5.650005,"longitude":-37.800003},"id":"Q2008084","coordinates":[802333,720139]},{"type":"Point","properties":{"name":"Santa Cruz","scalerank":8,"subregion":"Rio Grande do Norte","latitude":-6.219996,"longitude":-36.029982},"id":"Q1854793","coordinates":[841543,705527]},{"type":"Point","properties":{"name":"Morrinhos","scalerank":8,"subregion":"Goiás","latitude":-17.730043,"longitude":-49.109985},"id":"Q1025767","coordinates":[551787,410470]},{"type":"Point","properties":{"name":"Ceres","scalerank":8,"subregion":"Goiás","latitude":-15.303318,"longitude":-49.6052},"id":"Q2019995","coordinates":[540817,472678]},{"type":"Point","properties":{"name":"Catalão","scalerank":8,"subregion":"Goiás","latitude":-18.180042,"longitude":-47.950004},"id":"Q35135","coordinates":[577484,398934]},{"type":"Point","properties":{"name":"Cristalina","scalerank":8,"subregion":"Goiás","latitude":-16.769998,"longitude":-47.610025},"id":"Q1012541","coordinates":[585015,435080]},{"type":"Point","properties":{"name":"Trindade","scalerank":8,"subregion":"Goiás","latitude":-16.650006,"longitude":-49.499987},"id":"Q985583","coordinates":[543148,438156]},{"type":"Point","properties":{"name":"Iporá","scalerank":8,"subregion":"Goiás","latitude":-16.450018,"longitude":-51.129991},"id":"Q675142","coordinates":[507039,443283]},{"type":"Point","properties":{"name":"Inhumas","scalerank":8,"subregion":"Goiás","latitude":-16.359998,"longitude":-49.499987},"id":"Q986245","coordinates":[543148,445591]},{"type":"Point","properties":{"name":"Itaberaí","scalerank":8,"subregion":"Goiás","latitude":-16.019967,"longitude":-49.809968},"id":"Q527149","coordinates":[536281,454307]},{"type":"Point","properties":{"name":"Santo André","scalerank":8,"subregion":"São Paulo","latitude":-23.652834,"longitude":-46.527817},"id":"Q191652","coordinates":[608989,258640]},{"type":"Point","properties":{"name":"Pindamonhangaba","scalerank":8,"subregion":"São Paulo","latitude":-22.919959,"longitude":-45.470026},"id":"Q974642","coordinates":[632422,277428]},{"type":"Point","properties":{"name":"Rio Claro","scalerank":8,"subregion":"São Paulo","latitude":-22.409964,"longitude":-47.560028},"id":"Q291277","coordinates":[586123,290501]},{"type":"Point","properties":{"name":"Ourinhos","scalerank":8,"subregion":"São Paulo","latitude":-22.970033,"longitude":-49.86999},"id":"Q985605","coordinates":[534951,276144]},{"type":"Point","properties":{"name":"Itanhaem","scalerank":8,"subregion":"São Paulo","latitude":-24.179985,"longitude":-46.800022},"id":"Q983491","coordinates":[602959,245127]},{"type":"Point","properties":{"name":"Jaboticabal","scalerank":8,"subregion":"São Paulo","latitude":-21.250035,"longitude":-48.329981},"id":"Q938162","coordinates":[569067,320236]},{"type":"Point","properties":{"name":"Bragança Paulista","scalerank":8,"subregion":"São Paulo","latitude":-22.950035,"longitude":-46.549986},"id":"Q897232","coordinates":[608866,276588]},{"type":"Point","properties":{"name":"Jundiaí","scalerank":8,"subregion":"São Paulo","latitude":-23.199994,"longitude":-46.879992},"id":"Q275109","coordinates":[601188,270249]},{"type":"Point","properties":{"name":"São José dos Campos","scalerank":8,"subregion":"São Paulo","latitude":-23.199994,"longitude":-45.879949},"id":"Q191642","coordinates":[623341,270249]},{"type":"Point","properties":{"name":"Guaratinguetá","scalerank":8,"subregion":"São Paulo","latitude":-22.819965,"longitude":-45.189991},"id":"Q905157","coordinates":[638625,279991]},{"type":"Point","properties":{"name":"Pirassununga","scalerank":8,"subregion":"São Paulo","latitude":-21.990042,"longitude":-47.429984},"id":"Q1750431","coordinates":[589004,301266]},{"type":"Point","properties":{"name":"Americana","scalerank":8,"subregion":"São Paulo","latitude":-22.749943,"longitude":-47.32999},"id":"Q467421","coordinates":[591219,281786]},{"type":"Point","properties":{"name":"Piracicaba","scalerank":8,"subregion":"São Paulo","latitude":-22.709998,"longitude":-47.639997},"id":"Q330175","coordinates":[584326,282306]},{"type":"Point","properties":{"name":"São João da Boa Vista","scalerank":8,"subregion":"São Paulo","latitude":-21.980016,"longitude":-46.789997},"id":"Q925419","coordinates":[603181,301523]},{"type":"Point","properties":{"name":"São Carlos","scalerank":8,"subregion":"São Paulo","latitude":-22.020014,"longitude":-47.889982},"id":"Q194338","coordinates":[578814,300497]},{"type":"Point","properties":{"name":"Tupã","scalerank":8,"subregion":"São Paulo","latitude":-21.929994,"longitude":-50.51995},"id":"Q961143","coordinates":[520553,302805]},{"type":"Point","properties":{"name":"Penápolis","scalerank":8,"subregion":"São Paulo","latitude":-21.410025,"longitude":-50.080003},"id":"Q986508","coordinates":[530299,316134]},{"type":"Point","properties":{"name":"Presidente Prudente","scalerank":8,"subregion":"São Paulo","latitude":-22.120008,"longitude":-51.39},"id":"Q525618","coordinates":[501279,297934]},{"type":"Point","properties":{"name":"Registro","scalerank":8,"subregion":"São Paulo","latitude":-24.490044,"longitude":-47.839985},"id":"Q1798084","coordinates":[579921,237179]},{"type":"Point","properties":{"name":"Tatuí","scalerank":8,"subregion":"São Paulo","latitude":-23.35001,"longitude":-47.860009},"id":"Q1795613","coordinates":[579478,266403]},{"type":"Point","properties":{"name":"Avaré","scalerank":8,"subregion":"São Paulo","latitude":-23.110025,"longitude":-48.930021},"id":"Q782812","coordinates":[555774,272555]},{"type":"Point","properties":{"name":"Garça","scalerank":8,"subregion":"São Paulo","latitude":-22.220002,"longitude":-49.659977},"id":"Q940614","coordinates":[539604,295371]},{"type":"Point","properties":{"name":"Catanduva","scalerank":8,"subregion":"São Paulo","latitude":-21.140016,"longitude":-48.979967},"id":"Q983683","coordinates":[554668,323056]},{"type":"Point","properties":{"name":"Batatais","scalerank":8,"subregion":"São Paulo","latitude":-20.890005,"longitude":-47.59},"id":"Q650500","coordinates":[585459,329465]},{"type":"Point","properties":{"name":"Barretos","scalerank":8,"subregion":"São Paulo","latitude":-20.550026,"longitude":-48.580017},"id":"Q1637488","coordinates":[563528,338180]},{"type":"Point","properties":{"name":"Marília","scalerank":8,"subregion":"São Paulo","latitude":-22.210028,"longitude":-49.950011},"id":"Q737660","coordinates":[533179,295626]},{"type":"Point","properties":{"name":"Itu","scalerank":8,"subregion":"São Paulo","latitude":-23.260042,"longitude":-47.300018},"id":"Q957653","coordinates":[591883,268710]},{"type":"Point","properties":{"name":"Itapetininga","scalerank":8,"subregion":"São Paulo","latitude":-23.589996,"longitude":-48.039998},"id":"Q942071","coordinates":[575490,260251]},{"type":"Point","properties":{"name":"Jaboatao","scalerank":8,"subregion":"Pernambuco","latitude":-8.11001,"longitude":-35.020044},"id":"Q271393","coordinates":[863916,657077]},{"type":"Point","properties":{"name":"Olinda","scalerank":8,"subregion":"Pernambuco","latitude":-7.999991,"longitude":-34.849951},"id":"Q28301","coordinates":[867684,659897]},{"type":"Point","properties":{"name":"Cabo de Santo Agostinho","scalerank":8,"subregion":"Pernambuco","latitude":-8.289999,"longitude":-35.029991},"id":"Q1637538","coordinates":[863696,652463]},{"type":"Point","properties":{"name":"Carpina","scalerank":8,"subregion":"Pernambuco","latitude":-7.840001,"longitude":-35.260003},"id":"Q1993877","coordinates":[858736,663807]},{"type":"Point","properties":{"name":"Arcoverde","scalerank":8,"subregion":"Pernambuco","latitude":-8.420017,"longitude":-37.069996},"id":"Q637902","coordinates":[818504,649130]},{"type":"Point","properties":{"name":"Manacapuru","scalerank":7,"subregion":"Amazonas","latitude":-3.289581,"longitude":-60.61998},"id":"Q983526","coordinates":[296811,780647]},{"type":"Point","properties":{"name":"Maués","scalerank":7,"subregion":"Amazonas","latitude":-3.389626,"longitude":-57.720028},"id":"Q1808581","coordinates":[361053,778083]},{"type":"Point","properties":{"name":"Pedreiras","scalerank":7,"subregion":"Maranh","latitude":-4.569606,"longitude":-44.670023},"id":"Q1957216","coordinates":[650144,747834]},{"type":"Point","properties":{"name":"Codó","scalerank":7,"subregion":"Maranhão","latitude":-4.479586,"longitude":-43.879968},"id":"Q2013225","coordinates":[667646,750142]},{"type":"Point","properties":{"name":"Coroatá","scalerank":7,"subregion":"Maranhão","latitude":-4.129581,"longitude":-44.150003},"id":"Q967552","coordinates":[661664,759114]},{"type":"Point","properties":{"name":"Chapadinha","scalerank":7,"subregion":"Maranhão","latitude":-3.739528,"longitude":-43.36},"id":"Q746060","coordinates":[679165,769113]},{"type":"Point","properties":{"name":"Pinheiro","scalerank":7,"subregion":"Maranhão","latitude":-2.519602,"longitude":-45.089997},"id":"Q1796449","coordinates":[640841,800386]},{"type":"Point","properties":{"name":"Barra do Corda","scalerank":7,"subregion":"Maranhão","latitude":-5.5096,"longitude":-45.259961},"id":"Q1807301","coordinates":[637075,723738]},{"type":"Point","properties":{"name":"Viana","scalerank":7,"subregion":"Maranhão","latitude":-3.209586,"longitude":-45.000003},"id":"Q2106072","coordinates":[642834,782698]},{"type":"Point","properties":{"name":"Colinas","scalerank":7,"subregion":"Maranhão","latitude":-6.039542,"longitude":-44.239998},"id":"Q369679","coordinates":[659670,710153]},{"type":"Point","properties":{"name":"Viseu","scalerank":7,"subregion":"Pará","latitude":-1.196479,"longitude":-46.140011},"id":"Q772569","coordinates":[617580,834304]},{"type":"Point","properties":{"name":"Capitão Poço","scalerank":7,"subregion":"Pará","latitude":-1.749623,"longitude":-47.090005},"id":"Q955914","coordinates":[596535,820124]},{"type":"Point","properties":{"name":"Castanhal","scalerank":7,"subregion":"Pará","latitude":-1.2896,"longitude":-47.930031},"id":"Q984581","coordinates":[577927,831916]},{"type":"Point","properties":{"name":"Salinópolis","scalerank":7,"subregion":"Pará","latitude":-0.609486,"longitude":-47.339989},"id":"Q1008198","coordinates":[590997,849351]},{"type":"Point","properties":{"name":"Alenquer","scalerank":7,"subregion":"Pará","latitude":-1.939586,"longitude":-54.79},"id":"Q2289869","coordinates":[425960,815254]},{"type":"Point","properties":{"name":"Oriximiná","scalerank":7,"subregion":"Pará","latitude":-1.759597,"longitude":-55.869985},"id":"Q2011919","coordinates":[402036,819868]},{"type":"Point","properties":{"name":"Xinguara","scalerank":7,"subregion":"Par","latitude":-7.100614,"longitude":-49.948047},"id":"Q2008249","coordinates":[533222,682953]},{"type":"Point","properties":{"name":"Jacundá","scalerank":7,"subregion":"Par","latitude":-4.439459,"longitude":-49.115693},"id":"Q1967407","coordinates":[551661,751171]},{"type":"Point","properties":{"name":"Uruará","scalerank":7,"subregion":"Par","latitude":-3.8296,"longitude":-54.029994},"id":"Q2009083","coordinates":[442797,766804]},{"type":"Point","properties":{"name":"Altamira","scalerank":7,"subregion":"Pará","latitude":-3.199612,"longitude":-52.210002},"id":"Q434285","coordinates":[483114,782954]},{"type":"Point","properties":{"name":"Paragominas","scalerank":7,"subregion":"Pará","latitude":-2.959575,"longitude":-47.490006},"id":"Q935005","coordinates":[587674,789107]},{"type":"Point","properties":{"name":"Cametá","scalerank":7,"subregion":"Pará","latitude":-2.239619,"longitude":-49.509986},"id":"Q1805206","coordinates":[542926,807563]},{"type":"Point","properties":{"name":"Rolim de Moura","scalerank":7,"subregion":"Rondinia","latitude":-11.730203,"longitude":-61.780632},"id":"Q1784242","coordinates":[271100,564274]},{"type":"Point","properties":{"name":"Ariquemes","scalerank":7,"subregion":"Rondônia","latitude":-9.939614,"longitude":-63.079985},"id":"Q1646975","coordinates":[242316,610175]},{"type":"Point","properties":{"name":"Abunã","scalerank":7,"subregion":"Rondinia","latitude":-9.695391,"longitude":-65.359716},"id":"Q4670642","coordinates":[191814,616436]},{"type":"Point","properties":{"name":"Tocantinópolis","scalerank":7,"subregion":"Tocantins","latitude":-6.319577,"longitude":-47.419984},"id":"Q587927","coordinates":[589225,702974]},{"type":"Point","properties":{"name":"Gurupi","scalerank":7,"subregion":"Tocantins","latitude":-11.719609,"longitude":-49.059988},"id":"Q1784265","coordinates":[552895,564546]},{"type":"Point","properties":{"name":"Aquidauana","scalerank":7,"subregion":"Mato Grosso do Sul","latitude":-20.469618,"longitude":-55.790016},"id":"Q1792157","coordinates":[403808,340241]},{"type":"Point","properties":{"name":"Paranaíba","scalerank":7,"subregion":"Mato Grosso do Sul","latitude":-19.679588,"longitude":-51.200012},"id":"Q925758","coordinates":[505488,360494]},{"type":"Point","properties":{"name":"Sete Lagoas","scalerank":7,"subregion":"Minas Gerais","latitude":-19.449628,"longitude":-44.249997},"id":"Q841226","coordinates":[659449,366389]},{"type":"Point","properties":{"name":"Divinópolis","scalerank":7,"subregion":"Minas Gerais","latitude":-20.149534,"longitude":-44.899983},"id":"Q926606","coordinates":[645050,348447]},{"type":"Point","properties":{"name":"Ipatinga","scalerank":7,"subregion":"Minas Gerais","latitude":-19.4796,"longitude":-42.519999},"id":"Q318314","coordinates":[697773,365620]},{"type":"Point","properties":{"name":"Araxá","scalerank":7,"subregion":"Minas Gerais","latitude":-19.579594,"longitude":-46.950013},"id":"Q586057","coordinates":[599636,363057]},{"type":"Point","properties":{"name":"Lavras","scalerank":7,"subregion":"Minas Gerais","latitude":-21.24957,"longitude":-45.009951},"id":"Q1638425","coordinates":[642614,320248]},{"type":"Point","properties":{"name":"Ubá","scalerank":7,"subregion":"Minas Gerais","latitude":-21.119604,"longitude":-42.950025},"id":"Q922944","coordinates":[688247,323579]},{"type":"Point","properties":{"name":"Campo Belo","scalerank":7,"subregion":"Minas Gerais","latitude":-20.889592,"longitude":-45.279986},"id":"Q595804","coordinates":[636632,329475]},{"type":"Point","properties":{"name":"Ponte Nova","scalerank":7,"subregion":"Minas Gerais","latitude":-20.409621,"longitude":-42.89995},"id":"Q999139","coordinates":[689356,341779]},{"type":"Point","properties":{"name":"Curvelo","scalerank":7,"subregion":"Minas Gerais","latitude":-18.759593,"longitude":-44.429986},"id":"Q1749748","coordinates":[655462,384077]},{"type":"Point","properties":{"name":"Paracatu","scalerank":7,"subregion":"Minas Gerais","latitude":-17.199585,"longitude":-46.869992},"id":"Q1755739","coordinates":[601409,424068]},{"type":"Point","properties":{"name":"Bocaiúva","scalerank":7,"subregion":"Minas Gerais","latitude":-17.109616,"longitude":-43.81005},"id":"Q1756928","coordinates":[669195,426374]},{"type":"Point","properties":{"name":"Araçuaí","scalerank":7,"subregion":"Minas Gerais","latitude":-16.859605,"longitude":-42.069949},"id":"Q1749750","coordinates":[707742,432783]},{"type":"Point","properties":{"name":"Janaúba","scalerank":7,"subregion":"Minas Gerais","latitude":-15.799618,"longitude":-43.309977},"id":"Q1791340","coordinates":[680273,459956]},{"type":"Point","properties":{"name":"Juina","scalerank":7,"subregion":"Mato Grosso","latitude":-11.399577,"longitude":-59.500022},"id":"Q1880608","coordinates":[337892,571976]},{"type":"Point","properties":{"name":"Barra do Garças","scalerank":7,"subregion":"Mato Grosso","latitude":-15.879613,"longitude":-52.259999},"id":"Q577720","coordinates":[482007,457905]},{"type":"Point","properties":{"name":"Pontes e Lacerda","scalerank":7,"subregion":"Mato Grosso","latitude":-15.219602,"longitude":-59.34998},"id":"Q2011952","coordinates":[324945,474824]},{"type":"Point","properties":{"name":"Barra do Bugres","scalerank":7,"subregion":"Mato Grosso","latitude":-15.069585,"longitude":-57.190008},"id":"Q1805676","coordinates":[372794,478670]},{"type":"Point","properties":{"name":"Rondonópolis","scalerank":7,"subregion":"Mato Grosso","latitude":-16.4695,"longitude":-54.639983},"id":"Q983714","coordinates":[429284,442783]},{"type":"Point","properties":{"name":"Uruguaiana","scalerank":7,"subregion":"Rio Grande do Sul","latitude":-29.769618,"longitude":-57.089988},"id":"Q622823","coordinates":[375010,101838]},{"type":"Point","properties":{"name":"São Borja","scalerank":7,"subregion":"Rio Grande do Sul","latitude":-28.659609,"longitude":-56.009977},"id":"Q385327","coordinates":[398935,130293]},{"type":"Point","properties":{"name":"Novo Hamburgo","scalerank":7,"subregion":"Rio Grande do Sul","latitude":-29.709622,"longitude":-51.13999},"id":"Q321331","coordinates":[506818,103376]},{"type":"Point","properties":{"name":"Rio Grande","scalerank":7,"subregion":"Rio Grande do Sul","latitude":-32.049479,"longitude":-52.120008},"id":"Q869571","coordinates":[485108,43395]},{"type":"Point","properties":{"name":"Camaquã","scalerank":7,"subregion":"Rio Grande do Sul","latitude":-30.839631,"longitude":-51.810001},"id":"Q986275","coordinates":[491975,74409]},{"type":"Point","properties":{"name":"Bento Gonçalves","scalerank":7,"subregion":"Rio Grande do Sul","latitude":-29.1695,"longitude":-51.519967},"id":"Q548652","coordinates":[498400,117222]},{"type":"Point","properties":{"name":"Vacaria","scalerank":7,"subregion":"Rio Grande do Sul","latitude":-28.499618,"longitude":-50.940002},"id":"Q941580","coordinates":[511248,134394]},{"type":"Point","properties":{"name":"Ijuí","scalerank":7,"subregion":"Rio Grande do Sul","latitude":-28.389548,"longitude":-53.919949},"id":"Q194374","coordinates":[445234,137216]},{"type":"Point","properties":{"name":"Santa Rosa","scalerank":7,"subregion":"Rio Grande do Sul","latitude":-27.869528,"longitude":-54.459968},"id":"Q995326","coordinates":[433272,150547]},{"type":"Point","properties":{"name":"Maringá","scalerank":7,"subregion":"Paraná","latitude":-23.409541,"longitude":-51.929968},"id":"Q208669","coordinates":[489318,264877]},{"type":"Point","properties":{"name":"Cascavel","scalerank":7,"subregion":"Paraná","latitude":-24.959576,"longitude":-53.460029},"id":"Q205681","coordinates":[455423,225142]},{"type":"Point","properties":{"name":"Campo Murao","scalerank":7,"subregion":"Paraná","latitude":-24.049606,"longitude":-52.419989},"id":"Q1773327","coordinates":[478462,248469]},{"type":"Point","properties":{"name":"Foz do Iguaçu","scalerank":7,"subregion":"Paraná","latitude":-25.523469,"longitude":-54.52999},"id":"Q202316","coordinates":[431720,210687]},{"type":"Point","properties":{"name":"São Francisco do Sul","scalerank":7,"subregion":"Santa Catarina","latitude":-26.239601,"longitude":-48.59999},"id":"Q986536","coordinates":[563085,192329]},{"type":"Point","properties":{"name":"Porto União","scalerank":7,"subregion":"Santa Catarina","latitude":-26.239601,"longitude":-51.079968},"id":"Q1784679","coordinates":[508147,192329]},{"type":"Point","properties":{"name":"Itajaí","scalerank":7,"subregion":"Santa Catarina","latitude":-26.899613,"longitude":-48.680011},"id":"Q842713","coordinates":[561313,175410]},{"type":"Point","properties":{"name":"Imbituba","scalerank":7,"subregion":"Santa Catarina","latitude":-28.229609,"longitude":-48.660012},"id":"Q986545","coordinates":[561756,141316]},{"type":"Point","properties":{"name":"Lajes","scalerank":7,"subregion":"Santa Catarina","latitude":-27.809583,"longitude":-50.309989},"id":"Q762009","coordinates":[525204,152083]},{"type":"Point","properties":{"name":"Granja","scalerank":7,"subregion":"Ceará","latitude":-3.119514,"longitude":-40.839998},"id":"Q2028672","coordinates":[734989,785007]},{"type":"Point","properties":{"name":"Crato","scalerank":7,"subregion":"Ceará","latitude":-7.229599,"longitude":-39.420008},"id":"Q1004897","coordinates":[766446,679646]},{"type":"Point","properties":{"name":"Itapipoca","scalerank":7,"subregion":"Ceará","latitude":-3.499542,"longitude":-39.580024},"id":"Q1797985","coordinates":[762901,775265]},{"type":"Point","properties":{"name":"Paracuru","scalerank":7,"subregion":"Ceará","latitude":-3.399548,"longitude":-39.040031},"id":"Q542347","coordinates":[774863,777828]},{"type":"Point","properties":{"name":"Acaraú","scalerank":7,"subregion":"Ceará","latitude":-2.889605,"longitude":-40.119991},"id":"Q1796706","coordinates":[750939,790901]},{"type":"Point","properties":{"name":"Tauá","scalerank":7,"subregion":"Ceará","latitude":-5.999493,"longitude":-40.310031},"id":"Q2021015","coordinates":[746729,711179]},{"type":"Point","properties":{"name":"Crateús","scalerank":7,"subregion":"Ceará","latitude":-5.16559,"longitude":-40.666004},"id":"Q2021123","coordinates":[738843,732556]},{"type":"Point","properties":{"name":"Baturité","scalerank":7,"subregion":"Ceará","latitude":-4.329569,"longitude":-38.879989},"id":"Q2021082","coordinates":[778408,753988]},{"type":"Point","properties":{"name":"Ipú","scalerank":7,"subregion":"Ceará","latitude":-4.319596,"longitude":-40.720057},"id":"Q2026922","coordinates":[737646,754243]},{"type":"Point","properties":{"name":"Floriano","scalerank":7,"subregion":"Piauí","latitude":-6.769575,"longitude":-43.029968},"id":"Q2008644","coordinates":[686476,691439]},{"type":"Point","properties":{"name":"Piripiri","scalerank":7,"subregion":"Piauí","latitude":-4.269573,"longitude":-41.789992},"id":"Q996763","coordinates":[713944,755526]},{"type":"Point","properties":{"name":"Penedo","scalerank":7,"subregion":"Alagoas","latitude":-10.26962,"longitude":-36.580026},"id":"Q1772658","coordinates":[829358,601716]},{"type":"Point","properties":{"name":"Itabuna","scalerank":7,"subregion":"Bahia","latitude":-14.789602,"longitude":-39.280016},"id":"Q460750","coordinates":[769547,485847]},{"type":"Point","properties":{"name":"Itamaraju","scalerank":7,"subregion":"Bahia","latitude":-17.039594,"longitude":-39.529949},"id":"Q943536","coordinates":[764010,428169]},{"type":"Point","properties":{"name":"Guanambi","scalerank":7,"subregion":"Bahia","latitude":-14.229585,"longitude":-42.789983},"id":"Q786924","coordinates":[691792,500203]},{"type":"Point","properties":{"name":"Porto Seguro","scalerank":7,"subregion":"Bahia","latitude":-16.429606,"longitude":-39.080028},"id":"Q499922","coordinates":[773977,443806]},{"type":"Point","properties":{"name":"Valença","scalerank":7,"subregion":"Bahia","latitude":-13.359612,"longitude":-39.080028},"id":"Q1010498","coordinates":[773977,522505]},{"type":"Point","properties":{"name":"Serrinha","scalerank":7,"subregion":"Bahia","latitude":-11.649587,"longitude":-39.010007},"id":"Q1008215","coordinates":[775528,566341]},{"type":"Point","properties":{"name":"Tucano","scalerank":7,"subregion":"Bahia","latitude":-10.969629,"longitude":-38.789994},"id":"Q22062855","coordinates":[780402,583771]},{"type":"Point","properties":{"name":"Senhor do Bonfim","scalerank":7,"subregion":"Bahia","latitude":-10.449609,"longitude":-40.190012},"id":"Q1808316","coordinates":[749388,597102]},{"type":"Point","properties":{"name":"Remanso","scalerank":7,"subregion":"Bahia","latitude":-9.599583,"longitude":-42.109998},"id":"Q1794265","coordinates":[706855,618892]},{"type":"Point","properties":{"name":"Itambé","scalerank":7,"subregion":"Bahia","latitude":-15.239601,"longitude":-40.629985},"id":"Q686304","coordinates":[739641,474312]},{"type":"Point","properties":{"name":"Bom Jesus da Lapa","scalerank":7,"subregion":"Bahia","latitude":-13.249541,"longitude":-43.440021},"id":"Q891727","coordinates":[677392,525326]},{"type":"Point","properties":{"name":"Itaberaba","scalerank":7,"subregion":"Bahia","latitude":-12.519612,"longitude":-40.29998},"id":"Q1800730","coordinates":[746952,544038]},{"type":"Point","properties":{"name":"São Mateus","scalerank":7,"subregion":"Espírito Santo","latitude":-18.72962,"longitude":-39.859981},"id":"Q1763574","coordinates":[756699,384846]},{"type":"Point","properties":{"name":"Patos","scalerank":7,"subregion":"Paraíba","latitude":-7.019586,"longitude":-37.290008},"id":"Q1966384","coordinates":[813631,685030]},{"type":"Point","properties":{"name":"Volta Redonda","scalerank":7,"subregion":"Rio de Janeiro","latitude":-22.51957,"longitude":-44.094968},"id":"Q276176","coordinates":[662883,287691]},{"type":"Point","properties":{"name":"Petrópolis","scalerank":7,"subregion":"Rio de Janeiro","latitude":-22.509493,"longitude":-43.199984},"id":"Q189043","coordinates":[682709,287950]},{"type":"Point","properties":{"name":"Nova Cruz","scalerank":7,"subregion":"Rio Grande do Norte","latitude":-6.469594,"longitude":-35.439992},"id":"Q1802859","coordinates":[854613,699129]},{"type":"Point","properties":{"name":"Caicó","scalerank":7,"subregion":"Rio Grande do Norte","latitude":-6.45962,"longitude":-37.10002},"id":"Q1751350","coordinates":[817839,699384]},{"type":"Point","properties":{"name":"Açu","scalerank":7,"subregion":"Rio Grande do Norte","latitude":-5.579622,"longitude":-36.910057},"id":"Q1788873","coordinates":[822047,721943]},{"type":"Point","properties":{"name":"Estância","scalerank":7,"subregion":"Sergipe","latitude":-11.269611,"longitude":-37.450025},"id":"Q1005942","coordinates":[810086,576081]},{"type":"Point","properties":{"name":"Caracaraí","scalerank":7,"subregion":"Roraima","latitude":1.816232,"longitude":-61.127675},"id":"Q772563","coordinates":[285565,911534]},{"type":"Point","properties":{"name":"Porto Santana","scalerank":7,"subregion":"Amapá","latitude":-0.039598,"longitude":-51.179987},"id":"Q2105236","coordinates":[505932,863960]},{"type":"Point","properties":{"name":"Rio Verde","scalerank":7,"subregion":"Goi","latitude":-17.819598,"longitude":-50.929977},"id":"Q942064","coordinates":[511470,408174]},{"type":"Point","properties":{"name":"Pires do Rio","scalerank":7,"subregion":"Goiás","latitude":-17.299527,"longitude":-48.279984},"id":"Q987688","coordinates":[570174,421506]},{"type":"Point","properties":{"name":"Anápolis","scalerank":7,"subregion":"Goiás","latitude":-16.319587,"longitude":-48.959968},"id":"Q223422","coordinates":[555111,446626]},{"type":"Point","properties":{"name":"Goianésia","scalerank":7,"subregion":"Goiás","latitude":-15.309622,"longitude":-49.130009},"id":"Q988771","coordinates":[551344,472517]},{"type":"Point","properties":{"name":"Niquelândia","scalerank":7,"subregion":"Goiás","latitude":-14.469622,"longitude":-48.470024},"id":"Q1794378","coordinates":[565964,494050]},{"type":"Point","properties":{"name":"Itumbiara","scalerank":7,"subregion":"Goiás","latitude":-18.399615,"longitude":-49.210004},"id":"Q193350","coordinates":[549572,393305]},{"type":"Point","properties":{"name":"Jataí","scalerank":7,"subregion":"Goiás","latitude":-17.879595,"longitude":-51.750004},"id":"Q963195","coordinates":[493304,406636]},{"type":"Point","properties":{"name":"Mineiros","scalerank":7,"subregion":"Goiás","latitude":-17.569536,"longitude":-52.559981},"id":"Q1795244","coordinates":[475361,414584]},{"type":"Point","properties":{"name":"Formosa","scalerank":7,"subregion":"Goiás","latitude":-15.539479,"longitude":-47.339989},"id":"Q1003392","coordinates":[590997,466624]},{"type":"Point","properties":{"name":"São José do Rio Preto","scalerank":7,"subregion":"São Paulo","latitude":-20.799623,"longitude":-49.389968},"id":"Q192181","coordinates":[545585,331782]},{"type":"Point","properties":{"name":"Limeira","scalerank":7,"subregion":"São Paulo","latitude":-22.549542,"longitude":-47.400011},"id":"Q841241","coordinates":[589631,286517]},{"type":"Point","properties":{"name":"Taubaté","scalerank":7,"subregion":"São Paulo","latitude":-23.019539,"longitude":-45.559995},"id":"Q170540","coordinates":[630429,274875]},{"type":"Point","properties":{"name":"Jaú","scalerank":7,"subregion":"São Paulo","latitude":-22.28961,"longitude":-48.570018},"id":"Q1759235","coordinates":[563749,293586]},{"type":"Point","properties":{"name":"Assis","scalerank":7,"subregion":"São Paulo","latitude":-22.659613,"longitude":-50.419982},"id":"Q742227","coordinates":[522768,284101]},{"type":"Point","properties":{"name":"Itapeva","scalerank":7,"subregion":"São Paulo","latitude":-23.979584,"longitude":-48.880025},"id":"Q1808590","coordinates":[556882,250264]},{"type":"Point","properties":{"name":"Botucatu","scalerank":7,"subregion":"São Paulo","latitude":-22.8796,"longitude":-48.449999},"id":"Q1625598","coordinates":[566408,278462]},{"type":"Point","properties":{"name":"Novo Horizonte","scalerank":7,"subregion":"São Paulo","latitude":-21.459583,"longitude":-49.220004},"id":"Q1815907","coordinates":[549350,314864]},{"type":"Point","properties":{"name":"Andradina","scalerank":7,"subregion":"São Paulo","latitude":-20.909591,"longitude":-51.379949},"id":"Q1646937","coordinates":[501502,328963]},{"type":"Point","properties":{"name":"Fernandópolis","scalerank":7,"subregion":"São Paulo","latitude":-20.26963,"longitude":-50.260044},"id":"Q1648179","coordinates":[526311,345368]},{"type":"Point","properties":{"name":"Barreiros","scalerank":7,"subregion":"Pernambuco","latitude":-8.829605,"longitude":-35.200007},"id":"Q2102404","coordinates":[859929,638630]},{"type":"Point","properties":{"name":"Salgueiro","scalerank":7,"subregion":"Pernambuco","latitude":-8.059626,"longitude":-39.130025},"id":"Q2102772","coordinates":[772869,658368]},{"type":"Point","properties":{"name":"Goiana","scalerank":7,"subregion":"Pernambuco","latitude":-7.559605,"longitude":-34.999993},"id":"Q1767210","coordinates":[864360,671186]},{"type":"Point","properties":{"name":"Timbaúba","scalerank":7,"subregion":"Pernambuco","latitude":-7.499608,"longitude":-35.320025},"id":"Q929867","coordinates":[857271,672724]},{"type":"Point","properties":{"name":"Bacabal","scalerank":6,"subregion":"Maranhão","latitude":-4.229989,"longitude":-44.799989},"id":"Q1807313","coordinates":[647265,756540]},{"type":"Point","properties":{"name":"Bragança","scalerank":6,"subregion":"Pará","latitude":-1.050028,"longitude":-46.769998},"id":"Q320487","coordinates":[603624,838058]},{"type":"Point","properties":{"name":"Óbidos","scalerank":6,"subregion":"Pará","latitude":-1.910027,"longitude":-55.520007},"id":"Q577167","coordinates":[409789,816012]},{"type":"Point","properties":{"name":"Guajara-Miram","scalerank":6,"subregion":"Rondônia","latitude":-10.800027,"longitude":-65.349949},"id":"Q983810","coordinates":[192030,588119]},{"type":"Point","properties":{"name":"Porto Nacional","scalerank":6,"subregion":"Tocantins","latitude":-10.700033,"longitude":-48.419949},"id":"Q1784315","coordinates":[567074,590682]},{"type":"Point","properties":{"name":"Dourados","scalerank":6,"subregion":"Mato Grosso do Sul","latitude":-22.230027,"longitude":-54.809998},"id":"Q651874","coordinates":[425517,295114]},{"type":"Point","properties":{"name":"Governador Valadares","scalerank":6,"subregion":"Minas Gerais","latitude":-18.870025,"longitude":-41.970007},"id":"Q462218","coordinates":[709956,381247]},{"type":"Point","properties":{"name":"Pirapora","scalerank":6,"subregion":"Minas Gerais","latitude":-17.330016,"longitude":-44.929981},"id":"Q1756358","coordinates":[644385,420724]},{"type":"Point","properties":{"name":"Juiz de Fora","scalerank":6,"subregion":"Minas Gerais","latitude":-21.770003,"longitude":-43.374986},"id":"Q193019","coordinates":[678833,306906]},{"type":"Point","properties":{"name":"Santa Maria","scalerank":6,"subregion":"Rio Grande do Sul","latitude":-29.683319,"longitude":-53.800008},"id":"Q740833","coordinates":[447891,104050]},{"type":"Point","properties":{"name":"Passo Fundo","scalerank":6,"subregion":"Rio Grande do Sul","latitude":-28.250021,"longitude":-52.419989},"id":"Q525647","coordinates":[478462,140793]},{"type":"Point","properties":{"name":"Xapeco","scalerank":6,"subregion":"Santa Catarina","latitude":-27.100014,"longitude":-52.640028},"id":"Q817387","coordinates":[473588,170273]},{"type":"Point","properties":{"name":"Joinville","scalerank":6,"subregion":"Santa Catarina","latitude":-26.318012,"longitude":-48.841895},"id":"Q156819","coordinates":[557726,190319]},{"type":"Point","properties":{"name":"Juazeiro do Norte","scalerank":6,"subregion":"Ceará","latitude":-7.210013,"longitude":-39.320014},"id":"Q817227","coordinates":[768661,680148]},{"type":"Point","properties":{"name":"Nova Viçosa","scalerank":6,"subregion":"Bahia","latitude":-17.880008,"longitude":-39.370011},"id":"Q1794050","coordinates":[767553,406625]},{"type":"Point","properties":{"name":"Alagoinhas","scalerank":6,"subregion":"Bahia","latitude":-12.139997,"longitude":-38.429991},"id":"Q818261","coordinates":[788377,553769]},{"type":"Point","properties":{"name":"Juazeiro","scalerank":6,"subregion":"Bahia","latitude":-9.420008,"longitude":-40.499968},"id":"Q753044","coordinates":[742522,623495]},{"type":"Point","properties":{"name":"Vitória","scalerank":6,"subregion":"Espírito Santo","latitude":-20.322047,"longitude":-40.367942},"id":"Q168376","coordinates":[745756,343768]},{"type":"Point","properties":{"name":"João Pessoa","scalerank":6,"subregion":"Paraíba","latitude":-7.099189,"longitude":-34.878017},"id":"Q167436","coordinates":[867062,682989]},{"type":"Point","properties":{"name":"Campina Grande","scalerank":6,"subregion":"Paraíba","latitude":-7.230012,"longitude":-35.880017},"id":"Q193016","coordinates":[844865,679635]},{"type":"Point","properties":{"name":"Nova Friburgo","scalerank":6,"subregion":"Rio de Janeiro","latitude":-22.259999,"longitude":-42.54005},"id":"Q468563","coordinates":[697329,294345]},{"type":"Point","properties":{"name":"Araçatuba","scalerank":6,"subregion":"São Paulo","latitude":-21.209986,"longitude":-50.450006},"id":"Q626835","coordinates":[522103,321262]},{"type":"Point","properties":{"name":"Sena Madureira","scalerank":6,"subregion":"Acre","latitude":-9.070003,"longitude":-68.669979},"id":"Q1754389","coordinates":[118483,632468]},{"type":"Point","properties":{"name":"Fonte Boa","scalerank":6,"subregion":"Amazonas","latitude":-2.513814,"longitude":-66.09161},"id":"Q1793768","coordinates":[175601,800534]},{"type":"Point","properties":{"name":"Eirunepé","scalerank":6,"subregion":"Amazonas","latitude":-6.660021,"longitude":-69.873808},"id":"Q1646910","coordinates":[91815,694247]},{"type":"Point","properties":{"name":"Manicoré","scalerank":6,"subregion":"Amazonas","latitude":-5.812166,"longitude":-61.297484},"id":"Q43490","coordinates":[281803,715982]},{"type":"Point","properties":{"name":"Barcelos","scalerank":6,"subregion":"Amazonas","latitude":-0.974994,"longitude":-62.923896},"id":"Q807939","coordinates":[245774,839981]},{"type":"Point","properties":{"name":"Tonantins","scalerank":6,"subregion":"Amazonas","latitude":-2.872707,"longitude":-67.801893},"id":"Q1793355","coordinates":[137713,791334]},{"type":"Point","properties":{"name":"Tefé","scalerank":6,"subregion":"Amazonas","latitude":-3.360016,"longitude":-64.699989},"id":"Q975545","coordinates":[206429,778842]},{"type":"Point","properties":{"name":"Coari","scalerank":6,"subregion":"Amazonas","latitude":-4.079972,"longitude":-63.129982},"id":"Q645204","coordinates":[241208,760386]},{"type":"Point","properties":{"name":"São Gabriel da Cachoeira","scalerank":6,"subregion":"Amazonas","latitude":-0.133236,"longitude":-67.083306},"id":"Q694840","coordinates":[153632,861560]},{"type":"Point","properties":{"name":"Novo Airão","scalerank":6,"subregion":"Amazonas","latitude":-2.620785,"longitude":-60.943784},"id":"Q1750332","coordinates":[289638,797792]},{"type":"Point","properties":{"name":"Itacoatiara","scalerank":6,"subregion":"Amazonas","latitude":-3.140029,"longitude":-58.439984},"id":"Q1750426","coordinates":[345104,784481]},{"type":"Point","properties":{"name":"Parintins","scalerank":6,"subregion":"Amazonas","latitude":-2.610036,"longitude":-56.74001},"id":"Q926713","coordinates":[382763,798067]},{"type":"Point","properties":{"name":"Natal","scalerank":6,"subregion":"Amazonas","latitude":-6.983826,"longitude":-60.269949},"coordinates":[304565,685946]},{"type":"Point","properties":{"name":"Crato","scalerank":6,"subregion":"Amazonas","latitude":-7.4639,"longitude":-63.039961},"coordinates":[243202,673640]},{"type":"Point","properties":{"name":"Imperatriz","scalerank":6,"subregion":"Maranhão","latitude":-5.520039,"longitude":-47.490006},"id":"Q504755","coordinates":[587674,723470]},{"type":"Point","properties":{"name":"Balsas","scalerank":6,"subregion":"Maranhão","latitude":-7.52002,"longitude":-46.049991},"id":"Q1813001","coordinates":[619574,672201]},{"type":"Point","properties":{"name":"Breves","scalerank":6,"subregion":"Pará","latitude":-1.680015,"longitude":-50.490004},"id":"Q1804770","coordinates":[521216,821908]},{"type":"Point","properties":{"name":"Jacareacanga","scalerank":6,"subregion":"Par","latitude":-6.266609,"longitude":-57.650006},"id":"Q1805252","coordinates":[360164,705321]},{"type":"Point","properties":{"name":"Tucuruí","scalerank":6,"subregion":"Pará","latitude":-3.679996,"longitude":-49.719999},"id":"Q374432","coordinates":[539301,768400]},{"type":"Point","properties":{"name":"Itaituba","scalerank":6,"subregion":"Pará","latitude":-4.258617,"longitude":-55.925021},"id":"Q655734","coordinates":[400817,755806]},{"type":"Point","properties":{"name":"Conceição do Araguaia","scalerank":6,"subregion":"Pará","latitude":-8.250002,"longitude":-49.290025},"id":"Q1788037","coordinates":[547799,653488]},{"type":"Point","properties":{"name":"Abaetetuba","scalerank":6,"subregion":"Pará","latitude":-1.724531,"longitude":-48.88488},"id":"Q1615298","coordinates":[556774,820767]},{"type":"Point","properties":{"name":"Principe da Beira","scalerank":6,"subregion":"Rondinia","latitude":-12.416672,"longitude":-64.416647},"coordinates":[212705,546677]},{"type":"Point","properties":{"name":"Araguaína","scalerank":6,"subregion":"Tocantins","latitude":-7.190015,"longitude":-48.210014},"id":"Q625279","coordinates":[571724,680661]},{"type":"Point","properties":{"name":"Palmas","scalerank":6,"subregion":"Tocantins","latitude":-10.237736,"longitude":-48.287787},"id":"Q178993","coordinates":[570001,602533]},{"type":"Point","properties":{"name":"Teófilo Otoni","scalerank":6,"subregion":"Minas Gerais","latitude":-17.870035,"longitude":-41.50001},"id":"Q1637552","coordinates":[720368,406881]},{"type":"Point","properties":{"name":"Uberaba","scalerank":6,"subregion":"Minas Gerais","latitude":-19.779996,"longitude":-47.950004},"id":"Q381733","coordinates":[577484,357920]},{"type":"Point","properties":{"name":"Januária","scalerank":6,"subregion":"Minas Gerais","latitude":-15.48,"longitude":-44.36999},"id":"Q22062457","coordinates":[656791,468149]},{"type":"Point","properties":{"name":"Santissima Trindade","scalerank":6,"subregion":"Mato Grosso","latitude":-15.000029,"longitude":-59.950021},"id":"Q732088","coordinates":[311653,480453]},{"type":"Point","properties":{"name":"Aripuanã","scalerank":6,"subregion":"Mato Grosso","latitude":-10.17666,"longitude":-59.44387},"id":"Q1805412","coordinates":[322865,604099]},{"type":"Point","properties":{"name":"Sinop","scalerank":6,"subregion":"Mato Grosso","latitude":-11.849989,"longitude":-55.459985},"id":"Q180192","coordinates":[411119,561203]},{"type":"Point","properties":{"name":"Jaguarão","scalerank":6,"subregion":"Rio Grande do Sul","latitude":-32.560042,"longitude":-53.369983},"id":"Q942201","coordinates":[457418,30306]},{"type":"Point","properties":{"name":"Bagé","scalerank":6,"subregion":"Rio Grande do Sul","latitude":-31.320015,"longitude":-54.100016},"id":"Q119140","coordinates":[441245,62094]},{"type":"Point","properties":{"name":"Londrina","scalerank":6,"subregion":"Paraná","latitude":-23.300039,"longitude":-51.179987},"id":"Q192387","coordinates":[505932,267684]},{"type":"Point","properties":{"name":"Criciúma","scalerank":6,"subregion":"Santa Catarina","latitude":-28.680021,"longitude":-49.389968},"id":"Q1439157","coordinates":[545585,129770]},{"type":"Point","properties":{"name":"Aracati","scalerank":6,"subregion":"Ceará","latitude":-4.559994,"longitude":-37.770031},"id":"Q1754397","coordinates":[802997,748081]},{"type":"Point","properties":{"name":"Icó","scalerank":6,"subregion":"Ceará","latitude":-6.400037,"longitude":-38.849991},"id":"Q1807902","coordinates":[779073,700912]},{"type":"Point","properties":{"name":"Parnaíba","scalerank":6,"subregion":"Piauí","latitude":-2.910018,"longitude":-41.769968},"id":"Q1643864","coordinates":[714388,790377]},{"type":"Point","properties":{"name":"Picos","scalerank":6,"subregion":"Piauí","latitude":-7.079996,"longitude":-41.439988},"id":"Q1810825","coordinates":[721698,683481]},{"type":"Point","properties":{"name":"Arapiraca","scalerank":6,"subregion":"Alagoas","latitude":-9.750013,"longitude":-36.669995},"id":"Q626175","coordinates":[827365,615036]},{"type":"Point","properties":{"name":"Jequié","scalerank":6,"subregion":"Bahia","latitude":-13.850022,"longitude":-40.079993},"id":"Q630203","coordinates":[751825,509933]},{"type":"Point","properties":{"name":"Ilhéus","scalerank":6,"subregion":"Bahia","latitude":-14.780042,"longitude":-39.050004},"id":"Q373705","coordinates":[774642,486092]},{"type":"Point","properties":{"name":"Canavieiras","scalerank":6,"subregion":"Bahia","latitude":-15.640042,"longitude":-38.96001},"id":"Q1772515","coordinates":[776636,464046]},{"type":"Point","properties":{"name":"Santa Maria da Vitória","scalerank":6,"subregion":"Bahia","latitude":-13.389998,"longitude":-44.210025},"id":"Q1761852","coordinates":[660334,521726]},{"type":"Point","properties":{"name":"Irecê","scalerank":6,"subregion":"Bahia","latitude":-11.299996,"longitude":-41.870013},"id":"Q1762180","coordinates":[712172,575302]},{"type":"Point","properties":{"name":"Xique-Xique","scalerank":6,"subregion":"Bahia","latitude":-10.820026,"longitude":-42.730012},"id":"Q1762114","coordinates":[693120,587606]},{"type":"Point","properties":{"name":"Linhares","scalerank":6,"subregion":"Espírito Santo","latitude":-19.389994,"longitude":-40.050021},"id":"Q1755402","coordinates":[752489,367917]},{"type":"Point","properties":{"name":"Campos","scalerank":6,"subregion":"Rio de Janeiro","latitude":-21.749953,"longitude":-41.320021},"id":"Q689868","coordinates":[724355,307420]},{"type":"Point","properties":{"name":"Mossoró","scalerank":6,"subregion":"Rio Grande do Norte","latitude":-5.190033,"longitude":-37.340005},"id":"Q694845","coordinates":[812523,731930]},{"type":"Point","properties":{"name":"Aracaju","scalerank":6,"subregion":"Sergipe","latitude":-10.900021,"longitude":-37.119967},"id":"Q170578","coordinates":[817397,585556]},{"type":"Point","properties":{"name":"Laranjal do Jari","scalerank":6,"subregion":"Amapi","latitude":-0.85004,"longitude":-52.480011},"id":"Q1117969","coordinates":[477133,843184]},{"type":"Point","properties":{"name":"Amapá","scalerank":6,"subregion":"Amapi","latitude":2.04999,"longitude":-50.800011},"id":"Q586263","coordinates":[514349,917526]},{"type":"Point","properties":{"name":"Vila Velha","scalerank":6,"subregion":"Amapi","latitude":3.216663,"longitude":-51.216652},"coordinates":[505119,947433]},{"type":"Point","properties":{"name":"Santos","scalerank":6,"subregion":"São Paulo","latitude":-23.951778,"longitude":-46.334889},"id":"Q81882","coordinates":[613405,250719]},{"type":"Point","properties":{"name":"Bauru","scalerank":6,"subregion":"São Paulo","latitude":-22.330021,"longitude":-49.080012},"id":"Q241645","coordinates":[552451,292550]},{"type":"Point","properties":{"name":"Iguape","scalerank":6,"subregion":"São Paulo","latitude":-24.720004,"longitude":-47.569949},"id":"Q1646941","coordinates":[585903,231284]},{"type":"Point","properties":{"name":"Franca","scalerank":6,"subregion":"São Paulo","latitude":-20.530027,"longitude":-47.390012},"id":"Q504587","coordinates":[589889,338693]},{"type":"Point","properties":{"name":"Garanhuns","scalerank":6,"subregion":"Pernambuco","latitude":-8.890014,"longitude":-36.500031},"id":"Q771575","coordinates":[831131,637082]},{"type":"Point","properties":{"name":"Caruaru","scalerank":6,"subregion":"Pernambuco","latitude":-8.280026,"longitude":-35.980011},"id":"Q622830","coordinates":[842650,652719]},{"type":"Point","properties":{"name":"Rio Branco","scalerank":4,"subregion":"Acre","latitude":-9.966589,"longitude":-67.800007},"id":"Q171612","coordinates":[137755,609484]},{"type":"Point","properties":{"name":"São Luís","scalerank":4,"subregion":"Maranhão","latitude":-2.514039,"longitude":-44.267937},"id":"Q28441","coordinates":[659051,800528]},{"type":"Point","properties":{"name":"Porto Velho","scalerank":4,"subregion":"Rondônia","latitude":-8.750023,"longitude":-63.900012},"id":"Q172512","coordinates":[224150,640670]},{"type":"Point","properties":{"name":"Alvorada","scalerank":4,"subregion":"Tocantins","latitude":-12.470002,"longitude":-49.082002},"id":"Q22060164","coordinates":[552407,545310]},{"type":"Point","properties":{"name":"Corumbá","scalerank":4,"subregion":"Mato Grosso do Sul","latitude":-19.016011,"longitude":-57.650006},"id":"Q271215","coordinates":[362604,377504]},{"type":"Point","properties":{"name":"Belo Horizonte","scalerank":4,"subregion":"Minas Gerais","latitude":-19.91308,"longitude":-43.91695},"id":"Q42800","coordinates":[666827,354508]},{"type":"Point","properties":{"name":"Montes Claros","scalerank":4,"subregion":"Minas Gerais","latitude":-16.720027,"longitude":-43.860021},"id":"Q651906","coordinates":[668088,436361]},{"type":"Point","properties":{"name":"Uberlândia","scalerank":4,"subregion":"Minas Gerais","latitude":-18.899998,"longitude":-48.279984},"id":"Q194328","coordinates":[570174,380478]},{"type":"Point","properties":{"name":"Colíder","scalerank":4,"subregion":"Mato Grosso","latitude":-10.817287,"longitude":-55.45058},"id":"Q1805608","coordinates":[411327,587677]},{"type":"Point","properties":{"name":"Alta Floresta","scalerank":4,"subregion":"Mato Grosso","latitude":-9.90003,"longitude":-55.909983},"id":"Q433574","coordinates":[401150,611190]},{"type":"Point","properties":{"name":"Cuiabá","scalerank":4,"subregion":"Mato Grosso","latitude":-15.567661,"longitude":-56.086931},"id":"Q170762","coordinates":[397230,465902]},{"type":"Point","properties":{"name":"Pelotas","scalerank":4,"subregion":"Rio Grande do Sul","latitude":-31.750014,"longitude":-52.330021},"id":"Q109188","coordinates":[480455,51071]},{"type":"Point","properties":{"name":"Caxias do Sul","scalerank":4,"subregion":"Rio Grande do Sul","latitude":-29.17999,"longitude":-51.17004},"id":"Q110017","coordinates":[506152,116953]},{"type":"Point","properties":{"name":"Ponta Grossa","scalerank":4,"subregion":"Paraná","latitude":-25.090007,"longitude":-50.16005},"id":"Q242906","coordinates":[528526,221799]},{"type":"Point","properties":{"name":"Teresina","scalerank":4,"subregion":"Piauí","latitude":-5.093055,"longitude":-42.781955},"id":"Q165341","coordinates":[691970,734416]},{"type":"Point","properties":{"name":"Maceió","scalerank":4,"subregion":"Alagoas","latitude":-9.61805,"longitude":-35.73192},"id":"Q168888","coordinates":[848146,618419]},{"type":"Point","properties":{"name":"Vitória da Conquista","scalerank":4,"subregion":"Bahia","latitude":-14.850012,"longitude":-40.839998},"id":"Q22062839","coordinates":[734989,484299]},{"type":"Point","properties":{"name":"Barreiras","scalerank":4,"subregion":"Bahia","latitude":-12.139997,"longitude":-45.000003},"id":"Q1384520","coordinates":[642834,553769]},{"type":"Point","properties":{"name":"Vila Velha","scalerank":4,"subregion":"Espírito Santo","latitude":-20.367608,"longitude":-40.317989},"id":"Q334197","coordinates":[747168,343614]},{"type":"Point","properties":{"name":"Natal","scalerank":4,"subregion":"Rio Grande do Norte","latitude":-5.778077,"longitude":-35.24195},"id":"Q131620","coordinates":[859000,716855]},{"type":"Point","properties":{"name":"Campinas","scalerank":4,"subregion":"São Paulo","latitude":-22.898066,"longitude":-47.101976},"id":"Q171617","coordinates":[597291,277737]},{"type":"Point","properties":{"name":"Sorocaba","scalerank":4,"subregion":"São Paulo","latitude":-23.490002,"longitude":-47.469981},"id":"Q188901","coordinates":[588118,262815]},{"type":"Point","properties":{"name":"Ribeirão Preto","scalerank":4,"subregion":"São Paulo","latitude":-21.17004,"longitude":-47.829985},"id":"Q188892","coordinates":[580143,322286]},{"type":"Point","properties":{"name":"Petrolina","scalerank":4,"subregion":"Pernambuco","latitude":-9.38001,"longitude":-40.509967},"id":"Q842143","coordinates":[742300,624521]},{"type":"Point","properties":{"name":"Cruzeiro do Sul","scalerank":3,"subregion":"Acre","latitude":-7.629988,"longitude":-72.669968},"id":"Q941136","coordinates":[29873,669382]},{"type":"Point","properties":{"name":"Manaus","scalerank":3,"subregion":"Amazonas","latitude":-3.098086,"longitude":-60.001963},"id":"Q40236","coordinates":[310502,785556]},{"type":"Point","properties":{"name":"Caxias","scalerank":3,"subregion":"Maranh","latitude":-4.833001,"longitude":-43.350026},"id":"Q997107","coordinates":[679385,741082]},{"type":"Point","properties":{"name":"Santarém","scalerank":3,"subregion":"Pará","latitude":-2.433251,"longitude":-54.699979},"id":"Q659450","coordinates":[427955,802599]},{"type":"Point","properties":{"name":"Marabá","scalerank":3,"subregion":"Pará","latitude":-5.349972,"longitude":-49.115979},"id":"Q509818","coordinates":[551655,727830]},{"type":"Point","properties":{"name":"Vilhena","scalerank":3,"subregion":"Rondônia","latitude":-12.716602,"longitude":-60.1166},"id":"Q1749958","coordinates":[307962,538988]},{"type":"Point","properties":{"name":"Ji-Paraná","scalerank":3,"subregion":"Rondinia","latitude":-10.833307,"longitude":-61.967003},"id":"Q983815","coordinates":[266971,587266]},{"type":"Point","properties":{"name":"Campo Grande","scalerank":3,"subregion":"Mato Grosso do Sul","latitude":-20.448086,"longitude":-54.618571},"id":"Q168929","coordinates":[429758,340793]},{"type":"Point","properties":{"name":"Florianópolis","scalerank":3,"subregion":"Santa Catarina","latitude":-27.578039,"longitude":-48.521966},"id":"Q132997","coordinates":[564814,158019]},{"type":"Point","properties":{"name":"Feira de Santana","scalerank":3,"subregion":"Bahia","latitude":-12.250016,"longitude":-38.970009},"id":"Q194343","coordinates":[776414,550949]},{"type":"Point","properties":{"name":"Boa Vista","scalerank":3,"subregion":"Roraima","latitude":2.816093,"longitude":-60.665998},"id":"Q181056","coordinates":[295792,937165]},{"type":"Point","properties":{"name":"Macapá","scalerank":3,"subregion":"Amapá","latitude":0.033007,"longitude":-51.050021},"id":"Q180215","coordinates":[508811,865821]},{"type":"Point","properties":{"name":"Belém","scalerank":2,"subregion":"Pará","latitude":-1.448057,"longitude":-48.481969},"id":"Q12829733","coordinates":[565700,827854]},{"type":"Point","properties":{"name":"Brasília","scalerank":2,"subregion":"Distrito Federal","latitude":-15.781394,"longitude":-47.917998},"id":"Q2844","coordinates":[578193,460423]},{"type":"Point","properties":{"name":"Porto Alegre","scalerank":2,"subregion":"Rio Grande do Sul","latitude":-30.048069,"longitude":-51.201958},"id":"Q40269","coordinates":[505445,94700]},{"type":"Point","properties":{"name":"Curitiba","scalerank":2,"subregion":"Paraná","latitude":-25.418067,"longitude":-49.321944},"id":"Q4361","coordinates":[547092,213389]},{"type":"Point","properties":{"name":"Fortaleza","scalerank":2,"subregion":"Ceará","latitude":-3.748072,"longitude":-38.581927},"id":"Q43463","coordinates":[785011,768894]},{"type":"Point","properties":{"name":"Salvador","scalerank":2,"subregion":"Bahia","latitude":-12.968026,"longitude":-38.481933},"id":"Q36947","coordinates":[787226,532543]},{"type":"Point","properties":{"name":"Goiânia","scalerank":2,"subregion":"Goiás","latitude":-16.718081,"longitude":-49.301971},"id":"Q83189","coordinates":[547535,436411]},{"type":"Point","properties":{"name":"Recife","scalerank":2,"subregion":"Pernambuco","latitude":-8.0737,"longitude":-34.917551},"id":"Q48344","coordinates":[866381,658345]},{"type":"Point","properties":{"name":"Rio de Janeiro","scalerank":0,"subregion":"Rio de Janeiro","latitude":-22.923077,"longitude":-43.226967},"id":"Q8678","coordinates":[682440,277752]},{"type":"Point","properties":{"name":"São Paulo","scalerank":0,"subregion":"São Paulo","latitude":-23.556734,"longitude":-46.626966},"id":"Q174","coordinates":[606793,261104]}]}},"arcs":[[[446961,168645],[11691,-820],[5775,2465],[7851,-4474],[5567,1482],[9515,-2932],[2565,-4290],[5288,478],[12923,-8766],[10177,-14178],[10175,-2817],[8965,350],[1271,-3202],[-5636,-5112],[-1142,-7906],[6471,-5674]],[[538417,113249],[-7350,-12563],[-5988,-16585],[-8989,-14945],[-9535,-11202],[-15765,-11541],[15150,14682],[581,7481],[9355,7043],[912,11259],[-12088,4487],[1060,-4664],[-4332,-7658],[-1323,-10821],[-4309,-4500],[-6319,-1292],[-6224,-10777],[-1100,-14231],[-8159,-21008],[-4382,-5654],[-12396,-10719],[-3557,2343],[623,14101],[8876,9660],[-11607,9066],[-3035,8245],[-8047,3541],[-10112,11225],[-14808,6213],[-7352,9750],[-9293,-5993],[0,7278],[-18163,17847],[-6003,-490],[-2444,-4261],[-8841,2676],[6347,5177],[20146,23832],[14249,21004],[10155,8126],[6387,1918],[2825,5551],[12196,5879],[3781,3868],[7422,2048]],[[333318,898616],[2249,-27864]],[[335567,870752],[-25565,-44],[-6338,-11764],[-1817,-7277],[1743,-4336],[-9365,-4133],[-4309,7552],[-3899,1593],[-9414,-6044],[-1537,-17682],[-6154,1256],[-3283,5769],[-10592,9519],[4300,3385],[-1340,7671],[-4563,9190],[2919,20194],[-3912,15671],[-3631,4804],[1953,8537],[-6762,2164],[-8476,5514]],[[235525,922291],[38,4735],[-14691,1301],[1110,6015],[-4985,10716],[442,12067],[-7276,6634],[-6236,10235],[4945,-3433],[10292,-779],[1358,-4534],[14142,1455],[9489,-9465],[5482,1570],[-368,9237],[8463,3916],[4242,-2018],[13854,3942],[5982,7055],[6320,-139],[8846,9799],[-1336,8009],[10180,1390],[5102,-4647],[-3670,-14687],[10235,-3380],[-886,-5247],[4375,-6270],[-6832,-8270],[369,-6301],[-3066,-7614],[-901,-9547],[2147,-8573],[3577,-2456],[-177,-10574],[11243,-12138],[5984,-1679]],[[426282,927968],[887,-17567],[8174,-253],[10561,-9133],[7405,-1028],[3084,-10869],[6736,-5684],[-361,-8540],[4720,-14842],[6390,-5259],[2426,-12268],[3528,-4974],[6691,-3666],[3274,1406]],[[489797,835291],[-291,-4302],[-6068,-492],[-11359,-6538],[9504,2096],[672,-4737],[7403,3385],[24211,16295],[-2985,-4952],[6566,-17291],[4807,-3408],[10326,2816],[7149,-2411],[3743,4005],[2348,-3396],[-3283,-18763],[6544,17436],[5902,8933],[-69,-4774],[7235,10261],[4888,-6651],[-1358,9326],[3169,-890],[6686,16773],[1678,-3079],[5250,3530],[7660,-3251],[-1828,4565],[8613,-2111],[-77,-4137],[5701,3202],[7512,-7961],[6830,2596],[-1094,-5654],[3026,-1765]],[[618808,833947],[-2582,-7016],[-2189,-17767],[-2811,-8545],[-5313,-5844],[0,-9118],[-6157,-7795],[-2685,-11369],[-13039,-19580],[-3240,249],[-20432,-19470]],[[560360,727692],[7894,-1213],[4968,-6241],[-1780,-6874],[-4564,-6587],[862,-4901],[-4795,-1861],[-1708,-5838],[-11411,-6149],[300,-8272],[-4556,-9543],[5035,-5280],[-3260,-14833],[-5648,-10998],[-4201,-2865],[-6613,-10155],[-4033,-13455]],[[526850,612627],[-107596,7149],[-30324,2518],[-12934,6062],[-1277,4592],[-10554,7561],[-2239,8216],[892,5291],[-5612,13762],[-5357,9060]],[[351849,676838],[-5678,9825],[-1652,6518],[3809,5248],[42196,105265],[-2413,5866],[-13054,8969],[-12583,5687],[-16252,13869],[-1140,4796],[-6841,6154],[-2303,6916],[-371,14801]],[[333318,898616],[4432,-2847],[5605,1692],[4143,8360],[6749,-1962],[936,3611],[9389,1314],[4867,6662],[5249,1348],[6602,-3790],[9732,1417],[7699,-2445],[2315,5234],[-4468,7573],[2826,4813],[5869,-3177],[16520,3746],[4499,-2197]],[[513924,849076],[-6091,-5282],[618,3851],[5473,1431]],[[505798,849237],[-2214,-10709],[-11069,-10722],[-3732,705],[6330,9354],[-164,5403],[3780,6144],[7069,-175]],[[566131,850207],[-3994,-13010],[-4414,-3325],[63,-5877],[-7721,-4230],[-7005,538],[-7080,-5896],[-4484,3995],[-8400,-4364],[-8840,10408],[539,19595],[2773,10170],[6348,4056],[15832,-3474],[9704,2562],[17460,-3044],[-781,-8104]],[[510500,857510],[587,7158],[7085,-1890],[-7672,-5268]],[[535785,862331],[7439,4838],[1281,-5284],[-8720,446]],[[531254,872659],[8566,2221],[2686,-2194],[-6662,-7421],[-11418,926],[-480,4283],[7308,2185]],[[523697,871255],[-3073,-931],[3324,10543],[-251,-9612]],[[525157,875587],[1551,4588],[4417,-2118],[-5968,-2470]],[[4690,682510],[25322,-12143],[50778,-14502],[12510,-7620],[65932,-35463]],[[159232,612782],[4023,-1998]],[[163255,610784],[-9202,-8743],[-6059,-1773],[-8505,-9726],[-8333,199],[-4329,-7209],[-10937,-3770],[651,2925],[-14140,1971],[-12409,403],[-7383,-3728],[-7797,1383],[375,37041],[-5562,-2426],[-11429,-8879],[-17816,32],[-2461,11912],[-11221,3333],[-8899,48],[5662,8290],[-4766,9355],[-7797,8928],[-4112,14978],[-6786,6271],[6765,6123],[-2075,4788]],[[426282,927968],[1581,-3397],[12609,-5489],[6735,5113],[6626,-1617],[4158,2629],[8516,-4471],[5582,4710],[15934,34494],[4546,7086],[6314,3190],[-406,8606],[6470,-7077],[1070,-13246],[2132,5997],[-285,-12970],[9160,-30880],[4712,-9133],[6278,88],[6048,-3963],[445,-12793],[-9358,-8921],[-10592,-16604],[-3064,-361],[-7139,-7249],[-4297,-8820],[-5590,-7068],[-591,-7486],[-4079,-3045]],[[522006,919088],[3143,-4200],[-3237,-1694],[94,5894]],[[360955,410301],[5643,-4220],[7497,2940],[8306,12007],[9469,815],[5012,2538],[10945,-5279],[9483,-7498],[14497,4414],[2945,-4066],[5529,1150],[10234,9505],[-1530,-9901],[-5276,-6649],[5774,-2713],[14938,-221]],[[464421,403123],[-64,-7088],[6054,-2524],[-1908,-7406],[8267,-630],[18902,-10862],[11185,-3988],[3922,-4849]],[[510779,365776],[-726,-16102]],[[510053,349674],[-7365,-6685],[-6509,-8647],[-260,-4543],[-5381,-7556],[165,-4391],[-5293,-5313],[1390,-2970],[-7215,-11094],[-13241,-9228],[-4451,-6225]],[[461893,283022],[-9500,-5599],[-2843,-9644],[-4929,-3284],[-2870,-13453],[-3734,-2593]],[[438017,248449],[-8716,6305],[-6744,-4223],[-10066,-196],[-2935,9571],[-104,9596],[-2273,5855],[147,9586],[-5388,7932],[-7142,975],[-4984,5252],[-9328,-5501],[-8217,2586],[-13958,1139],[-3166,2780],[2020,8891],[1729,18838],[-3612,6687],[-195,6655],[-3752,6870],[6625,4742],[-5868,6415],[7435,17192],[5270,22446],[-3840,11459]],[[461893,283022],[4890,3357],[16173,-1873],[3333,3130],[11512,-4194],[4252,902],[10521,-4407],[2096,-3114],[18067,805],[7351,-8898],[804,-15514],[8286,-12151],[-1500,-8398],[15116,-367],[1040,-9673],[7442,1131],[3282,-7530]],[[574558,216228],[-2813,-3853],[-5463,5362],[508,-9588],[-3323,-9188]],[[563467,198961],[-13994,-1220],[-8414,-5003],[-7902,5382],[-8279,-2169],[-7129,721],[-1917,-4156],[-7514,-72],[-4791,-4855],[1106,-4686],[-17011,660],[-4279,3331],[-13650,2949],[-6774,-789],[-5174,3224],[-6787,-466]],[[450958,191812],[-5502,16164],[-4369,3298],[-7829,-3627],[-3306,5365],[7726,28283],[339,7154]],[[446961,168645],[2909,7427],[1088,15740]],[[563467,198961],[-3867,-7954],[3310,-3730],[-876,-26734],[1814,-9759],[-5533,-19231],[-11684,-8025],[-8214,-10279]],[[351849,676838],[-5385,-12277],[1565,-7640],[-5257,-16205],[-67921,-521]],[[274851,640195],[-5853,-2265],[-5716,2266],[-5314,9870],[-3694,532],[-4066,7682],[-3999,1404],[-14045,200],[-1211,-4229],[-7199,-4327],[-1791,-8856],[-3004,-368],[383,-6253],[-14653,-1247],[-6389,-11259],[-3466,4341],[-12062,-7943],[-3605,3902],[-10325,227],[-2381,-5886],[-7229,-5204]],[[4690,682510],[914,5478],[14038,12021],[-2281,9169],[5171,9453],[1848,14784],[6439,2811],[12320,10697],[6574,3169],[17848,2467],[3022,5277],[11545,220],[2336,-4411],[5725,3635],[12134,77376],[-5071,11517],[-82,5808],[-9785,9792],[433,18279],[12196,3627],[8113,-2038],[-331,5580],[-4839,5003],[-10663,-91],[-88,16618],[37501,349],[-831,7345],[4488,-6610],[4603,1605],[4375,6210],[5590,904],[4950,-9749],[1150,-13768],[4213,1277],[10367,-10778],[5555,-1770],[9102,6181],[3600,90],[497,-8245],[9387,12071],[8991,3093],[7131,6664],[315,-2957],[6954,6543],[1901,7962],[5148,709],[8332,6414]],[[274851,640195],[2776,-3737],[-2776,-10400],[2879,-8152],[-1814,-15986],[2042,-4438],[17,-14408],[22796,-170],[9738,-3611],[2004,-6146],[-4214,-5529],[6144,-20171],[-5745,-13891],[-4147,-3597],[-2507,-9009],[-7572,-6219]],[[294472,514731],[-7125,5084],[-17739,-1699],[-7188,10586],[-5649,-172],[-8417,3479],[-5928,8618],[-7051,-305],[-9040,5373],[-2655,-2291],[-10511,2231],[-1625,5031],[-7165,5858],[-4540,930],[-4403,6522],[-4398,15084],[-359,18053],[2722,5972],[-361,10012],[-3267,3698],[-26518,-6011]],[[360955,410301],[-1469,4636],[-13079,7397],[-2196,14959],[3117,10110],[-2772,-1076],[-36887,1492],[-2395,19749],[-7627,10351],[6807,96],[-371,11922],[-3824,9016],[1692,7408],[-1876,4909],[-5603,3461]],[[526850,612627],[-8044,-20830],[-313,-9604],[-2873,-12059],[2054,-2733],[-349,-26224],[4024,-5475]],[[521349,535702],[-1883,-9834],[-6519,-12395],[157,-10037],[-5406,-20108],[-12341,-8250],[-4993,-15254],[-8137,-2784],[-9292,-9689],[822,-6091],[-8574,-8688],[-4072,-10618],[-888,-7209],[4198,-11622]],[[618808,833947],[3959,970],[5102,-4967],[2918,2462],[3867,-5193],[1011,-6972],[2646,5631],[7857,1254],[-2309,-3194],[9570,-6317],[2799,-14224],[-5232,-7558],[-3323,-12817],[7722,6323],[1438,10272],[6537,3847],[523,-3932],[-6405,-5948],[6106,202],[1079,3649],[15560,7389],[13332,-5482],[10423,-7020],[8785,1765]],[[712773,794087],[3,-6889],[-8281,-10249],[-6293,-441],[-5156,-12108],[-5699,-8119],[2828,-6629],[-1982,-7123],[2196,-4098],[465,-9667],[-5971,-7942],[574,-11061],[5004,-5108],[-151,-5871],[-3568,-7287],[-9822,-1904],[-4729,3605],[-8047,-1705],[-5940,-8779],[-9034,-7383],[-12946,-4096],[-3855,-2983],[-2325,-12238],[-8951,-19945],[3198,-15479],[-2414,-20105]],[[621877,600483],[-8895,3798],[-7130,10845],[2953,4903],[-4799,3701],[-2058,6232],[-5211,3408],[3896,5224],[2523,10119],[6424,1000],[773,8420],[-2384,4150],[-9769,-3484],[-10720,15187],[-308,4354],[-5060,2235],[5035,4731],[3119,19872],[-3630,19348],[-7266,5075],[-14028,2419],[-4982,-4328]],[[712773,794087],[13175,-6325]],[[725948,787762],[-4458,-10888],[8325,-22803],[-3593,-5438],[1114,-9663],[5249,-12849],[1273,-15241],[4010,-16664],[6506,-3833],[-3650,-9857],[962,-4997]],[[741686,675529],[-3372,-1009],[3060,-10133],[-858,-7673],[-7370,-7947],[-9916,-7119]],[[723230,641648],[-2861,-5732],[-5373,-1361],[-2382,-6768],[-10185,-1431],[-6728,-6463],[-5249,299],[-6160,4501],[-7122,1777],[-8040,-3207],[2884,-9562],[-421,-6014],[-4714,-10096],[-6707,-5103],[-4474,1007],[-13838,-7842],[-6011,2939],[-6381,11536],[-3419,20]],[[626049,600148],[-4172,335]],[[725948,787762],[-560,3415],[17141,2372],[11385,-1592],[13899,-8591],[15476,-12636],[4038,-538],[8212,-11804],[7489,-6114],[3575,-5426],[8215,-5686]],[[814818,741162],[-10741,-5973],[-9009,-20921],[-10018,-9810],[1206,-3074]],[[786256,701384],[-4470,-13040],[4335,-10359],[-3662,-8352]],[[782459,669633],[-6001,-5838],[-15201,12166],[-19571,-432]],[[814818,741162],[14959,-7520],[12493,1941],[10780,-2466],[5500,-8706],[3753,-18008],[2870,-8139]],[[865173,698264],[-7592,-644],[-8063,2630],[-5652,-1024],[-12564,2277],[1097,-6302],[-2934,-7790],[-9146,5591],[-5115,-2958],[-6566,3677],[185,3251],[7346,11199],[-1888,2360],[-11028,-3871],[-8236,-8817],[-8761,3541]],[[865173,698264],[3676,-16794],[-2127,-9855]],[[866722,671615],[-3781,3447],[-9622,-1224],[-1276,-5069],[-6925,-3924],[-12309,-490],[-4530,-6586],[-7398,-5140],[-4153,7833],[-4228,-562],[3868,6067],[-677,4874],[3980,4370],[-5251,3403],[-4027,-1965],[-12001,-10933],[-6145,-1965],[-9788,5882]],[[866722,671615],[1811,-9305],[-7459,-25832]],[[861074,636478],[-7180,2036],[-12001,-1547],[-7345,-7858],[-13132,-3968],[-5383,2924],[-7477,7639],[-5088,2093],[-4860,-7187],[-5916,-4817]],[[792692,625793],[-1890,8785],[-4593,4320],[-9743,763],[-9649,6546],[-10920,-7602],[0,-3691],[-8348,-3319],[-1222,-6339],[-9527,-2608],[1179,6053],[-3281,1670],[-797,7559],[-10671,3718]],[[861074,636478],[-3472,-7165],[-24434,-33557]],[[833168,595756],[-4704,6370],[-4508,1020],[-2624,5101],[-7857,5388],[-15509,7123]],[[797966,620758],[-5274,5035]],[[833168,595756],[-10966,-6941],[-9148,-16241],[-3694,-2869]],[[809360,569705],[-6936,-138],[-9685,16053],[929,4655],[4876,-957],[4180,3222],[33,14017],[-4055,5312],[-736,8889]],[[809360,569705],[1065,-1305],[-4872,-12317],[-8778,-15158],[-10163,-9751],[17,7652],[-4722,2575],[-3704,-11466],[1822,-1898],[-5157,-5712],[1594,-7880],[-2124,-6711],[3102,-1750],[-3177,-17199],[3173,-26675],[1318,-3276],[-4202,-15203],[-3423,-18605],[1583,-13264],[-8018,-8357],[-3844,-8141]],[[760850,395264],[-11835,8836]],[[749015,404100],[-4,5452],[-8917,9592],[1869,11821],[5090,1316],[544,7268],[7317,7241],[1661,5185],[-8225,7505],[-15685,3708],[-8553,-1110],[-656,5681],[-9765,9885],[-6333,-1850],[-19178,12877],[-6098,1082],[-5851,-3879],[-8287,3305],[1659,8081],[-11723,2530],[-12426,-9040],[-7271,-3452],[-11180,-10040],[-7946,-3141],[1115,9700]],[[620172,483817],[2449,4548],[-178,8732],[-4608,4276],[-3189,13511],[4194,10390],[-90,8594],[-3242,3068]],[[615508,536936],[1639,7527],[-3489,2037],[-489,7521],[5810,5181],[-3835,2162],[3651,6222],[-7582,2591],[-3174,4712],[5943,14301],[12067,10958]],[[760850,395264],[-1601,-9191],[777,-18825],[-7023,-8929],[-7131,-18859],[-8484,-8812],[-5171,-11027]],[[732217,319621],[-16532,4173],[-3389,8571]],[[712296,332365],[3289,14590],[6877,-133],[5508,14162],[4368,4850],[367,8346],[-3577,6586],[3825,2087],[-1561,9091],[-3115,3994],[8102,5213],[-2964,3122],[10719,1995],[4881,-2168]],[[732217,319621],[-2364,-6391],[2317,-10874],[-6124,-5068],[-9366,-3502],[-6641,-6501],[1676,-6331],[-3713,-4394],[-21558,-525],[-978,7910],[-4312,-2084],[1109,-6365],[-8498,-319],[-5774,2610],[-5554,-2985],[-7101,657],[-5867,-2844],[4207,-4247],[-4807,-2017]],[[648869,266351],[-2981,3764],[1481,5566],[11557,4302],[1288,5889],[-9341,-227],[-4302,4956]],[[646571,290601],[13603,4006],[8939,4759],[17196,991],[16775,7995],[-1972,2047],[6050,18232],[5134,3734]],[[648869,266351],[-3642,283],[-11996,-8298],[596,-3991],[-10141,1639],[-6240,-2255],[-18174,-11655],[-732,-2839],[-18299,-12415],[-5683,-10592]],[[510053,349674],[9668,7529],[14959,-3158],[13497,-955],[2740,-8379],[2384,3892],[1600,-6590],[2781,6062],[13823,1293],[16643,3966],[5183,-6334],[-1298,-5598],[4057,-5328],[-2223,-4501],[4650,-15197],[10920,-1496],[-3565,-9064],[1503,-8203],[-2156,-4870],[6918,-5360],[-1874,-3876],[7213,-5328],[8860,2411],[2132,5349],[5261,-1531],[12842,6193]],[[638100,252138],[-5176,751],[2717,3894],[2459,-4645]],[[620172,483817],[-6058,-1040],[-4881,5026],[-685,-8354],[-7602,-263],[-1012,-9801],[2319,-10564],[-10425,-5029]],[[591828,453792],[-101,11533],[-2568,2354],[-16756,217],[-2183,-8960],[2116,-5129],[19492,-15]],[[591828,453792],[-3336,-11600],[4133,-4339],[2554,-8092],[-7728,-9031],[-503,-3779],[5196,-1818],[233,-13120],[-13766,-9975],[-7024,2289],[-16307,857],[-9063,-7642],[-2821,3199],[-6846,-3157],[-11645,-2352],[-14126,-19456]],[[521349,535702],[2943,7752],[4449,3654],[-1976,-13671],[18962,-8073],[5444,13154],[6951,-3554],[1127,-12264],[2581,4469],[10812,-59],[10793,-4467],[13051,6633],[19022,7660]]],"transform":{"scale":[0.00004514145525045524,0.00003900954421754417],"translate":[-74.01847469099994,-33.74228037499992]}}