{"type":"Topology","objects":{"subunits":{"type":"GeometryCollection","name":"BRA_subunits","crs":{"type":"name","properties":{"name":"urn:ogc:def:crs:OGC:1.3:CRS84"}},"geometries":[{"type":"Polygon","properties":{" name":"Rio Grande do Sul","fips":"BR23","scalerank":2,"country":"BRA","latitude":-29.7277,"longitude":-53.656,"type":"Estado"},"id":"RS","arcs":[[0,1]]},{"type":"Polygon","properties":{" name":"Roraima","fips":"BR25","scalerank":2,"country":"BRA","latitude":1.93803,"longitude":-61.3325,"type":"Estado"},"id":"RR","arcs":[[2,3,4]]},{"type":"MultiPolygon","properties":{" name":"Pará","fips":"BR16","scalerank":2,"country":"BRA","latitude":-4.44313,"longitude":-52.6491,"type":"Estado"},"id":"PA","arcs":[[[5,6,7,8,9,10,-3,11]],[[12]],[[13]],[[14]],[[15]],[[16]],[[17]],[[18]],[[19]],[[20]],[[21]],[[22]],[[23]],[[24]],[[25]],[[26]],[[27]]]},{"type":"Polygon","properties":{" name":"Acre","fips":"BR01","scalerank":2,"country":"BRA","latitude":-8.9285,"longitude":-70.2976,"type":"Estado"},"id":"AC","arcs":[[28,29,30]]},{"type":"MultiPolygon","properties":{" name":"Amapá","fips":"BR03","scalerank":2,"country":"BRA","latitude":1.41157,"longitude":-51.6842,"type":"Estado"},"id":"AP","arcs":[[[31,-6]],[[32]],[[33]],[[34]],[[35]]]},{"type":"Polygon","properties":{" name":"Mato Grosso do Sul","fips":"BR11","scalerank":2,"country":"BRA","latitude":-20.6756,"longitude":-54.5502,"type":"Estado"},"id":"MS","arcs":[[36,37,38,39,40,41]]},{"type":"MultiPolygon","properties":{" name":"Paraná","fips":"BR18","scalerank":2,"country":"BRA","latitude":-24.6618,"longitude":-51.3228,"type":"Estado"},"id":"PR","arcs":[[[-41,42,43,44,45]],[[46]]]},{"type":"MultiPolygon","properties":{" name":"Santa Catarina","fips":"BR26","scalerank":2,"country":"BRA","latitude":-27.0392,"longitude":-51.1586,"type":"Estado"},"id":"SC","arcs":[[[47,-45,48,-1]],[[49]],[[50]]]},{"type":"Polygon","properties":{" name":"Amazonas","fips":"BR04","scalerank":2,"country":"BRA","latitude":-4.21774,"longitude":-63.7853,"type":"Estado"},"id":"AM","arcs":[[-4,-11,51,52,-29,53]]},{"type":"Polygon","properties":{" name":"Rondônia","fips":"BR24","scalerank":2,"country":"BRA","latitude":-10.9712,"longitude":-63.1439,"type":"Estado"},"id":"RO","arcs":[[-30,-53,54,55]]},{"type":"Polygon","properties":{" name":"Mato Grosso","fips":"BR14","scalerank":2,"country":"BRA","latitude":-13.3926,"longitude":-55.9235,"type":"Estado"},"id":"MT","arcs":[[56,-55,-52,-10,57,58,-37]]},{"type":"MultiPolygon","properties":{" name":"Maranhão","fips":"BR13","scalerank":2,"country":"BRA","latitude":-5.01897,"longitude":-45.389,"type":"Estado"},"id":"MA","arcs":[[[59,60,61,-8]],[[62]],[[63]],[[64]],[[65]],[[66]]]},{"type":"Polygon","properties":{" name":"Piauí","fips":"BR20","scalerank":2,"country":"BRA","latitude":-8.08698,"longitude":-43.1974,"type":"Estado"},"id":"PI","arcs":[[67,68,69,70,71,-61]]},{"type":"Polygon","properties":{" name":"Ceará","fips":"BR06","scalerank":2,"country":"BRA","latitude":-5.37602,"longitude":-39.3429,"type":"Estado"},"id":"CE","arcs":[[72,73,74,75,-69]]},{"type":"Polygon","properties":{" name":"Rio Grande do Norte","fips":"BR22","scalerank":2,"country":"BRA","latitude":-5.66157,"longitude":-36.5472,"type":"Estado"},"id":"RN","arcs":[[76,77,-74]]},{"type":"Polygon","properties":{" name":"Paraíba","fips":"BR17","scalerank":2,"country":"BRA","latitude":-7.34234,"longitude":-36.2726,"type":"Estado"},"id":"PB","arcs":[[78,79,-75,-78]]},{"type":"MultiPolygon","properties":{" name":"Pernambuco","fips":"BR30","scalerank":2,"country":"BRA","latitude":-8.47283,"longitude":-37.2958,"type":"Estado"},"id":"PE","arcs":[[[80,81,82,-70,-76,-80]],[[83]]]},{"type":"Polygon","properties":{" name":"Alagoas","fips":"BR02","scalerank":2,"country":"BRA","latitude":-9.77391,"longitude":-36.6917,"type":"Estado"},"id":"AL","arcs":[[84,85,86,-82]]},{"type":"Polygon","properties":{" name":"Sergipe","fips":"BR28","scalerank":2,"country":"BRA","latitude":-10.5918,"longitude":-37.3836,"type":"Estado"},"id":"SE","arcs":[[87,88,-86]]},{"type":"MultiPolygon","properties":{" name":"Bahia","fips":"BR05","scalerank":2,"country":"BRA","latitude":-12.3651,"longitude":-41.8027,"type":"Estado"},"id":"BA","arcs":[[[89,90,91,92,93,-71,-83,-87,-89]],[[94]],[[95]]]},{"type":"Polygon","properties":{" name":"Espírito Santo","fips":"BR08","scalerank":2,"country":"BRA","latitude":-19.6916,"longitude":-40.5436,"type":"Estado"},"id":"ES","arcs":[[96,97,98,-91]]},{"type":"MultiPolygon","properties":{" name":"Rio de Janeiro","fips":"BR21","scalerank":2,"country":"BRA","latitude":-22.4049,"longitude":-43.1152,"type":"Estado"},"id":"RJ","arcs":[[[99,100,101,-98]],[[102]]]},{"type":"MultiPolygon","properties":{" name":"São Paulo","fips":"BR27","scalerank":2,"country":"BRA","latitude":-22.2267,"longitude":-48.5206,"type":"Estado"},"id":"SP","arcs":[[[103,-43,-40,104,-101]],[[105]],[[106]]]},{"type":"Polygon","properties":{" name":"Goiás","fips":"BR29","scalerank":2,"country":"BRA","latitude":-15.863,"longitude":-49.5786,"type":"Estado"},"id":"GO","arcs":[[-93,107,108,109,-38,-59,110]]},{"type":"Polygon","properties":{" name":"Distrito Federal","fips":"BR07","scalerank":2,"country":"BRA","latitude":-15.7665,"longitude":-47.7902,"type":"Distrito Federal"},"id":"DF","arcs":[[-109]]},{"type":"Polygon","properties":{" name":"Minas Gerais","fips":"BR15","scalerank":2,"country":"BRA","latitude":-18.5895,"longitude":-44.4808,"type":"Estado"},"id":"MG","arcs":[[-108,-92,-99,-102,-105,-39,-110]]},{"type":"Polygon","properties":{" name":"Tocantins","fips":"BR31","scalerank":2,"country":"BRA","latitude":-10.223,"longitude":-48.2502,"type":"Estado"},"id":"TO","arcs":[[-94,-111,-58,-9,-62,-72]]}]},"places":{"type":"GeometryCollection","name":"BRA_places","crs":{"type":"name","properties":{"name":"urn:ogc:def:crs:OGC:1.3:CRS84"}},"geometries":[{"type":"Point","properties":{" name":"Grajau","scalerank":8,"subregion":"Maranhão","latitude":-5.809996,"longitude":-46.149984},"id":"Q2043418","coordinates":[3718,4848]},{"type":"Point","properties":{" name":"Presidente Dutra","scalerank":8,"subregion":"Maranhão","latitude":-5.25003,"longitude":-44.519981},"id":"Q637452","coordinates":[3763,4880]},{"type":"Point","properties":{" name":"Itapecuru Mirim","scalerank":8,"subregion":"Maranhão","latitude":-3.400013,"longitude":-44.360016},"id":"Q2012733","coordinates":[3767,4987]},{"type":"Point","properties":{" name":"São José de Ribamar","scalerank":8,"subregion":"Maranhão","latitude":-2.549988,"longitude":-44.069982},"id":"Q1006367","coordinates":[3775,5036]},{"type":"Point","properties":{" name":"Santa Inês","scalerank":8,"subregion":"Maranhão","latitude":-3.659998,"longitude":-45.390031},"id":"Q2469099","coordinates":[3739,4972]},{"type":"Point","properties":{" name":"Rosário","scalerank":8,"subregion":"Maranh","latitude":-2.940042,"longitude":-44.260022},"id":"Q2106358","coordinates":[3770,5013]},{"type":"Point","properties":{" name":"Timon","scalerank":8,"subregion":"Maranh","latitude":-5.114999,"longitude":-42.844967},"id":"Q1017101","coordinates":[3809,4888]},{"type":"Point","properties":{" name":"Capanema","scalerank":8,"subregion":"Pará","latitude":-1.190019,"longitude":-47.179999},"id":"Q1947031","coordinates":[3689,5114]},{"type":"Point","properties":{" name":"Portel","scalerank":8,"subregion":"Pará","latitude":-1.949973,"longitude":-50.819984},"id":"Q2089210","coordinates":[3588,5070]},{"type":"Point","properties":{" name":"Itupiranga","scalerank":8,"subregion":"Pará","latitude":-5.120012,"longitude":-49.300025},"id":"Q2008167","coordinates":[3630,4888]},{"type":"Point","properties":{" name":"Pimenta Bueno","scalerank":8,"subregion":"Rondônia","latitude":-11.640027,"longitude":-61.209995},"id":"Q1803175","coordinates":[3299,4512]},{"type":"Point","properties":{" name":"Ponta Porã","scalerank":8,"subregion":"Mato Grosso do Sul","latitude":-22.530009,"longitude":-55.729968},"id":"Q928094","coordinates":[3452,3885]},{"type":"Point","properties":{" name":"Maracaju","scalerank":8,"subregion":"Mato Grosso do Sul","latitude":-21.610013,"longitude":-55.180028},"id":"Q1792127","coordinates":[3467,3938]},{"type":"Point","properties":{" name":"Jardim","scalerank":8,"subregion":"Mato Grosso do Sul","latitude":-21.479943,"longitude":-56.15002},"id":"Q927504","coordinates":[3440,3946]},{"type":"Point","properties":{" name":"Três Lagoas","scalerank":8,"subregion":"Mato Grosso do Sul","latitude":-20.790011,"longitude":-51.720006},"id":"Q1637454","coordinates":[3563,3985]},{"type":"Point","properties":{" name":"Guanhães","scalerank":8,"subregion":"Minas Gerais","latitude":-18.780005,"longitude":-42.950025},"id":"Q1756864","coordinates":[3807,4101]},{"type":"Point","properties":{" name":"Leopoldina","scalerank":8,"subregion":"Minas Gerais","latitude":-21.530018,"longitude":-42.640044},"id":"Q1805359","coordinates":[3815,3943]},{"type":"Point","properties":{" name":"Nova Lima","scalerank":8,"subregion":"Minas Gerais","latitude":-19.980035,"longitude":-43.850021},"id":"Q1642662","coordinates":[3782,4032]},{"type":"Point","properties":{" name":"Pouso Alegre","scalerank":8,"subregion":"Minas Gerais","latitude":-22.220002,"longitude":-45.940023},"id":"Q949798","coordinates":[3724,3903]},{"type":"Point","properties":{" name":"Itaúna","scalerank":8,"subregion":"Minas Gerais","latitude":-20.06003,"longitude":-44.570029},"id":"Q628877","coordinates":[3762,4027]},{"type":"Point","properties":{" name":"Caratinga","scalerank":8,"subregion":"Minas Gerais","latitude":-19.790021,"longitude":-42.139997},"id":"Q905175","coordinates":[3829,4043]},{"type":"Point","properties":{" name":"Diamantina","scalerank":8,"subregion":"Minas Gerais","latitude":-18.239986,"longitude":-43.609984},"id":"Q34028","coordinates":[3788,4132]},{"type":"Point","properties":{" name":"Nanuque","scalerank":8,"subregion":"Minas Gerais","latitude":-17.839959,"longitude":-40.350028},"id":"Q83011","coordinates":[3879,4155]},{"type":"Point","properties":{" name":"Barbacena","scalerank":8,"subregion":"Minas Gerais","latitude":-21.220011,"longitude":-43.77},"id":"Q807311","coordinates":[3784,3961]},{"type":"Point","properties":{" name":"Poços de Caldas","scalerank":8,"subregion":"Minas Gerais","latitude":-21.780029,"longitude":-46.569985},"id":"Q817216","coordinates":[3706,3928]},{"type":"Point","properties":{" name":"Guaxupé","scalerank":8,"subregion":"Minas Gerais","latitude":-21.290033,"longitude":-46.70995},"id":"Q1791417","coordinates":[3702,3957]},{"type":"Point","properties":{" name":"São João del Rei","scalerank":8,"subregion":"Minas Gerais","latitude":-21.130042,"longitude":-44.249997},"id":"Q740965","coordinates":[3770,3966]},{"type":"Point","properties":{" name":"Muriaé","scalerank":8,"subregion":"Minas Gerais","latitude":-21.130042,"longitude":-42.389981},"id":"Q1637446","coordinates":[3822,3966]},{"type":"Point","properties":{" name":"Passos","scalerank":8,"subregion":"Minas Gerais","latitude":-20.710016,"longitude":-46.609982},"id":"Q985579","coordinates":[3705,3990]},{"type":"Point","properties":{" name":"Conselheiro Lafaiete","scalerank":8,"subregion":"Minas Gerais","latitude":-20.670019,"longitude":-43.789999},"id":"Q570312","coordinates":[3783,3992]},{"type":"Point","properties":{" name":"Formiga","scalerank":8,"subregion":"Minas Gerais","latitude":-20.460006,"longitude":-45.430028},"id":"Q1791720","coordinates":[3738,4004]},{"type":"Point","properties":{" name":"Frutal","scalerank":8,"subregion":"Minas Gerais","latitude":-20.030006,"longitude":-48.940021},"id":"Q1790819","coordinates":[3640,4029]},{"type":"Point","properties":{" name":"Iturama","scalerank":8,"subregion":"Minas Gerais","latitude":-19.729973,"longitude":-50.200021},"id":"Q1780277","coordinates":[3605,4046]},{"type":"Point","properties":{" name":"Ituiutaba","scalerank":8,"subregion":"Minas Gerais","latitude":-18.970019,"longitude":-49.459989},"id":"Q1756328","coordinates":[3626,4090]},{"type":"Point","properties":{" name":"Araguari","scalerank":8,"subregion":"Minas Gerais","latitude":-18.640013,"longitude":-48.199988},"id":"Q1637522","coordinates":[3661,4109]},{"type":"Point","properties":{" name":"Almenara","scalerank":8,"subregion":"Minas Gerais","latitude":-16.170035,"longitude":-40.700007},"id":"Q979377","coordinates":[3869,4251]},{"type":"Point","properties":{" name":"Várzea Grande","scalerank":8,"subregion":"Mato Grosso","latitude":-15.650015,"longitude":-56.140021},"id":"Q983884","coordinates":[3440,4281]},{"type":"Point","properties":{" name":"Cáceres","scalerank":8,"subregion":"Mato Grosso","latitude":-16.050042,"longitude":-57.510015},"id":"Q986526","coordinates":[3402,4258]},{"type":"Point","properties":{" name":"Santana do Livramento","scalerank":8,"subregion":"Rio Grande do Sul","latitude":-30.880042,"longitude":-55.530006},"id":"Q917693","coordinates":[3457,3404]},{"type":"Point","properties":{" name":"Canoas","scalerank":8,"subregion":"Rio Grande do Sul","latitude":-29.919997,"longitude":-51.179987},"id":"Q194325","coordinates":[3578,3460]},{"type":"Point","properties":{" name":"Quaraí","scalerank":8,"subregion":"Rio Grande do Sul","latitude":-30.38002,"longitude":-56.459949},"id":"Q1637478","coordinates":[3431,3433]},{"type":"Point","properties":{" name":"Santa Vitória do Palmar","scalerank":8,"subregion":"Rio Grande do Sul","latitude":-33.520035,"longitude":-53.369983},"id":"Q984562","coordinates":[3517,3252]},{"type":"Point","properties":{" name":"São Lourenço do Sul","scalerank":8,"subregion":"Rio Grande do Sul","latitude":-31.369986,"longitude":-51.980016},"id":"Q326349","coordinates":[3556,3376]},{"type":"Point","properties":{" name":"Canela","scalerank":8,"subregion":"Rio Grande do Sul","latitude":-29.360031,"longitude":-50.81001},"id":"Q995318","coordinates":[3588,3492]},{"type":"Point","properties":{" name":"São Gabriel","scalerank":8,"subregion":"Rio Grande do Sul","latitude":-30.320024,"longitude":-54.320028},"id":"Q929890","coordinates":[3491,3437]},{"type":"Point","properties":{" name":"Rosário do Sul","scalerank":8,"subregion":"Rio Grande do Sul","latitude":-30.250002,"longitude":-54.920018},"id":"Q266960","coordinates":[3474,3441]},{"type":"Point","properties":{" name":"Cachoeira do Sul","scalerank":8,"subregion":"Rio Grande do Sul","latitude":-30.029964,"longitude":-52.909985},"id":"Q166378","coordinates":[3530,3453]},{"type":"Point","properties":{" name":"Osório","scalerank":8,"subregion":"Rio Grande do Sul","latitude":-29.879999,"longitude":-50.269991},"id":"Q983519","coordinates":[3603,3462]},{"type":"Point","properties":{" name":"Santa Cruz do Sul","scalerank":8,"subregion":"Rio Grande do Sul","latitude":-29.710035,"longitude":-52.44004},"id":"Q781510","coordinates":[3543,3472]},{"type":"Point","properties":{" name":"São Luiz Gonzaga","scalerank":8,"subregion":"Rio Grande do Sul","latitude":-28.410011,"longitude":-54.959989},"id":"Q647406","coordinates":[3473,3547]},{"type":"Point","properties":{" name":"Santo Ângelo","scalerank":8,"subregion":"Rio Grande do Sul","latitude":-28.300044,"longitude":-54.280031},"id":"Q824031","coordinates":[3492,3553]},{"type":"Point","properties":{" name":"Carazinho","scalerank":8,"subregion":"Rio Grande do Sul","latitude":-28.290019,"longitude":-52.800044},"id":"Q772910","coordinates":[3533,3553]},{"type":"Point","properties":{" name":"Erechim","scalerank":8,"subregion":"Rio Grande do Sul","latitude":-27.630007,"longitude":-52.269998},"id":"Q642088","coordinates":[3548,3591]},{"type":"Point","properties":{" name":"Guaira","scalerank":8,"subregion":"Paraná","latitude":-24.089965,"longitude":-54.26998},"id":"Q135983","coordinates":[3492,3795]},{"type":"Point","properties":{" name":"Palmas","scalerank":8,"subregion":"Paraná","latitude":-26.48,"longitude":-51.999989},"id":"Q928397","coordinates":[3555,3658]},{"type":"Point","properties":{" name":"Arapongas","scalerank":8,"subregion":"Paraná","latitude":-23.410007,"longitude":-51.43005},"id":"Q1650073","coordinates":[3571,3834]},{"type":"Point","properties":{" name":"Paranaguá","scalerank":8,"subregion":"Paraná","latitude":-25.527876,"longitude":-48.534454},"id":"Q503852","coordinates":[3651,3713]},{"type":"Point","properties":{" name":"São José dos Pinhais","scalerank":8,"subregion":"Paraná","latitude":-25.57003,"longitude":-49.180006},"id":"Q478818","coordinates":[3634,3710]},{"type":"Point","properties":{" name":"Guarapuava","scalerank":8,"subregion":"Paraná","latitude":-25.380015,"longitude":-51.480021},"id":"Q326354","coordinates":[3570,3721]},{"type":"Point","properties":{" name":"Rio Negro","scalerank":8,"subregion":"Paraná","latitude":-26.100023,"longitude":-49.790021},"id":"Q1878476","coordinates":[3617,3680]},{"type":"Point","properties":{" name":"Apucarana","scalerank":8,"subregion":"Paraná","latitude":-23.549998,"longitude":-51.470021},"id":"Q1638385","coordinates":[3570,3826]},{"type":"Point","properties":{" name":"Lapa","scalerank":8,"subregion":"Paraná","latitude":-25.760044,"longitude":-49.729998},"id":"Q2064788","coordinates":[3618,3699]},{"type":"Point","properties":{" name":"Irati","scalerank":8,"subregion":"Paraná","latitude":-25.470036,"longitude":-50.659968},"id":"Q2064763","coordinates":[3592,3716]},{"type":"Point","properties":{" name":"Castro","scalerank":8,"subregion":"Paraná","latitude":-24.790026,"longitude":-50.009981},"id":"Q2077411","coordinates":[3610,3755]},{"type":"Point","properties":{" name":"Telêmaco Borba","scalerank":8,"subregion":"Paraná","latitude":-24.32995,"longitude":-50.619996},"id":"Q391843","coordinates":[3594,3781]},{"type":"Point","properties":{" name":"Jacarezinho","scalerank":8,"subregion":"Paraná","latitude":-23.159944,"longitude":-49.979983},"id":"Q1814491","coordinates":[3611,3849]},{"type":"Point","properties":{" name":"Concórdia","scalerank":8,"subregion":"Santa Catarina","latitude":-27.230032,"longitude":-52.030013},"id":"Q749798","coordinates":[3554,3614]},{"type":"Point","properties":{" name":"Blumenau","scalerank":8,"subregion":"Santa Catarina","latitude":-26.920025,"longitude":-49.089986},"id":"Q155557","coordinates":[3636,3632]},{"type":"Point","properties":{" name":"Brusque","scalerank":8,"subregion":"Santa Catarina","latitude":-27.129986,"longitude":-48.930021},"id":"Q329488","coordinates":[3640,3620]},{"type":"Point","properties":{" name":"Araranguá","scalerank":8,"subregion":"Santa Catarina","latitude":-28.940005,"longitude":-49.499987},"id":"Q626231","coordinates":[3625,3516]},{"type":"Point","properties":{" name":"Jaraguá do Sul","scalerank":8,"subregion":"Santa Catarina","latitude":-26.48,"longitude":-49.099985},"id":"Q849584","coordinates":[3636,3658]},{"type":"Point","properties":{" name":"Tubarão","scalerank":8,"subregion":"Santa Catarina","latitude":-28.480033,"longitude":-49.020016},"id":"Q1815730","coordinates":[3638,3543]},{"type":"Point","properties":{" name":"Laguna","scalerank":8,"subregion":"Santa Catarina","latitude":-28.480033,"longitude":-48.779979},"id":"Q1615291","coordinates":[3645,3543]},{"type":"Point","properties":{" name":"Joaçaba","scalerank":8,"subregion":"Santa Catarina","latitude":-27.170035,"longitude":-51.499968},"id":"Q1758467","coordinates":[3569,3618]},{"type":"Point","properties":{" name":"Caçador","scalerank":8,"subregion":"Santa Catarina","latitude":-26.770008,"longitude":-51.020023},"id":"Q986540","coordinates":[3582,3641]},{"type":"Point","properties":{" name":"Canoinhas","scalerank":8,"subregion":"Santa Catarina","latitude":-26.179967,"longitude":-50.400009},"id":"Q1799304","coordinates":[3600,3675]},{"type":"Point","properties":{" name":"Camocim","scalerank":8,"subregion":"Ceará","latitude":-2.899992,"longitude":-40.850024},"id":"Q1807057","coordinates":[3865,5015]},{"type":"Point","properties":{" name":"Russas","scalerank":8,"subregion":"Ceará","latitude":-4.940023,"longitude":-37.979992},"id":"Q1806654","coordinates":[3945,4898]},{"type":"Point","properties":{" name":"Sobral","scalerank":8,"subregion":"Ceará","latitude":-3.690022,"longitude":-40.350028},"id":"Q1815899","coordinates":[3879,4970]},{"type":"Point","properties":{" name":"Iguatu","scalerank":8,"subregion":"Ceará","latitude":-6.359988,"longitude":-39.299989},"id":"Q931326","coordinates":[3908,4816]},{"type":"Point","properties":{" name":"Quixadá","scalerank":8,"subregion":"Ceará","latitude":-4.969995,"longitude":-39.020006},"id":"Q2013932","coordinates":[3916,4896]},{"type":"Point","properties":{" name":"Canindé","scalerank":8,"subregion":"Ceará","latitude":-4.350033,"longitude":-39.309988},"id":"Q1008278","coordinates":[3908,4932]},{"type":"Point","properties":{" name":"Campo Maior","scalerank":8,"subregion":"Piauí","latitude":-4.82003,"longitude":-42.18002},"id":"Q2105005","coordinates":[3828,4905]},{"type":"Point","properties":{" name":"Barras","scalerank":8,"subregion":"Piauí","latitude":-4.250039,"longitude":-42.299987},"id":"Q808836","coordinates":[3825,4938]},{"type":"Point","properties":{" name":"Rio Largo","scalerank":8,"subregion":"Alagoas","latitude":-9.480004,"longitude":-35.839968},"id":"Q530211","coordinates":[4004,4637]},{"type":"Point","properties":{" name":"Palmeira dos Índios","scalerank":8,"subregion":"Alagoas","latitude":-9.416597,"longitude":-36.616639},"id":"Q948268","coordinates":[3982,4640]},{"type":"Point","properties":{" name":"Santa Cruz Cabrália","scalerank":8,"subregion":"Bahia","latitude":-16.280002,"longitude":-39.02998},"id":"Q993466","coordinates":[3915,4245]},{"type":"Point","properties":{" name":"Paulo Afonso","scalerank":8,"subregion":"Bahia","latitude":-9.330659,"longitude":-38.265659},"id":"Q956008","coordinates":[3938,4641]},{"type":"Point","properties":{" name":"Brumado","scalerank":8,"subregion":"Bahia","latitude":-14.21,"longitude":-41.670025},"id":"Q1808298","coordinates":[3842,4364]},{"type":"Point","properties":{" name":"Jaguaquara","scalerank":8,"subregion":"Bahia","latitude":-13.529989,"longitude":-39.97},"id":"Q733973","coordinates":[3889,4403]},{"type":"Point","properties":{" name":"Itapetinga","scalerank":8,"subregion":"Bahia","latitude":-15.249988,"longitude":-40.249983},"id":"Q921827","coordinates":[3882,4304]},{"type":"Point","properties":{" name":"Ubaitaba","scalerank":8,"subregion":"Bahia","latitude":-14.30002,"longitude":-39.330013},"id":"Q1762068","coordinates":[3907,4359]},{"type":"Point","properties":{" name":"Cachoeiro de Itapemirim","scalerank":8,"subregion":"Espírito Santo","latitude":-20.850008,"longitude":-41.129981},"id":"Q1439193","coordinates":[3857,3982]},{"type":"Point","properties":{" name":"Barra Mansa","scalerank":8,"subregion":"Rio de Janeiro","latitude":-22.560033,"longitude":-44.16995},"id":"Q808797","coordinates":[3773,3883]},{"type":"Point","properties":{" name":"Nova Iguaçu","scalerank":8,"subregion":"Rio de Janeiro","latitude":-22.740022,"longitude":-43.469967},"id":"Q188897","coordinates":[3793,3872]},{"type":"Point","properties":{" name":"Duque de Caxias","scalerank":8,"subregion":"Rio de Janeiro","latitude":-22.769994,"longitude":-43.309977},"id":"Q193021","coordinates":[3797,3870]},{"type":"Point","properties":{" name":"Niterói","scalerank":8,"subregion":"Rio de Janeiro","latitude":-22.900012,"longitude":-43.09999},"id":"Q178725","coordinates":[3802,3865]},{"type":"Point","properties":{" name":"Cabo Frio","scalerank":8,"subregion":"Rio de Janeiro","latitude":-22.889987,"longitude":-42.039977},"id":"Q735025","coordinates":[3832,3864]},{"type":"Point","properties":{" name":"Macaé","scalerank":8,"subregion":"Rio de Janeiro","latitude":-22.379992,"longitude":-41.789992},"id":"Q473250","coordinates":[3839,3894]},{"type":"Point","properties":{" name":"Miracema","scalerank":8,"subregion":"Rio de Janeiro","latitude":-21.410025,"longitude":-42.199967},"id":"Q1804056","coordinates":[3827,3950]},{"type":"Point","properties":{" name":"Apodi","scalerank":8,"subregion":"Rio Grande do Norte","latitude":-5.650005,"longitude":-37.800003},"id":"Q2008084","coordinates":[3950,4857]},{"type":"Point","properties":{" name":"Santa Cruz","scalerank":8,"subregion":"Rio Grande do Norte","latitude":-6.219996,"longitude":-36.029982},"id":"Q1854793","coordinates":[3999,4824]},{"type":"Point","properties":{" name":"Morrinhos","scalerank":8,"subregion":"Goiás","latitude":-17.730043,"longitude":-49.109985},"id":"Q1025767","coordinates":[3635,4162]},{"type":"Point","properties":{" name":"Ceres","scalerank":8,"subregion":"Goiás","latitude":-15.303318,"longitude":-49.6052},"id":"Q2019995","coordinates":[3622,4301]},{"type":"Point","properties":{" name":"Catalão","scalerank":8,"subregion":"Goiás","latitude":-18.180042,"longitude":-47.950004},"id":"Q35135","coordinates":[3668,4136]},{"type":"Point","properties":{" name":"Cristalina","scalerank":8,"subregion":"Goiás","latitude":-16.769998,"longitude":-47.610025},"id":"Q1012541","coordinates":[3677,4217]},{"type":"Point","properties":{" name":"Trindade","scalerank":8,"subregion":"Goiás","latitude":-16.650006,"longitude":-49.499987},"id":"Q985583","coordinates":[3625,4224]},{"type":"Point","properties":{" name":"Iporá","scalerank":8,"subregion":"Goiás","latitude":-16.450018,"longitude":-51.129991},"id":"Q675142","coordinates":[3579,4235]},{"type":"Point","properties":{" name":"Inhumas","scalerank":8,"subregion":"Goiás","latitude":-16.359998,"longitude":-49.499987},"id":"Q986245","coordinates":[3625,4240]},{"type":"Point","properties":{" name":"Itaberaí","scalerank":8,"subregion":"Goiás","latitude":-16.019967,"longitude":-49.809968},"id":"Q527149","coordinates":[3616,4260]},{"type":"Point","properties":{" name":"Santo André","scalerank":8,"subregion":"São Paulo","latitude":-23.652834,"longitude":-46.527817},"id":"Q191652","coordinates":[3707,3820]},{"type":"Point","properties":{" name":"Pindamonhangaba","scalerank":8,"subregion":"São Paulo","latitude":-22.919959,"longitude":-45.470026},"id":"Q974642","coordinates":[3737,3863]},{"type":"Point","properties":{" name":"Rio Claro","scalerank":8,"subregion":"São Paulo","latitude":-22.409964,"longitude":-47.560028},"id":"Q291277","coordinates":[3679,3892]},{"type":"Point","properties":{" name":"Ourinhos","scalerank":8,"subregion":"São Paulo","latitude":-22.970033,"longitude":-49.86999},"id":"Q985605","coordinates":[3614,3860]},{"type":"Point","properties":{" name":"Itanhaem","scalerank":8,"subregion":"São Paulo","latitude":-24.179985,"longitude":-46.800022},"id":"Q983491","coordinates":[3700,3790]},{"type":"Point","properties":{" name":"Jaboticabal","scalerank":8,"subregion":"São Paulo","latitude":-21.250035,"longitude":-48.329981},"id":"Q938162","coordinates":[3657,3959]},{"type":"Point","properties":{" name":"Bragança Paulista","scalerank":8,"subregion":"São Paulo","latitude":-22.950035,"longitude":-46.549986},"id":"Q897232","coordinates":[3707,3861]},{"type":"Point","properties":{" name":"Jundiaí","scalerank":8,"subregion":"São Paulo","latitude":-23.199994,"longitude":-46.879992},"id":"Q275109","coordinates":[3697,3847]},{"type":"Point","properties":{" name":"São José dos Campos","scalerank":8,"subregion":"São Paulo","latitude":-23.199994,"longitude":-45.879949},"id":"Q191642","coordinates":[3725,3847]},{"type":"Point","properties":{" name":"Guaratinguetá","scalerank":8,"subregion":"São Paulo","latitude":-22.819965,"longitude":-45.189991},"id":"Q905157","coordinates":[3744,3868]},{"type":"Point","properties":{" name":"Pirassununga","scalerank":8,"subregion":"São Paulo","latitude":-21.990042,"longitude":-47.429984},"id":"Q1750431","coordinates":[3682,3916]},{"type":"Point","properties":{" name":"Americana","scalerank":8,"subregion":"São Paulo","latitude":-22.749943,"longitude":-47.32999},"id":"Q467421","coordinates":[3685,3872]},{"type":"Point","properties":{" name":"Piracicaba","scalerank":8,"subregion":"São Paulo","latitude":-22.709998,"longitude":-47.639997},"id":"Q330175","coordinates":[3676,3874]},{"type":"Point","properties":{" name":"São João da Boa Vista","scalerank":8,"subregion":"São Paulo","latitude":-21.980016,"longitude":-46.789997},"id":"Q925419","coordinates":[3700,3917]},{"type":"Point","properties":{" name":"São Carlos","scalerank":8,"subregion":"São Paulo","latitude":-22.020014,"longitude":-47.889982},"id":"Q194338","coordinates":[3669,3914]},{"type":"Point","properties":{" name":"Tupã","scalerank":8,"subregion":"São Paulo","latitude":-21.929994,"longitude":-50.51995},"id":"Q961143","coordinates":[3596,3920]},{"type":"Point","properties":{" name":"Penápolis","scalerank":8,"subregion":"São Paulo","latitude":-21.410025,"longitude":-50.080003},"id":"Q986508","coordinates":[3609,3950]},{"type":"Point","properties":{" name":"Presidente Prudente","scalerank":8,"subregion":"São Paulo","latitude":-22.120008,"longitude":-51.39},"id":"Q525618","coordinates":[3572,3909]},{"type":"Point","properties":{" name":"Registro","scalerank":8,"subregion":"São Paulo","latitude":-24.490044,"longitude":-47.839985},"id":"Q1798084","coordinates":[3671,3772]},{"type":"Point","properties":{" name":"Tatuí","scalerank":8,"subregion":"São Paulo","latitude":-23.35001,"longitude":-47.860009},"id":"Q1795613","coordinates":[3670,3838]},{"type":"Point","properties":{" name":"Avaré","scalerank":8,"subregion":"São Paulo","latitude":-23.110025,"longitude":-48.930021},"id":"Q782812","coordinates":[3640,3852]},{"type":"Point","properties":{" name":"Garça","scalerank":8,"subregion":"São Paulo","latitude":-22.220002,"longitude":-49.659977},"id":"Q940614","coordinates":[3620,3903]},{"type":"Point","properties":{" name":"Catanduva","scalerank":8,"subregion":"São Paulo","latitude":-21.140016,"longitude":-48.979967},"id":"Q983683","coordinates":[3639,3965]},{"type":"Point","properties":{" name":"Batatais","scalerank":8,"subregion":"São Paulo","latitude":-20.890005,"longitude":-47.59},"id":"Q650500","coordinates":[3678,3980]},{"type":"Point","properties":{" name":"Barretos","scalerank":8,"subregion":"São Paulo","latitude":-20.550026,"longitude":-48.580017},"id":"Q1637488","coordinates":[3650,3999]},{"type":"Point","properties":{" name":"Marília","scalerank":8,"subregion":"São Paulo","latitude":-22.210028,"longitude":-49.950011},"id":"Q737660","coordinates":[3612,3904]},{"type":"Point","properties":{" name":"Itu","scalerank":8,"subregion":"São Paulo","latitude":-23.260042,"longitude":-47.300018},"id":"Q957653","coordinates":[3686,3843]},{"type":"Point","properties":{" name":"Itapetininga","scalerank":8,"subregion":"São Paulo","latitude":-23.589996,"longitude":-48.039998},"id":"Q942071","coordinates":[3665,3824]},{"type":"Point","properties":{" name":"Jaboatao","scalerank":8,"subregion":"Pernambuco","latitude":-8.11001,"longitude":-35.020044},"id":"Q271393","coordinates":[4027,4715]},{"type":"Point","properties":{" name":"Olinda","scalerank":8,"subregion":"Pernambuco","latitude":-7.999991,"longitude":-34.849951},"id":"Q28301","coordinates":[4032,4722]},{"type":"Point","properties":{" name":"Cabo de Santo Agostinho","scalerank":8,"subregion":"Pernambuco","latitude":-8.289999,"longitude":-35.029991},"id":"Q1637538","coordinates":[4027,4705]},{"type":"Point","properties":{" name":"Carpina","scalerank":8,"subregion":"Pernambuco","latitude":-7.840001,"longitude":-35.260003},"id":"Q1993877","coordinates":[4020,4731]},{"type":"Point","properties":{" name":"Arcoverde","scalerank":8,"subregion":"Pernambuco","latitude":-8.420017,"longitude":-37.069996},"id":"Q637902","coordinates":[3970,4698]},{"type":"Point","properties":{" name":"Manacapuru","scalerank":7,"subregion":"Amazonas","latitude":-3.289581,"longitude":-60.61998},"id":"Q983526","coordinates":[3316,4993]},{"type":"Point","properties":{" name":"Maués","scalerank":7,"subregion":"Amazonas","latitude":-3.389626,"longitude":-57.720028},"id":"Q1808581","coordinates":[3396,4987]},{"type":"Point","properties":{" name":"Pedreiras","scalerank":7,"subregion":"Maranh","latitude":-4.569606,"longitude":-44.670023},"id":"Q1957216","coordinates":[3759,4919]},{"type":"Point","properties":{" name":"Codó","scalerank":7,"subregion":"Maranhão","latitude":-4.479586,"longitude":-43.879968},"id":"Q2013225","coordinates":[3781,4925]},{"type":"Point","properties":{" name":"Coroatá","scalerank":7,"subregion":"Maranhão","latitude":-4.129581,"longitude":-44.150003},"id":"Q967552","coordinates":[3773,4945]},{"type":"Point","properties":{" name":"Chapadinha","scalerank":7,"subregion":"Maranhão","latitude":-3.739528,"longitude":-43.36},"id":"Q746060","coordinates":[3795,4967]},{"type":"Point","properties":{" name":"Pinheiro","scalerank":7,"subregion":"Maranhão","latitude":-2.519602,"longitude":-45.089997},"id":"Q1796449","coordinates":[3747,5037]},{"type":"Point","properties":{" name":"Barra do Corda","scalerank":7,"subregion":"Maranhão","latitude":-5.5096,"longitude":-45.259961},"id":"Q1807301","coordinates":[3742,4865]},{"type":"Point","properties":{" name":"Viana","scalerank":7,"subregion":"Maranhão","latitude":-3.209586,"longitude":-45.000003},"id":"Q2106072","coordinates":[3750,4998]},{"type":"Point","properties":{" name":"Colinas","scalerank":7,"subregion":"Maranhão","latitude":-6.039542,"longitude":-44.239998},"id":"Q369679","coordinates":[3771,4835]},{"type":"Point","properties":{" name":"Viseu","scalerank":7,"subregion":"Pará","latitude":-1.196479,"longitude":-46.140011},"id":"Q772569","coordinates":[3718,5114]},{"type":"Point","properties":{" name":"Capitão Poço","scalerank":7,"subregion":"Pará","latitude":-1.749623,"longitude":-47.090005},"id":"Q955914","coordinates":[3692,5082]},{"type":"Point","properties":{" name":"Castanhal","scalerank":7,"subregion":"Pará","latitude":-1.2896,"longitude":-47.930031},"id":"Q984581","coordinates":[3668,5108]},{"type":"Point","properties":{" name":"Salinópolis","scalerank":7,"subregion":"Pará","latitude":-0.609486,"longitude":-47.339989},"id":"Q1008198","coordinates":[3685,5147]},{"type":"Point","properties":{" name":"Alenquer","scalerank":7,"subregion":"Pará","latitude":-1.939586,"longitude":-54.79},"id":"Q2289869","coordinates":[3478,5071]},{"type":"Point","properties":{" name":"Oriximiná","scalerank":7,"subregion":"Pará","latitude":-1.759597,"longitude":-55.869985},"id":"Q2011919","coordinates":[3448,5081]},{"type":"Point","properties":{" name":"Xinguara","scalerank":7,"subregion":"Par","latitude":-7.100614,"longitude":-49.948047},"id":"Q2008249","coordinates":[3612,4774]},{"type":"Point","properties":{" name":"Jacundá","scalerank":7,"subregion":"Par","latitude":-4.439459,"longitude":-49.115693},"id":"Q1967407","coordinates":[3635,4927]},{"type":"Point","properties":{" name":"Uruará","scalerank":7,"subregion":"Par","latitude":-3.8296,"longitude":-54.029994},"id":"Q2009083","coordinates":[3499,4962]},{"type":"Point","properties":{" name":"Altamira","scalerank":7,"subregion":"Pará","latitude":-3.199612,"longitude":-52.210002},"id":"Q434285","coordinates":[3549,4998]},{"type":"Point","properties":{" name":"Paragominas","scalerank":7,"subregion":"Pará","latitude":-2.959575,"longitude":-47.490006},"id":"Q935005","coordinates":[3680,5012]},{"type":"Point","properties":{" name":"Cametá","scalerank":7,"subregion":"Pará","latitude":-2.239619,"longitude":-49.509986},"id":"Q1805206","coordinates":[3624,5054]},{"type":"Point","properties":{" name":"Rolim de Moura","scalerank":7,"subregion":"Rondinia","latitude":-11.730203,"longitude":-61.780632},"id":"Q1784242","coordinates":[3284,4507]},{"type":"Point","properties":{" name":"Ariquemes","scalerank":7,"subregion":"Rondônia","latitude":-9.939614,"longitude":-63.079985},"id":"Q1646975","coordinates":[3247,4610]},{"type":"Point","properties":{" name":"Abunã","scalerank":7,"subregion":"Rondinia","latitude":-9.695391,"longitude":-65.359716},"id":"Q4670642","coordinates":[3184,4624]},{"type":"Point","properties":{" name":"Tocantinópolis","scalerank":7,"subregion":"Tocantins","latitude":-6.319577,"longitude":-47.419984},"id":"Q587927","coordinates":[3682,4819]},{"type":"Point","properties":{" name":"Gurupi","scalerank":7,"subregion":"Tocantins","latitude":-11.719609,"longitude":-49.059988},"id":"Q1784265","coordinates":[3637,4508]},{"type":"Point","properties":{" name":"Aquidauana","scalerank":7,"subregion":"Mato Grosso do Sul","latitude":-20.469618,"longitude":-55.790016},"id":"Q1792157","coordinates":[3450,4004]},{"type":"Point","properties":{" name":"Paranaíba","scalerank":7,"subregion":"Mato Grosso do Sul","latitude":-19.679588,"longitude":-51.200012},"id":"Q925758","coordinates":[3577,4049]},{"type":"Point","properties":{" name":"Sete Lagoas","scalerank":7,"subregion":"Minas Gerais","latitude":-19.449628,"longitude":-44.249997},"id":"Q841226","coordinates":[3770,4063]},{"type":"Point","properties":{" name":"Divinópolis","scalerank":7,"subregion":"Minas Gerais","latitude":-20.149534,"longitude":-44.899983},"id":"Q926606","coordinates":[3752,4022]},{"type":"Point","properties":{" name":"Ipatinga","scalerank":7,"subregion":"Minas Gerais","latitude":-19.4796,"longitude":-42.519999},"id":"Q318314","coordinates":[3819,4061]},{"type":"Point","properties":{" name":"Araxá","scalerank":7,"subregion":"Minas Gerais","latitude":-19.579594,"longitude":-46.950013},"id":"Q586057","coordinates":[3695,4055]},{"type":"Point","properties":{" name":"Lavras","scalerank":7,"subregion":"Minas Gerais","latitude":-21.24957,"longitude":-45.009951},"id":"Q1638425","coordinates":[3749,3959]},{"type":"Point","properties":{" name":"Ubá","scalerank":7,"subregion":"Minas Gerais","latitude":-21.119604,"longitude":-42.950025},"id":"Q922944","coordinates":[3807,3966]},{"type":"Point","properties":{" name":"Campo Belo","scalerank":7,"subregion":"Minas Gerais","latitude":-20.889592,"longitude":-45.279986},"id":"Q595804","coordinates":[3742,3980]},{"type":"Point","properties":{" name":"Ponte Nova","scalerank":7,"subregion":"Minas Gerais","latitude":-20.409621,"longitude":-42.89995},"id":"Q999139","coordinates":[3808,4007]},{"type":"Point","properties":{" name":"Curvelo","scalerank":7,"subregion":"Minas Gerais","latitude":-18.759593,"longitude":-44.429986},"id":"Q1749748","coordinates":[3765,4102]},{"type":"Point","properties":{" name":"Paracatu","scalerank":7,"subregion":"Minas Gerais","latitude":-17.199585,"longitude":-46.869992},"id":"Q1755739","coordinates":[3698,4192]},{"type":"Point","properties":{" name":"Bocaiúva","scalerank":7,"subregion":"Minas Gerais","latitude":-17.109616,"longitude":-43.81005},"id":"Q1756928","coordinates":[3783,4197]},{"type":"Point","properties":{" name":"Araçuaí","scalerank":7,"subregion":"Minas Gerais","latitude":-16.859605,"longitude":-42.069949},"id":"Q1749750","coordinates":[3831,4212]},{"type":"Point","properties":{" name":"Janaúba","scalerank":7,"subregion":"Minas Gerais","latitude":-15.799618,"longitude":-43.309977},"id":"Q1791340","coordinates":[3797,4273]},{"type":"Point","properties":{" name":"Juina","scalerank":7,"subregion":"Mato Grosso","latitude":-11.399577,"longitude":-59.500022},"id":"Q1880608","coordinates":[3367,4524]},{"type":"Point","properties":{" name":"Barra do Garças","scalerank":7,"subregion":"Mato Grosso","latitude":-15.879613,"longitude":-52.259999},"id":"Q577720","coordinates":[3548,4268]},{"type":"Point","properties":{" name":"Pontes e Lacerda","scalerank":7,"subregion":"Mato Grosso","latitude":-15.219602,"longitude":-59.34998},"id":"Q2011952","coordinates":[3351,4306]},{"type":"Point","properties":{" name":"Barra do Bugres","scalerank":7,"subregion":"Mato Grosso","latitude":-15.069585,"longitude":-57.190008},"id":"Q1805676","coordinates":[3411,4315]},{"type":"Point","properties":{" name":"Rondonópolis","scalerank":7,"subregion":"Mato Grosso","latitude":-16.4695,"longitude":-54.639983},"id":"Q983714","coordinates":[3482,4234]},{"type":"Point","properties":{" name":"Uruguaiana","scalerank":7,"subregion":"Rio Grande do Sul","latitude":-29.769618,"longitude":-57.089988},"id":"Q622823","coordinates":[3414,3468]},{"type":"Point","properties":{" name":"São Borja","scalerank":7,"subregion":"Rio Grande do Sul","latitude":-28.659609,"longitude":-56.009977},"id":"Q385327","coordinates":[3444,3532]},{"type":"Point","properties":{" name":"Novo Hamburgo","scalerank":7,"subregion":"Rio Grande do Sul","latitude":-29.709622,"longitude":-51.13999},"id":"Q321331","coordinates":[3579,3472]},{"type":"Point","properties":{" name":"Rio Grande","scalerank":7,"subregion":"Rio Grande do Sul","latitude":-32.049479,"longitude":-52.120008},"id":"Q869571","coordinates":[3552,3337]},{"type":"Point","properties":{" name":"Camaquã","scalerank":7,"subregion":"Rio Grande do Sul","latitude":-30.839631,"longitude":-51.810001},"id":"Q986275","coordinates":[3560,3407]},{"type":"Point","properties":{" name":"Bento Gonçalves","scalerank":7,"subregion":"Rio Grande do Sul","latitude":-29.1695,"longitude":-51.519967},"id":"Q548652","coordinates":[3569,3503]},{"type":"Point","properties":{" name":"Vacaria","scalerank":7,"subregion":"Rio Grande do Sul","latitude":-28.499618,"longitude":-50.940002},"id":"Q941580","coordinates":[3585,3541]},{"type":"Point","properties":{" name":"Ijuí","scalerank":7,"subregion":"Rio Grande do Sul","latitude":-28.389548,"longitude":-53.919949},"id":"Q194374","coordinates":[3502,3548]},{"type":"Point","properties":{" name":"Santa Rosa","scalerank":7,"subregion":"Rio Grande do Sul","latitude":-27.869528,"longitude":-54.459968},"id":"Q995326","coordinates":[3487,3578]},{"type":"Point","properties":{" name":"Maringá","scalerank":7,"subregion":"Paraná","latitude":-23.409541,"longitude":-51.929968},"id":"Q208669","coordinates":[3557,3834]},{"type":"Point","properties":{" name":"Cascavel","scalerank":7,"subregion":"Paraná","latitude":-24.959576,"longitude":-53.460029},"id":"Q205681","coordinates":[3515,3745]},{"type":"Point","properties":{" name":"Campo Murao","scalerank":7,"subregion":"Paraná","latitude":-24.049606,"longitude":-52.419989},"id":"Q1773327","coordinates":[3544,3798]},{"type":"Point","properties":{" name":"Foz do Iguaçu","scalerank":7,"subregion":"Paraná","latitude":-25.523469,"longitude":-54.52999},"id":"Q202316","coordinates":[3485,3713]},{"type":"Point","properties":{" name":"São Francisco do Sul","scalerank":7,"subregion":"Santa Catarina","latitude":-26.239601,"longitude":-48.59999},"id":"Q986536","coordinates":[3650,3672]},{"type":"Point","properties":{" name":"Porto União","scalerank":7,"subregion":"Santa Catarina","latitude":-26.239601,"longitude":-51.079968},"id":"Q1784679","coordinates":[3581,3672]},{"type":"Point","properties":{" name":"Itajaí","scalerank":7,"subregion":"Santa Catarina","latitude":-26.899613,"longitude":-48.680011},"id":"Q842713","coordinates":[3647,3634]},{"type":"Point","properties":{" name":"Imbituba","scalerank":7,"subregion":"Santa Catarina","latitude":-28.229609,"longitude":-48.660012},"id":"Q986545","coordinates":[3648,3557]},{"type":"Point","properties":{" name":"Lajes","scalerank":7,"subregion":"Santa Catarina","latitude":-27.809583,"longitude":-50.309989},"id":"Q762009","coordinates":[3602,3581]},{"type":"Point","properties":{" name":"Granja","scalerank":7,"subregion":"Ceará","latitude":-3.119514,"longitude":-40.839998},"id":"Q2028672","coordinates":[3865,5003]},{"type":"Point","properties":{" name":"Crato","scalerank":7,"subregion":"Ceará","latitude":-7.229599,"longitude":-39.420008},"id":"Q1004897","coordinates":[3905,4766]},{"type":"Point","properties":{" name":"Itapipoca","scalerank":7,"subregion":"Ceará","latitude":-3.499542,"longitude":-39.580024},"id":"Q1797985","coordinates":[3900,4981]},{"type":"Point","properties":{" name":"Paracuru","scalerank":7,"subregion":"Ceará","latitude":-3.399548,"longitude":-39.040031},"id":"Q542347","coordinates":[3915,4987]},{"type":"Point","properties":{" name":"Acaraú","scalerank":7,"subregion":"Ceará","latitude":-2.889605,"longitude":-40.119991},"id":"Q1796706","coordinates":[3885,5016]},{"type":"Point","properties":{" name":"Tauá","scalerank":7,"subregion":"Ceará","latitude":-5.999493,"longitude":-40.310031},"id":"Q2021015","coordinates":[3880,4837]},{"type":"Point","properties":{" name":"Crateús","scalerank":7,"subregion":"Ceará","latitude":-5.16559,"longitude":-40.666004},"id":"Q2021123","coordinates":[3870,4885]},{"type":"Point","properties":{" name":"Baturité","scalerank":7,"subregion":"Ceará","latitude":-4.329569,"longitude":-38.879989},"id":"Q2021082","coordinates":[3920,4933]},{"type":"Point","properties":{" name":"Ipú","scalerank":7,"subregion":"Ceará","latitude":-4.319596,"longitude":-40.720057},"id":"Q2026922","coordinates":[3869,4934]},{"type":"Point","properties":{" name":"Floriano","scalerank":7,"subregion":"Piauí","latitude":-6.769575,"longitude":-43.029968},"id":"Q2008644","coordinates":[3804,4793]},{"type":"Point","properties":{" name":"Piripiri","scalerank":7,"subregion":"Piauí","latitude":-4.269573,"longitude":-41.789992},"id":"Q996763","coordinates":[3839,4937]},{"type":"Point","properties":{" name":"Penedo","scalerank":7,"subregion":"Alagoas","latitude":-10.26962,"longitude":-36.580026},"id":"Q1772658","coordinates":[3983,4591]},{"type":"Point","properties":{" name":"Itabuna","scalerank":7,"subregion":"Bahia","latitude":-14.789602,"longitude":-39.280016},"id":"Q460750","coordinates":[3909,4331]},{"type":"Point","properties":{" name":"Itamaraju","scalerank":7,"subregion":"Bahia","latitude":-17.039594,"longitude":-39.529949},"id":"Q943536","coordinates":[3902,4201]},{"type":"Point","properties":{" name":"Guanambi","scalerank":7,"subregion":"Bahia","latitude":-14.229585,"longitude":-42.789983},"id":"Q786924","coordinates":[3811,4363]},{"type":"Point","properties":{" name":"Porto Seguro","scalerank":7,"subregion":"Bahia","latitude":-16.429606,"longitude":-39.080028},"id":"Q499922","coordinates":[3914,4236]},{"type":"Point","properties":{" name":"Valença","scalerank":7,"subregion":"Bahia","latitude":-13.359612,"longitude":-39.080028},"id":"Q1010498","coordinates":[3914,4413]},{"type":"Point","properties":{" name":"Serrinha","scalerank":7,"subregion":"Bahia","latitude":-11.649587,"longitude":-39.010007},"id":"Q1008215","coordinates":[3916,4512]},{"type":"Point","properties":{" name":"Tucano","scalerank":7,"subregion":"Bahia","latitude":-10.969629,"longitude":-38.789994},"id":"Q22062855","coordinates":[3922,4551]},{"type":"Point","properties":{" name":"Senhor do Bonfim","scalerank":7,"subregion":"Bahia","latitude":-10.449609,"longitude":-40.190012},"id":"Q1808316","coordinates":[3883,4581]},{"type":"Point","properties":{" name":"Remanso","scalerank":7,"subregion":"Bahia","latitude":-9.599583,"longitude":-42.109998},"id":"Q1794265","coordinates":[3830,4630]},{"type":"Point","properties":{" name":"Itambé","scalerank":7,"subregion":"Bahia","latitude":-15.239601,"longitude":-40.629985},"id":"Q686304","coordinates":[3871,4305]},{"type":"Point","properties":{" name":"Bom Jesus da Lapa","scalerank":7,"subregion":"Bahia","latitude":-13.249541,"longitude":-43.440021},"id":"Q891727","coordinates":[3793,4420]},{"type":"Point","properties":{" name":"Itaberaba","scalerank":7,"subregion":"Bahia","latitude":-12.519612,"longitude":-40.29998},"id":"Q1800730","coordinates":[3880,4462]},{"type":"Point","properties":{" name":"São Mateus","scalerank":7,"subregion":"Espírito Santo","latitude":-18.72962,"longitude":-39.859981},"id":"Q1763574","coordinates":[3892,4104]},{"type":"Point","properties":{" name":"Patos","scalerank":7,"subregion":"Paraíba","latitude":-7.019586,"longitude":-37.290008},"id":"Q1966384","coordinates":[3964,4778]},{"type":"Point","properties":{" name":"Volta Redonda","scalerank":7,"subregion":"Rio de Janeiro","latitude":-22.51957,"longitude":-44.094968},"id":"Q276176","coordinates":[3775,3886]},{"type":"Point","properties":{" name":"Petrópolis","scalerank":7,"subregion":"Rio de Janeiro","latitude":-22.509493,"longitude":-43.199984},"id":"Q189043","coordinates":[3800,3886]},{"type":"Point","properties":{" name":"Nova Cruz","scalerank":7,"subregion":"Rio Grande do Norte","latitude":-6.469594,"longitude":-35.439992},"id":"Q1802859","coordinates":[4015,4810]},{"type":"Point","properties":{" name":"Caicó","scalerank":7,"subregion":"Rio Grande do Norte","latitude":-6.45962,"longitude":-37.10002},"id":"Q1751350","coordinates":[3969,4811]},{"type":"Point","properties":{" name":"Açu","scalerank":7,"subregion":"Rio Grande do Norte","latitude":-5.579622,"longitude":-36.910057},"id":"Q1788873","coordinates":[3974,4861]},{"type":"Point","properties":{" name":"Estância","scalerank":7,"subregion":"Sergipe","latitude":-11.269611,"longitude":-37.450025},"id":"Q1005942","coordinates":[3959,4534]},{"type":"Point","properties":{" name":"Caracaraí","scalerank":7,"subregion":"Roraima","latitude":1.816232,"longitude":-61.127675},"id":"Q772563","coordinates":[3302,5287]},{"type":"Point","properties":{" name":"Porto Santana","scalerank":7,"subregion":"Amapá","latitude":-0.039598,"longitude":-51.179987},"id":"Q2105236","coordinates":[3578,5180]},{"type":"Point","properties":{" name":"Rio Verde","scalerank":7,"subregion":"Goi","latitude":-17.819598,"longitude":-50.929977},"id":"Q942064","coordinates":[3585,4156]},{"type":"Point","properties":{" name":"Pires do Rio","scalerank":7,"subregion":"Goiás","latitude":-17.299527,"longitude":-48.279984},"id":"Q987688","coordinates":[3659,4186]},{"type":"Point","properties":{" name":"Anápolis","scalerank":7,"subregion":"Goiás","latitude":-16.319587,"longitude":-48.959968},"id":"Q223422","coordinates":[3640,4243]},{"type":"Point","properties":{" name":"Goianésia","scalerank":7,"subregion":"Goiás","latitude":-15.309622,"longitude":-49.130009},"id":"Q988771","coordinates":[3635,4301]},{"type":"Point","properties":{" name":"Niquelândia","scalerank":7,"subregion":"Goiás","latitude":-14.469622,"longitude":-48.470024},"id":"Q1794378","coordinates":[3653,4349]},{"type":"Point","properties":{" name":"Itumbiara","scalerank":7,"subregion":"Goiás","latitude":-18.399615,"longitude":-49.210004},"id":"Q193350","coordinates":[3633,4123]},{"type":"Point","properties":{" name":"Jataí","scalerank":7,"subregion":"Goiás","latitude":-17.879595,"longitude":-51.750004},"id":"Q963195","coordinates":[3562,4153]},{"type":"Point","properties":{" name":"Mineiros","scalerank":7,"subregion":"Goiás","latitude":-17.569536,"longitude":-52.559981},"id":"Q1795244","coordinates":[3540,4171]},{"type":"Point","properties":{" name":"Formosa","scalerank":7,"subregion":"Goiás","latitude":-15.539479,"longitude":-47.339989},"id":"Q1003392","coordinates":[3685,4288]},{"type":"Point","properties":{" name":"São José do Rio Preto","scalerank":7,"subregion":"São Paulo","latitude":-20.799623,"longitude":-49.389968},"id":"Q192181","coordinates":[3628,3985]},{"type":"Point","properties":{" name":"Limeira","scalerank":7,"subregion":"São Paulo","latitude":-22.549542,"longitude":-47.400011},"id":"Q841241","coordinates":[3683,3883]},{"type":"Point","properties":{" name":"Taubaté","scalerank":7,"subregion":"São Paulo","latitude":-23.019539,"longitude":-45.559995},"id":"Q170540","coordinates":[3734,3857]},{"type":"Point","properties":{" name":"Jaú","scalerank":7,"subregion":"São Paulo","latitude":-22.28961,"longitude":-48.570018},"id":"Q1759235","coordinates":[3650,3899]},{"type":"Point","properties":{" name":"Assis","scalerank":7,"subregion":"São Paulo","latitude":-22.659613,"longitude":-50.419982},"id":"Q742227","coordinates":[3599,3878]},{"type":"Point","properties":{" name":"Itapeva","scalerank":7,"subregion":"São Paulo","latitude":-23.979584,"longitude":-48.880025},"id":"Q1808590","coordinates":[3642,3802]},{"type":"Point","properties":{" name":"Botucatu","scalerank":7,"subregion":"São Paulo","latitude":-22.8796,"longitude":-48.449999},"id":"Q1625598","coordinates":[3654,3865]},{"type":"Point","properties":{" name":"Novo Horizonte","scalerank":7,"subregion":"São Paulo","latitude":-21.459583,"longitude":-49.220004},"id":"Q1815907","coordinates":[3632,3947]},{"type":"Point","properties":{" name":"Andradina","scalerank":7,"subregion":"São Paulo","latitude":-20.909591,"longitude":-51.379949},"id":"Q1646937","coordinates":[3572,3978]},{"type":"Point","properties":{" name":"Fernandópolis","scalerank":7,"subregion":"São Paulo","latitude":-20.26963,"longitude":-50.260044},"id":"Q1648179","coordinates":[3604,4015]},{"type":"Point","properties":{" name":"Barreiros","scalerank":7,"subregion":"Pernambuco","latitude":-8.829605,"longitude":-35.200007},"id":"Q2102404","coordinates":[4022,4674]},{"type":"Point","properties":{" name":"Salgueiro","scalerank":7,"subregion":"Pernambuco","latitude":-8.059626,"longitude":-39.130025},"id":"Q2102772","coordinates":[3913,4718]},{"type":"Point","properties":{" name":"Goiana","scalerank":7,"subregion":"Pernambuco","latitude":-7.559605,"longitude":-34.999993},"id":"Q1767210","coordinates":[4027,4747]},{"type":"Point","properties":{" name":"Timbaúba","scalerank":7,"subregion":"Pernambuco","latitude":-7.499608,"longitude":-35.320025},"id":"Q929867","coordinates":[4018,4751]},{"type":"Point","properties":{" name":"Bacabal","scalerank":6,"subregion":"Maranhão","latitude":-4.229989,"longitude":-44.799989},"id":"Q1807313","coordinates":[3755,4939]},{"type":"Point","properties":{" name":"Bragança","scalerank":6,"subregion":"Pará","latitude":-1.050028,"longitude":-46.769998},"id":"Q320487","coordinates":[3700,5122]},{"type":"Point","properties":{" name":"Óbidos","scalerank":6,"subregion":"Pará","latitude":-1.910027,"longitude":-55.520007},"id":"Q577167","coordinates":[3457,5072]},{"type":"Point","properties":{" name":"Guajara-Miram","scalerank":6,"subregion":"Rondônia","latitude":-10.800027,"longitude":-65.349949},"id":"Q983810","coordinates":[3184,4561]},{"type":"Point","properties":{" name":"Porto Nacional","scalerank":6,"subregion":"Tocantins","latitude":-10.700033,"longitude":-48.419949},"id":"Q1784315","coordinates":[3655,4566]},{"type":"Point","properties":{" name":"Dourados","scalerank":6,"subregion":"Mato Grosso do Sul","latitude":-22.230027,"longitude":-54.809998},"id":"Q651874","coordinates":[3477,3902]},{"type":"Point","properties":{" name":"Governador Valadares","scalerank":6,"subregion":"Minas Gerais","latitude":-18.870025,"longitude":-41.970007},"id":"Q462218","coordinates":[3834,4096]},{"type":"Point","properties":{" name":"Pirapora","scalerank":6,"subregion":"Minas Gerais","latitude":-17.330016,"longitude":-44.929981},"id":"Q1756358","coordinates":[3752,4185]},{"type":"Point","properties":{" name":"Juiz de Fora","scalerank":6,"subregion":"Minas Gerais","latitude":-21.770003,"longitude":-43.374986},"id":"Q193019","coordinates":[3795,3929]},{"type":"Point","properties":{" name":"Santa Maria","scalerank":6,"subregion":"Rio Grande do Sul","latitude":-29.683319,"longitude":-53.800008},"id":"Q740833","coordinates":[3505,3473]},{"type":"Point","properties":{" name":"Passo Fundo","scalerank":6,"subregion":"Rio Grande do Sul","latitude":-28.250021,"longitude":-52.419989},"id":"Q525647","coordinates":[3544,3556]},{"type":"Point","properties":{" name":"Xapeco","scalerank":6,"subregion":"Santa Catarina","latitude":-27.100014,"longitude":-52.640028},"id":"Q817387","coordinates":[3537,3622]},{"type":"Point","properties":{" name":"Joinville","scalerank":6,"subregion":"Santa Catarina","latitude":-26.318012,"longitude":-48.841895},"id":"Q156819","coordinates":[3643,3667]},{"type":"Point","properties":{" name":"Juazeiro do Norte","scalerank":6,"subregion":"Ceará","latitude":-7.210013,"longitude":-39.320014},"id":"Q817227","coordinates":[3907,4767]},{"type":"Point","properties":{" name":"Nova Viçosa","scalerank":6,"subregion":"Bahia","latitude":-17.880008,"longitude":-39.370011},"id":"Q1794050","coordinates":[3906,4153]},{"type":"Point","properties":{" name":"Alagoinhas","scalerank":6,"subregion":"Bahia","latitude":-12.139997,"longitude":-38.429991},"id":"Q818261","coordinates":[3932,4483]},{"type":"Point","properties":{" name":"Juazeiro","scalerank":6,"subregion":"Bahia","latitude":-9.420008,"longitude":-40.499968},"id":"Q753044","coordinates":[3875,4640]},{"type":"Point","properties":{" name":"Vitória","scalerank":6,"subregion":"Espírito Santo","latitude":-20.322047,"longitude":-40.367942},"id":"Q168376","coordinates":[3879,4012]},{"type":"Point","properties":{" name":"João Pessoa","scalerank":6,"subregion":"Paraíba","latitude":-7.099189,"longitude":-34.878017},"id":"Q167436","coordinates":[4031,4774]},{"type":"Point","properties":{" name":"Campina Grande","scalerank":6,"subregion":"Paraíba","latitude":-7.230012,"longitude":-35.880017},"id":"Q193016","coordinates":[4003,4766]},{"type":"Point","properties":{" name":"Nova Friburgo","scalerank":6,"subregion":"Rio de Janeiro","latitude":-22.259999,"longitude":-42.54005},"id":"Q468563","coordinates":[3818,3901]},{"type":"Point","properties":{" name":"Araçatuba","scalerank":6,"subregion":"São Paulo","latitude":-21.209986,"longitude":-50.450006},"id":"Q626835","coordinates":[3598,3961]},{"type":"Point","properties":{" name":"Sena Madureira","scalerank":6,"subregion":"Acre","latitude":-9.070003,"longitude":-68.669979},"id":"Q1754389","coordinates":[3092,4660]},{"type":"Point","properties":{" name":"Fonte Boa","scalerank":6,"subregion":"Amazonas","latitude":-2.513814,"longitude":-66.09161},"id":"Q1793768","coordinates":[3164,5038]},{"type":"Point","properties":{" name":"Eirunepé","scalerank":6,"subregion":"Amazonas","latitude":-6.660021,"longitude":-69.873808},"id":"Q1646910","coordinates":[3059,4799]},{"type":"Point","properties":{" name":"Manicoré","scalerank":6,"subregion":"Amazonas","latitude":-5.812166,"longitude":-61.297484},"id":"Q43490","coordinates":[3297,4848]},{"type":"Point","properties":{" name":"Barcelos","scalerank":6,"subregion":"Amazonas","latitude":-0.974994,"longitude":-62.923896},"id":"Q807939","coordinates":[3252,5126]},{"type":"Point","properties":{" name":"Tonantins","scalerank":6,"subregion":"Amazonas","latitude":-2.872707,"longitude":-67.801893},"id":"Q1793355","coordinates":[3116,5017]},{"type":"Point","properties":{" name":"Tefé","scalerank":6,"subregion":"Amazonas","latitude":-3.360016,"longitude":-64.699989},"id":"Q975545","coordinates":[3202,4989]},{"type":"Point","properties":{" name":"Coari","scalerank":6,"subregion":"Amazonas","latitude":-4.079972,"longitude":-63.129982},"id":"Q645204","coordinates":[3246,4948]},{"type":"Point","properties":{" name":"São Gabriel da Cachoeira","scalerank":6,"subregion":"Amazonas","latitude":-0.133236,"longitude":-67.083306},"id":"Q694840","coordinates":[3136,5175]},{"type":"Point","properties":{" name":"Novo Airão","scalerank":6,"subregion":"Amazonas","latitude":-2.620785,"longitude":-60.943784},"id":"Q1750332","coordinates":[3307,5032]},{"type":"Point","properties":{" name":"Itacoatiara","scalerank":6,"subregion":"Amazonas","latitude":-3.140029,"longitude":-58.439984},"id":"Q1750426","coordinates":[3376,5002]},{"type":"Point","properties":{" name":"Parintins","scalerank":6,"subregion":"Amazonas","latitude":-2.610036,"longitude":-56.74001},"id":"Q926713","coordinates":[3424,5032]},{"type":"Point","properties":{" name":"Natal","scalerank":6,"subregion":"Amazonas","latitude":-6.983826,"longitude":-60.269949},"coordinates":[3326,4780]},{"type":"Point","properties":{" name":"Crato","scalerank":6,"subregion":"Amazonas","latitude":-7.4639,"longitude":-63.039961},"coordinates":[3249,4753]},{"type":"Point","properties":{" name":"Imperatriz","scalerank":6,"subregion":"Maranhão","latitude":-5.520039,"longitude":-47.490006},"id":"Q504755","coordinates":[3680,4865]},{"type":"Point","properties":{" name":"Balsas","scalerank":6,"subregion":"Maranhão","latitude":-7.52002,"longitude":-46.049991},"id":"Q1813001","coordinates":[3720,4749]},{"type":"Point","properties":{" name":"Breves","scalerank":6,"subregion":"Pará","latitude":-1.680015,"longitude":-50.490004},"id":"Q1804770","coordinates":[3597,5086]},{"type":"Point","properties":{" name":"Jacareacanga","scalerank":6,"subregion":"Par","latitude":-6.266609,"longitude":-57.650006},"id":"Q1805252","coordinates":[3395,4824]},{"type":"Point","properties":{" name":"Tucuruí","scalerank":6,"subregion":"Pará","latitude":-3.679996,"longitude":-49.719999},"id":"Q374432","coordinates":[3620,4966]},{"type":"Point","properties":{" name":"Itaituba","scalerank":6,"subregion":"Pará","latitude":-4.258617,"longitude":-55.925021},"id":"Q655734","coordinates":[3446,4937]},{"type":"Point","properties":{" name":"Conceição do Araguaia","scalerank":6,"subregion":"Pará","latitude":-8.250002,"longitude":-49.290025},"id":"Q1788037","coordinates":[3630,4707]},{"type":"Point","properties":{" name":"Abaetetuba","scalerank":6,"subregion":"Pará","latitude":-1.724531,"longitude":-48.88488},"id":"Q1615298","coordinates":[3642,5083]},{"type":"Point","properties":{" name":"Principe da Beira","scalerank":6,"subregion":"Rondinia","latitude":-12.416672,"longitude":-64.416647},"coordinates":[3210,4467]},{"type":"Point","properties":{" name":"Araguaína","scalerank":6,"subregion":"Tocantins","latitude":-7.190015,"longitude":-48.210014},"id":"Q625279","coordinates":[3660,4768]},{"type":"Point","properties":{" name":"Palmas","scalerank":6,"subregion":"Tocantins","latitude":-10.237736,"longitude":-48.287787},"id":"Q178993","coordinates":[3658,4593]},{"type":"Point","properties":{" name":"Teófilo Otoni","scalerank":6,"subregion":"Minas Gerais","latitude":-17.870035,"longitude":-41.50001},"id":"Q1637552","coordinates":[3847,4153]},{"type":"Point","properties":{" name":"Uberaba","scalerank":6,"subregion":"Minas Gerais","latitude":-19.779996,"longitude":-47.950004},"id":"Q381733","coordinates":[3668,4043]},{"type":"Point","properties":{" name":"Januária","scalerank":6,"subregion":"Minas Gerais","latitude":-15.48,"longitude":-44.36999},"id":"Q22062457","coordinates":[3767,4291]},{"type":"Point","properties":{" name":"Santissima Trindade","scalerank":6,"subregion":"Mato Grosso","latitude":-15.000029,"longitude":-59.950021},"id":"Q732088","coordinates":[3334,4319]},{"type":"Point","properties":{" name":"Aripuanã","scalerank":6,"subregion":"Mato Grosso","latitude":-10.17666,"longitude":-59.44387},"id":"Q1805412","coordinates":[3348,4596]},{"type":"Point","properties":{" name":"Sinop","scalerank":6,"subregion":"Mato Grosso","latitude":-11.849989,"longitude":-55.459985},"id":"Q180192","coordinates":[3459,4500]},{"type":"Point","properties":{" name":"Jaguarão","scalerank":6,"subregion":"Rio Grande do Sul","latitude":-32.560042,"longitude":-53.369983},"id":"Q942201","coordinates":[3517,3308]},{"type":"Point","properties":{" name":"Bagé","scalerank":6,"subregion":"Rio Grande do Sul","latitude":-31.320015,"longitude":-54.100016},"id":"Q119140","coordinates":[3497,3379]},{"type":"Point","properties":{" name":"Londrina","scalerank":6,"subregion":"Paraná","latitude":-23.300039,"longitude":-51.179987},"id":"Q192387","coordinates":[3578,3841]},{"type":"Point","properties":{" name":"Criciúma","scalerank":6,"subregion":"Santa Catarina","latitude":-28.680021,"longitude":-49.389968},"id":"Q1439157","coordinates":[3628,3531]},{"type":"Point","properties":{" name":"Aracati","scalerank":6,"subregion":"Ceará","latitude":-4.559994,"longitude":-37.770031},"id":"Q1754397","coordinates":[3950,4920]},{"type":"Point","properties":{" name":"Icó","scalerank":6,"subregion":"Ceará","latitude":-6.400037,"longitude":-38.849991},"id":"Q1807902","coordinates":[3920,4814]},{"type":"Point","properties":{" name":"Parnaíba","scalerank":6,"subregion":"Piauí","latitude":-2.910018,"longitude":-41.769968},"id":"Q1643864","coordinates":[3839,5015]},{"type":"Point","properties":{" name":"Picos","scalerank":6,"subregion":"Piauí","latitude":-7.079996,"longitude":-41.439988},"id":"Q1810825","coordinates":[3849,4775]},{"type":"Point","properties":{" name":"Arapiraca","scalerank":6,"subregion":"Alagoas","latitude":-9.750013,"longitude":-36.669995},"id":"Q626175","coordinates":[3981,4621]},{"type":"Point","properties":{" name":"Jequié","scalerank":6,"subregion":"Bahia","latitude":-13.850022,"longitude":-40.079993},"id":"Q630203","coordinates":[3886,4385]},{"type":"Point","properties":{" name":"Ilhéus","scalerank":6,"subregion":"Bahia","latitude":-14.780042,"longitude":-39.050004},"id":"Q373705","coordinates":[3915,4331]},{"type":"Point","properties":{" name":"Canavieiras","scalerank":6,"subregion":"Bahia","latitude":-15.640042,"longitude":-38.96001},"id":"Q1772515","coordinates":[3917,4282]},{"type":"Point","properties":{" name":"Santa Maria da Vitória","scalerank":6,"subregion":"Bahia","latitude":-13.389998,"longitude":-44.210025},"id":"Q1761852","coordinates":[3772,4411]},{"type":"Point","properties":{" name":"Irecê","scalerank":6,"subregion":"Bahia","latitude":-11.299996,"longitude":-41.870013},"id":"Q1762180","coordinates":[3837,4532]},{"type":"Point","properties":{" name":"Xique-Xique","scalerank":6,"subregion":"Bahia","latitude":-10.820026,"longitude":-42.730012},"id":"Q1762114","coordinates":[3813,4559]},{"type":"Point","properties":{" name":"Linhares","scalerank":6,"subregion":"Espírito Santo","latitude":-19.389994,"longitude":-40.050021},"id":"Q1755402","coordinates":[3887,4066]},{"type":"Point","properties":{" name":"Campos","scalerank":6,"subregion":"Rio de Janeiro","latitude":-21.749953,"longitude":-41.320021},"id":"Q689868","coordinates":[3852,3930]},{"type":"Point","properties":{" name":"Mossoró","scalerank":6,"subregion":"Rio Grande do Norte","latitude":-5.190033,"longitude":-37.340005},"id":"Q694845","coordinates":[3962,4884]},{"type":"Point","properties":{" name":"Aracaju","scalerank":6,"subregion":"Sergipe","latitude":-10.900021,"longitude":-37.119967},"id":"Q170578","coordinates":[3968,4555]},{"type":"Point","properties":{" name":"Laranjal do Jari","scalerank":6,"subregion":"Amapi","latitude":-0.85004,"longitude":-52.480011},"id":"Q1117969","coordinates":[3542,5134]},{"type":"Point","properties":{" name":"Amapá","scalerank":6,"subregion":"Amapi","latitude":2.04999,"longitude":-50.800011},"id":"Q586263","coordinates":[3589,5301]},{"type":"Point","properties":{" name":"Vila Velha","scalerank":6,"subregion":"Amapi","latitude":3.216663,"longitude":-51.216652},"coordinates":[3577,5368]},{"type":"Point","properties":{" name":"Santos","scalerank":6,"subregion":"São Paulo","latitude":-23.951778,"longitude":-46.334889},"id":"Q81882","coordinates":[3713,3803]},{"type":"Point","properties":{" name":"Bauru","scalerank":6,"subregion":"São Paulo","latitude":-22.330021,"longitude":-49.080012},"id":"Q241645","coordinates":[3636,3897]},{"type":"Point","properties":{" name":"Iguape","scalerank":6,"subregion":"São Paulo","latitude":-24.720004,"longitude":-47.569949},"id":"Q1646941","coordinates":[3678,3759]},{"type":"Point","properties":{" name":"Franca","scalerank":6,"subregion":"São Paulo","latitude":-20.530027,"longitude":-47.390012},"id":"Q504587","coordinates":[3683,4000]},{"type":"Point","properties":{" name":"Garanhuns","scalerank":6,"subregion":"Pernambuco","latitude":-8.890014,"longitude":-36.500031},"id":"Q771575","coordinates":[3986,4671]},{"type":"Point","properties":{" name":"Caruaru","scalerank":6,"subregion":"Pernambuco","latitude":-8.280026,"longitude":-35.980011},"id":"Q622830","coordinates":[4000,4706]},{"type":"Point","properties":{" name":"Rio Branco","scalerank":4,"subregion":"Acre","latitude":-9.966589,"longitude":-67.800007},"id":"Q171612","coordinates":[3116,4609]},{"type":"Point","properties":{" name":"São Luís","scalerank":4,"subregion":"Maranhão","latitude":-2.514039,"longitude":-44.267937},"id":"Q28441","coordinates":[3770,5038]},{"type":"Point","properties":{" name":"Porto Velho","scalerank":4,"subregion":"Rondônia","latitude":-8.750023,"longitude":-63.900012},"id":"Q172512","coordinates":[3225,4679]},{"type":"Point","properties":{" name":"Alvorada","scalerank":4,"subregion":"Tocantins","latitude":-12.470002,"longitude":-49.082002},"id":"Q22060164","coordinates":[3636,4464]},{"type":"Point","properties":{" name":"Corumbá","scalerank":4,"subregion":"Mato Grosso do Sul","latitude":-19.016011,"longitude":-57.650006},"id":"Q271215","coordinates":[3398,4087]},{"type":"Point","properties":{" name":"Belo Horizonte","scalerank":4,"subregion":"Minas Gerais","latitude":-19.91308,"longitude":-43.91695},"id":"Q42800","coordinates":[3780,4036]},{"type":"Point","properties":{" name":"Montes Claros","scalerank":4,"subregion":"Minas Gerais","latitude":-16.720027,"longitude":-43.860021},"id":"Q651906","coordinates":[3781,4220]},{"type":"Point","properties":{" name":"Uberlândia","scalerank":4,"subregion":"Minas Gerais","latitude":-18.899998,"longitude":-48.279984},"id":"Q194328","coordinates":[3659,4094]},{"type":"Point","properties":{" name":"Colíder","scalerank":4,"subregion":"Mato Grosso","latitude":-10.817287,"longitude":-55.45058},"id":"Q1805608","coordinates":[3459,4560]},{"type":"Point","properties":{" name":"Alta Floresta","scalerank":4,"subregion":"Mato Grosso","latitude":-9.90003,"longitude":-55.909983},"id":"Q433574","coordinates":[3447,4612]},{"type":"Point","properties":{" name":"Cuiabá","scalerank":4,"subregion":"Mato Grosso","latitude":-15.567661,"longitude":-56.086931},"id":"Q170762","coordinates":[3442,4286]},{"type":"Point","properties":{" name":"Pelotas","scalerank":4,"subregion":"Rio Grande do Sul","latitude":-31.750014,"longitude":-52.330021},"id":"Q109188","coordinates":[3546,3354]},{"type":"Point","properties":{" name":"Caxias do Sul","scalerank":4,"subregion":"Rio Grande do Sul","latitude":-29.17999,"longitude":-51.17004},"id":"Q110017","coordinates":[3578,3502]},{"type":"Point","properties":{" name":"Ponta Grossa","scalerank":4,"subregion":"Paraná","latitude":-25.090007,"longitude":-50.16005},"id":"Q242906","coordinates":[3606,3738]},{"type":"Point","properties":{" name":"Teresina","scalerank":4,"subregion":"Piauí","latitude":-5.093055,"longitude":-42.781955},"id":"Q165341","coordinates":[3811,4889]},{"type":"Point","properties":{" name":"Maceió","scalerank":4,"subregion":"Alagoas","latitude":-9.61805,"longitude":-35.73192},"id":"Q168888","coordinates":[4007,4629]},{"type":"Point","properties":{" name":"Vitória da Conquista","scalerank":4,"subregion":"Bahia","latitude":-14.850012,"longitude":-40.839998},"id":"Q22062839","coordinates":[3865,4327]},{"type":"Point","properties":{" name":"Barreiras","scalerank":4,"subregion":"Bahia","latitude":-12.139997,"longitude":-45.000003},"id":"Q1384520","coordinates":[3750,4483]},{"type":"Point","properties":{" name":"Vila Velha","scalerank":4,"subregion":"Espírito Santo","latitude":-20.367608,"longitude":-40.317989},"id":"Q334197","coordinates":[3880,4011]},{"type":"Point","properties":{" name":"Natal","scalerank":4,"subregion":"Rio Grande do Norte","latitude":-5.778077,"longitude":-35.24195},"id":"Q131620","coordinates":[4021,4850]},{"type":"Point","properties":{" name":"Campinas","scalerank":4,"subregion":"São Paulo","latitude":-22.898066,"longitude":-47.101976},"id":"Q171617","coordinates":[3693,3863]},{"type":"Point","properties":{" name":"Sorocaba","scalerank":4,"subregion":"São Paulo","latitude":-23.490002,"longitude":-47.469981},"id":"Q188901","coordinates":[3681,3830]},{"type":"Point","properties":{" name":"Ribeirão Preto","scalerank":4,"subregion":"São Paulo","latitude":-21.17004,"longitude":-47.829985},"id":"Q188892","coordinates":[3671,3963]},{"type":"Point","properties":{" name":"Petrolina","scalerank":4,"subregion":"Pernambuco","latitude":-9.38001,"longitude":-40.509967},"id":"Q842143","coordinates":[3874,4642]},{"type":"Point","properties":{" name":"Cruzeiro do Sul","scalerank":3,"subregion":"Acre","latitude":-7.629988,"longitude":-72.669968},"id":"Q941136","coordinates":[2981,4743]},{"type":"Point","properties":{" name":"Manaus","scalerank":3,"subregion":"Amazonas","latitude":-3.098086,"longitude":-60.001963},"id":"Q40236","coordinates":[3333,5004]},{"type":"Point","properties":{" name":"Caxias","scalerank":3,"subregion":"Maranh","latitude":-4.833001,"longitude":-43.350026},"id":"Q997107","coordinates":[3795,4904]},{"type":"Point","properties":{" name":"Santarém","scalerank":3,"subregion":"Pará","latitude":-2.433251,"longitude":-54.699979},"id":"Q659450","coordinates":[3480,5042]},{"type":"Point","properties":{" name":"Marabá","scalerank":3,"subregion":"Pará","latitude":-5.349972,"longitude":-49.115979},"id":"Q509818","coordinates":[3635,4874]},{"type":"Point","properties":{" name":"Vilhena","scalerank":3,"subregion":"Rondônia","latitude":-12.716602,"longitude":-60.1166},"id":"Q1749958","coordinates":[3330,4450]},{"type":"Point","properties":{" name":"Ji-Paraná","scalerank":3,"subregion":"Rondinia","latitude":-10.833307,"longitude":-61.967003},"id":"Q983815","coordinates":[3278,4559]},{"type":"Point","properties":{" name":"Campo Grande","scalerank":3,"subregion":"Mato Grosso do Sul","latitude":-20.448086,"longitude":-54.618571},"id":"Q168929","coordinates":[3482,4005]},{"type":"Point","properties":{" name":"Florianópolis","scalerank":3,"subregion":"Santa Catarina","latitude":-27.578039,"longitude":-48.521966},"id":"Q132997","coordinates":[3652,3594]},{"type":"Point","properties":{" name":"Feira de Santana","scalerank":3,"subregion":"Bahia","latitude":-12.250016,"longitude":-38.970009},"id":"Q194343","coordinates":[3917,4477]},{"type":"Point","properties":{" name":"Boa Vista","scalerank":3,"subregion":"Roraima","latitude":2.816093,"longitude":-60.665998},"id":"Q181056","coordinates":[3315,5345]},{"type":"Point","properties":{" name":"Macapá","scalerank":3,"subregion":"Amapá","latitude":0.033007,"longitude":-51.050021},"id":"Q180215","coordinates":[3582,5184]},{"type":"Point","properties":{" name":"Belém","scalerank":2,"subregion":"Pará","latitude":-1.448057,"longitude":-48.481969},"id":"Q12829733","coordinates":[3653,5099]},{"type":"Point","properties":{" name":"Brasília","scalerank":2,"subregion":"Distrito Federal","latitude":-15.781394,"longitude":-47.917998},"id":"Q2844","coordinates":[3669,4274]},{"type":"Point","properties":{" name":"Porto Alegre","scalerank":2,"subregion":"Rio Grande do Sul","latitude":-30.048069,"longitude":-51.201958},"id":"Q40269","coordinates":[3577,3452]},{"type":"Point","properties":{" name":"Curitiba","scalerank":2,"subregion":"Paraná","latitude":-25.418067,"longitude":-49.321944},"id":"Q4361","coordinates":[3630,3719]},{"type":"Point","properties":{" name":"Fortaleza","scalerank":2,"subregion":"Ceará","latitude":-3.748072,"longitude":-38.581927},"id":"Q43463","coordinates":[3928,4967]},{"type":"Point","properties":{" name":"Salvador","scalerank":2,"subregion":"Bahia","latitude":-12.968026,"longitude":-38.481933},"id":"Q36947","coordinates":[3931,4436]},{"type":"Point","properties":{" name":"Goiânia","scalerank":2,"subregion":"Goiás","latitude":-16.718081,"longitude":-49.301971},"id":"Q83189","coordinates":[3630,4220]},{"type":"Point","properties":{" name":"Recife","scalerank":2,"subregion":"Pernambuco","latitude":-8.0737,"longitude":-34.917551},"id":"Q48344","coordinates":[4030,4718]},{"type":"Point","properties":{" name":"Rio de Janeiro","scalerank":0,"subregion":"Rio de Janeiro","latitude":-22.923077,"longitude":-43.226967},"id":"Q8678","coordinates":[3799,3863]},{"type":"Point","properties":{" name":"São Paulo","scalerank":0,"subregion":"São Paulo","latitude":-23.556734,"longitude":-46.626966},"id":"Q174","coordinates":[3704,3826]}]},"land":{"type":"GeometryCollection","name":"BRA_land","crs":{"type":"name","properties":{"name":"urn:ogc:def:crs:OGC:1.3:CRS84"}},"geometries":[{"type":"Polygon","properties":{"scalerank":1},"arcs":[[111]]},{"type":"Polygon","properties":{"scalerank":1},"arcs":[[112]]},{"type":"Polygon","properties":{"scalerank":1},"arcs":[[113]]},{"type":"Polygon","properties":{"scalerank":1},"arcs":[[114]]},{"type":"Polygon","properties":{"scalerank":1},"arcs":[[115]]},{"type":"Polygon","properties":{"scalerank":1},"arcs":[[116]]},{"type":"Polygon","properties":{"scalerank":1},"arcs":[[117]]},{"type":"Polygon","properties":{"scalerank":0},"arcs":[[118]]},{"type":"Polygon","properties":{"scalerank":0},"arcs":[[119]]},{"type":"Polygon","properties":{"scalerank":0},"arcs":[[120]]},{"type":"Polygon","properties":{"scalerank":0},"arcs":[[121]]},{"type":"Polygon","properties":{"scalerank":0},"arcs":[[122]]},{"type":"Polygon","properties":{"scalerank":0},"arcs":[[123]]},{"type":"Polygon","properties":{"scalerank":0},"arcs":[[124]]},{"type":"Polygon","properties":{"scalerank":1},"arcs":[[125]]},{"type":"Polygon","properties":{"scalerank":0},"arcs":[[126]]},{"type":"Polygon","properties":{"scalerank":0},"arcs":[[127,128]]},{"type":"Polygon","properties":{"scalerank":1},"arcs":[[129,-129]]},{"type":"Polygon","properties":{"scalerank":1},"arcs":[[130]]},{"type":"Polygon","properties":{"scalerank":1},"arcs":[[131]]},{"type":"Polygon","properties":{"scalerank":0},"arcs":[[132]]},{"type":"Polygon","properties":{"scalerank":0},"arcs":[[133]]},{"type":"Polygon","properties":{"scalerank":1},"arcs":[[134]]},{"type":"Polygon","properties":{"scalerank":1},"arcs":[[135]]},{"type":"Polygon","properties":{"scalerank":1},"arcs":[[136]]},{"type":"Polygon","properties":{"scalerank":1},"arcs":[[137]]},{"type":"Polygon","properties":{"scalerank":1},"arcs":[[138]]},{"type":"Polygon","properties":{"scalerank":1},"arcs":[[139]]},{"type":"Polygon","properties":{"scalerank":1},"arcs":[[140]]},{"type":"Polygon","properties":{"scalerank":1},"arcs":[[141]]},{"type":"Polygon","properties":{"scalerank":1},"arcs":[[142]]},{"type":"Polygon","properties":{"scalerank":0},"arcs":[[143]]},{"type":"Polygon","properties":{"scalerank":1},"arcs":[[144]]},{"type":"Polygon","properties":{"scalerank":1},"arcs":[[145]]},{"type":"Polygon","properties":{"scalerank":1},"arcs":[[146]]},{"type":"Polygon","properties":{"scalerank":1},"arcs":[[147]]},{"type":"Polygon","properties":{"scalerank":1},"arcs":[[148]]},{"type":"Polygon","properties":{"scalerank":1},"arcs":[[149]]},{"type":"Polygon","properties":{"scalerank":0},"arcs":[[150]]},{"type":"Polygon","properties":{"scalerank":0},"arcs":[[151]]},{"type":"Polygon","properties":{"scalerank":1},"arcs":[[152]]},{"type":"Polygon","properties":{"scalerank":0},"arcs":[[153]]},{"type":"Polygon","properties":{"scalerank":0},"arcs":[[154]]},{"type":"Polygon","properties":{"scalerank":0},"arcs":[[155]]},{"type":"Polygon","properties":{"scalerank":1},"arcs":[[156]]},{"type":"Polygon","properties":{"scalerank":0},"arcs":[[157]]},{"type":"Polygon","properties":{"scalerank":1},"arcs":[[158]]},{"type":"Polygon","properties":{"scalerank":1},"arcs":[[159]]},{"type":"Polygon","properties":{"scalerank":1},"arcs":[[160]]},{"type":"Polygon","properties":{"scalerank":0},"arcs":[[161]]},{"type":"Polygon","properties":{"scalerank":1},"arcs":[[162]]},{"type":"Polygon","properties":{"scalerank":0},"arcs":[[163]]},{"type":"Polygon","properties":{"scalerank":1},"arcs":[[164]]},{"type":"Polygon","properties":{"scalerank":1},"arcs":[[165]]},{"type":"Polygon","properties":{"scalerank":0},"arcs":[[166]]},{"type":"Polygon","properties":{"scalerank":1},"arcs":[[167]]},{"type":"Polygon","properties":{"scalerank":0},"arcs":[[168]]},{"type":"Polygon","properties":{"scalerank":0},"arcs":[[169]]},{"type":"Polygon","properties":{"scalerank":0},"arcs":[[170]]},{"type":"Polygon","properties":{"scalerank":0},"arcs":[[171]]},{"type":"Polygon","properties":{"scalerank":0},"arcs":[[172]]},{"type":"Polygon","properties":{"scalerank":0},"arcs":[[173]]},{"type":"Polygon","properties":{"scalerank":0},"arcs":[[174]]},{"type":"Polygon","properties":{"scalerank":1},"arcs":[[175]]},{"type":"Polygon","properties":{"scalerank":0},"arcs":[[176]]},{"type":"Polygon","properties":{"scalerank":0},"arcs":[[177]]},{"type":"Polygon","properties":{"scalerank":1},"arcs":[[178]]},{"type":"Polygon","properties":{"scalerank":1},"arcs":[[179]]},{"type":"Polygon","properties":{"scalerank":1},"arcs":[[180]]},{"type":"Polygon","properties":{"scalerank":1},"arcs":[[181]]},{"type":"Polygon","properties":{"scalerank":1},"arcs":[[182]]},{"type":"Polygon","properties":{"scalerank":0},"arcs":[[183]]},{"type":"Polygon","properties":{"scalerank":1},"arcs":[[184]]},{"type":"Polygon","properties":{"scalerank":0},"arcs":[[185]]},{"type":"Polygon","properties":{"scalerank":0},"arcs":[[186]]},{"type":"Polygon","properties":{"scalerank":0},"arcs":[[187]]},{"type":"Polygon","properties":{"scalerank":1},"arcs":[[188]]},{"type":"Polygon","properties":{"scalerank":0},"arcs":[[189]]},{"type":"Polygon","properties":{"scalerank":1},"arcs":[[190]]},{"type":"Polygon","properties":{"scalerank":0},"arcs":[[191]]},{"type":"Polygon","properties":{"scalerank":0},"arcs":[[192]]},{"type":"Polygon","properties":{"scalerank":1},"arcs":[[193]]},{"type":"Polygon","properties":{"scalerank":1},"arcs":[[194]]},{"type":"Polygon","properties":{"scalerank":0},"arcs":[[195]]},{"type":"Polygon","properties":{"scalerank":0},"arcs":[[196]]},{"type":"Polygon","properties":{"scalerank":0},"arcs":[[197]]},{"type":"Polygon","properties":{"scalerank":0},"arcs":[[198]]},{"type":"Polygon","properties":{"scalerank":1},"arcs":[[199]]},{"type":"Polygon","properties":{"scalerank":1},"arcs":[[200]]},{"type":"Polygon","properties":{"scalerank":0},"arcs":[[201]]},{"type":"Polygon","properties":{"scalerank":0},"arcs":[[202]]},{"type":"Polygon","properties":{"scalerank":0},"arcs":[[203]]},{"type":"Polygon","properties":{"scalerank":1},"arcs":[[204]]},{"type":"Polygon","properties":{"scalerank":0},"arcs":[[205]]},{"type":"Polygon","properties":{"scalerank":0},"arcs":[[206]]},{"type":"Polygon","properties":{"scalerank":0},"arcs":[[207]]},{"type":"Polygon","properties":{"scalerank":0},"arcs":[[208]]},{"type":"Polygon","properties":{"scalerank":0},"arcs":[[209]]},{"type":"Polygon","properties":{"scalerank":0},"arcs":[[210]]},{"type":"Polygon","properties":{"scalerank":0},"arcs":[[211]]},{"type":"Polygon","properties":{"scalerank":0},"arcs":[[212]]},{"type":"Polygon","properties":{"scalerank":0},"arcs":[[213]]},{"type":"Polygon","properties":{"scalerank":0},"arcs":[[214]]},{"type":"Polygon","properties":{"scalerank":0},"arcs":[[215]]},{"type":"Polygon","properties":{"scalerank":0},"arcs":[[216]]},{"type":"Polygon","properties":{"scalerank":1},"arcs":[[217]]},{"type":"Polygon","properties":{"scalerank":0},"arcs":[[218]]},{"type":"Polygon","properties":{"scalerank":0},"arcs":[[219]]},{"type":"Polygon","properties":{"scalerank":0},"arcs":[[220]]},{"type":"Polygon","properties":{"scalerank":0},"arcs":[[221]]},{"type":"Polygon","properties":{"scalerank":0},"arcs":[[222]]},{"type":"Polygon","properties":{"scalerank":1},"arcs":[[223]]},{"type":"Polygon","properties":{"scalerank":0},"arcs":[[224],[225]]},{"type":"Polygon","properties":{"scalerank":1},"arcs":[[226]]},{"type":"Polygon","properties":{"scalerank":1},"arcs":[[227]]},{"type":"Polygon","properties":{"scalerank":1},"arcs":[[228]]},{"type":"Polygon","properties":{"scalerank":1},"arcs":[[229]]},{"type":"Polygon","properties":{"scalerank":1},"arcs":[[230]]},{"type":"Polygon","properties":{"scalerank":1},"arcs":[[231]]},{"type":"Polygon","properties":{"scalerank":0},"arcs":[[232]]},{"type":"Polygon","properties":{"scalerank":0},"arcs":[[233]]},{"type":"Polygon","properties":{"scalerank":0},"arcs":[[234]]},{"type":"Polygon","properties":{"scalerank":1},"arcs":[[235]]},{"type":"Polygon","properties":{"scalerank":0},"arcs":[[236]]},{"type":"Polygon","properties":{"scalerank":0},"arcs":[[237]]},{"type":"Polygon","properties":{"scalerank":0},"arcs":[[238]]},{"type":"Polygon","properties":{"scalerank":0},"arcs":[[239]]}]}},"arcs":[[[3504,3618],[2,-1],[2,2],[1,-4],[2,2],[2,-1],[1,4],[2,1],[1,3],[4,-6],[2,0],[2,1],[1,3],[1,0],[1,-5],[2,-1],[1,2],[4,-5],[3,0],[2,1],[8,-3],[2,1],[2,-3],[3,0],[0,-4],[3,-3],[0,-4],[3,0],[5,1],[2,-4],[1,1],[5,-7],[3,-5],[1,0],[3,-4],[2,-6],[3,-5],[1,-6],[2,-2],[1,-5],[1,-1],[3,-6],[2,-3],[1,1],[8,-3],[1,-2],[4,0],[2,2],[2,0],[1,-2],[3,-1],[1,-5],[-3,-2],[-1,-4],[-2,-2],[-1,-7],[0,-6],[-1,-8],[-2,0],[-3,-6],[0,-5],[2,-2],[1,5],[2,1],[3,0],[2,-3],[3,-3]],[[3619,3494],[-3,-7],[-5,-18],[-2,-3],[-7,-38],[-11,-33],[-5,-10],[-4,-9],[-3,-6],[-12,-17],[-8,-9],[-5,-10],[0,6],[1,3],[-2,5],[1,3],[3,-4],[3,1],[1,4],[3,1],[5,9],[2,7],[3,-1],[2,3],[2,6],[1,8],[-1,4],[1,5],[1,-1],[3,2],[2,8],[5,6],[2,4],[0,15],[-1,6],[1,1],[2,-8],[2,10],[0,4],[-2,3],[-2,-2],[0,-4],[-2,0],[-1,-2],[-3,1],[-1,-1],[0,-6],[-3,3],[1,6],[-2,2],[-1,-1],[-4,5],[0,8],[-1,0],[-1,-7],[2,-5],[-1,-2],[4,-8],[-2,1],[-1,-4],[-1,-9],[-3,-2],[0,-7],[1,-6],[-3,0],[0,-7],[1,-4],[-5,-3],[-1,-8],[-4,0],[-2,-3],[-2,1],[-2,-7],[0,-7],[-2,-4],[1,-2],[-1,-2],[-3,-2],[-1,-5],[-1,-2],[2,-6],[-1,-1],[-1,-5],[3,-4],[1,-3],[-4,-6],[-3,-13],[-3,-17],[-4,-18],[-3,-8],[-3,-4],[-7,-12],[-5,-9],[-3,-3],[-5,5],[1,14],[0,16],[2,5],[3,4],[1,5],[3,5],[2,4],[-2,5],[-2,2],[-4,2],[-4,7],[-3,6],[0,7],[-2,3],[-1,7],[-2,1],[-3,5],[-3,4],[-2,-2],[-4,5],[-5,9],[-1,5],[-3,6],[-6,2],[-4,6],[-2,4],[-2,-3],[-4,5],[-1,5],[-2,1],[0,4],[-2,5],[-5,7],[-1,-2],[0,-3],[-2,0],[-1,-4],[-3,-4],[-4,0],[0,16],[-2,3],[-1,4],[-3,6],[-4,5],[-2,4],[-2,3],[-5,9],[-4,6],[-3,0],[-5,-1],[-1,-4],[0,-3],[-2,-3],[-2,0],[-1,1],[-6,0],[-1,5],[-1,0],[3,3],[3,6],[2,3],[1,8],[2,4],[4,1],[3,7],[0,2],[4,7],[1,5],[3,5],[1,5],[1,3],[3,4],[3,3],[0,5],[3,4],[0,6],[3,2],[2,6],[2,3],[1,6],[3,2],[0,4],[1,2],[5,-2],[0,3],[-3,6],[3,2],[2,3],[2,0],[1,4],[2,0],[3,8],[3,4],[5,1],[1,4],[2,2],[1,7],[1,0],[1,4],[1,-1],[2,1],[2,2],[1,3],[2,-1],[2,1],[0,3],[5,-1],[2,10],[3,-2],[4,8],[3,-1]],[[3362,5258],[2,-63]],[[3364,5195],[-25,1],[-7,-1],[-1,-3],[-2,-2],[-1,-7],[-1,-3],[-1,-6],[-2,-5],[0,-4],[-2,-9],[0,-3],[3,-9],[-1,-2],[-4,-2],[-1,-5],[-3,-1],[-1,-1],[-2,1],[-3,9],[-2,4],[-1,4],[-3,1],[-2,2],[-3,0],[-1,-3],[-4,-3],[-2,-2],[-2,-5],[-1,-13],[1,-4],[-2,-15],[1,-7],[-4,0],[-1,2],[-2,-1],[-1,1],[-2,7],[-1,2],[-1,4],[-3,4],[-2,1],[-1,4],[-2,2],[-3,7],[-3,3],[1,5],[3,-2],[2,5],[0,7],[-2,3],[0,7],[-1,4],[-2,3],[-2,10],[-1,3],[2,5],[-1,5],[0,4],[1,3],[0,7],[1,4],[0,3],[-1,7],[0,4],[2,4],[-2,9],[0,5],[-3,18],[0,3],[-3,5],[-1,6],[1,5],[1,2],[-1,6],[1,3],[0,4],[-4,4],[-4,0],[-2,1],[-2,4],[0,4],[-3,-1],[-3,1],[-1,3]],[[3239,5311],[1,10],[-1,1],[-9,1],[-3,-1],[-6,3],[-1,2],[2,5],[0,6],[-1,6],[-2,8],[-3,10],[0,8],[-1,9],[1,6],[0,4],[-3,8],[-3,3],[-3,4],[-1,4],[-3,5],[-1,8],[-2,3],[0,5],[2,-1],[2,-3],[2,-5],[6,2],[3,-1],[3,-3],[2,-10],[2,-2],[3,4],[4,-1],[3,0],[3,-5],[2,1],[1,6],[2,-1],[2,-2],[2,-6],[2,-3],[4,-9],[3,-2],[2,2],[2,3],[0,7],[-1,7],[0,7],[3,1],[3,0],[1,5],[2,3],[2,0],[5,-5],[2,1],[2,3],[3,-1],[3,2],[3,4],[2,0],[3,1],[1,6],[2,3],[3,0],[1,2],[0,4],[4,-2],[4,2],[2,3],[1,7],[4,3],[2,4],[2,5],[0,5],[-1,10],[-3,2],[2,1],[6,-3],[1,2],[3,0],[1,3],[2,1],[1,-3],[1,1],[2,-5],[2,-4],[-1,-17],[0,-3],[-1,-7],[-2,-3],[0,-3],[1,1],[1,-2],[4,1],[0,-2],[4,-1],[3,-5],[-2,-5],[0,-5],[3,-3],[-1,-4],[4,-8],[-1,-2],[-1,-5],[-2,-3],[0,-3],[-2,-4],[-2,-2],[-1,-3],[1,-4],[0,-6],[-3,-11],[0,-4],[-1,-3],[-1,-12],[0,-9],[2,-8],[1,-6],[0,-6],[4,-5],[0,-24],[3,-1],[-1,-4],[1,-2],[2,0],[1,-1],[1,-4],[5,-10],[2,-5],[8,-4]],[[3478,5324],[1,-2],[1,-9],[-2,-8],[1,-3],[-1,-2],[0,-4],[1,-10],[2,-2],[3,1],[2,-2],[3,1],[2,-2],[3,-4],[1,0],[2,-7],[3,-1],[2,-3],[1,-4],[2,1],[4,0],[0,-3],[3,0],[1,-7],[2,1],[1,-4],[-2,-2],[2,-12],[2,-4],[2,-6],[4,-1],[0,-21],[1,-6],[1,-2],[1,-7],[0,-4],[1,-4],[2,-11],[2,1],[4,-7],[2,-5],[0,-13],[3,-2],[0,-13],[3,0],[1,-3],[-1,-2],[1,-6],[4,-4],[3,-1],[1,-1],[5,1]],[[3558,5116],[-1,-1],[0,-9],[-2,-4],[-2,0],[-2,1],[-1,2],[-2,-2],[-4,-2],[-2,-4],[-2,-2],[-4,-1],[0,-4],[3,2],[4,0],[3,1],[1,2],[2,-5],[-1,-3],[2,-2],[2,4],[3,1],[3,2],[6,10],[2,1],[5,4],[1,3],[4,2],[1,5],[1,2],[4,4],[1,3],[0,3],[2,1],[2,0],[1,-1],[0,-6],[-2,-5],[2,-6],[0,-12],[1,-6],[3,-4],[1,-8],[-1,-1],[-3,-7],[2,-1],[0,3],[1,3],[2,-1],[1,-4],[3,-3],[1,-7],[1,5],[3,4],[2,0],[3,3],[3,1],[5,-4],[4,0],[3,4],[2,4],[2,-2],[-1,-4],[2,-2],[0,-6],[-1,-3],[-1,-7],[-1,-5],[0,-3],[-2,-5],[0,-6],[-1,-6],[-1,-3],[3,2],[2,9],[1,6],[2,10],[1,6],[2,8],[2,6],[1,5],[3,5],[1,4],[3,0],[0,-4],[2,3],[4,14],[3,-12],[4,-3],[-1,4],[-1,2],[3,1],[-1,4],[-1,-1],[-2,1],[1,10],[4,-2],[1,7],[1,3],[-1,5],[3,1],[1,4],[0,10],[3,7],[2,-6],[1,2],[3,3],[0,5],[3,-3],[0,-4],[2,0],[1,2],[1,6],[2,-5],[1,-4],[0,7],[2,-3],[3,4],[3,-3],[-1,-3],[2,-1],[2,3],[0,-5],[1,-4],[1,4],[1,-1],[2,-5],[1,5],[2,-5],[5,3],[0,-7],[1,0],[2,3],[1,-2],[0,-6],[2,-1],[3,0],[1,6],[2,0],[-1,-5],[0,-7],[1,-1],[2,5],[1,-5],[0,-3]],[[3720,5113],[-2,-2],[-1,-4],[1,-2],[-2,-8],[1,-5],[-1,-6],[-1,-3],[-2,0],[0,-4],[3,-1],[0,-7],[-2,-12],[-3,-6],[-2,-6],[1,-9],[-2,-2],[0,-4],[-3,-3],[-2,-4],[2,-6],[-1,-3],[0,-6],[-1,-6],[-2,-5],[-2,-8],[-1,0],[-2,-4],[-1,-8],[-2,-2],[0,-6],[-1,-10],[-5,-12],[-2,-1],[0,-5],[-2,-7],[-2,-3],[-1,-5],[-2,-7],[-2,-4],[-4,1],[-13,-21],[-13,-22],[0,-1]],[[3646,4874],[5,-3],[4,1],[1,-1],[1,-5],[2,-2],[1,0],[2,-7],[-1,-3],[-3,-1],[0,-5],[2,-6],[0,-2],[-3,-2],[0,-2],[1,-2],[0,-3],[-3,-2],[-1,-2],[1,-11],[-3,1],[-3,-5],[-1,-6],[0,-5],[-1,-2],[-3,-3],[-6,-4],[-5,-7],[-1,-4],[1,-6],[0,-9],[-1,-4],[-4,-11],[0,-9],[2,-4],[4,-5],[-1,-15],[-1,-3],[-2,-15],[-2,-3],[-1,-7],[-2,-7],[0,-2],[-3,-7],[-2,-2],[-2,-3],[-5,-15],[-2,-2],[-2,-6],[-1,-10],[0,-6],[-1,-6],[-1,-2],[-2,-6]],[[3604,4616],[-29,3],[-106,13],[-38,5],[-3,4],[-3,1],[-2,-1],[-1,2],[-1,5],[-3,2],[-3,1],[-1,2],[0,7],[-6,7],[-2,4],[-3,5],[-3,2],[-1,6],[0,3],[-1,6],[-1,4],[2,12],[-4,10],[-2,10],[-1,6],[0,5],[-2,4],[-1,5],[-2,7],[-2,4]],[[3385,4760],[-1,2],[-1,8],[0,3],[-3,6],[-2,3],[-1,4],[-1,6],[0,5],[1,3],[2,4],[1,4],[43,191],[10,46],[0,7],[-2,1],[0,4],[-1,1],[-4,-4],[-3,3],[0,7],[-2,1],[-5,6],[-2,7],[-2,3],[-2,0],[-1,3],[-2,-1],[-3,2],[-3,4],[-3,2],[-5,8],[-2,2],[-2,4],[-3,3],[-1,3],[-2,2],[-2,4],[-1,1],[-2,4],[-2,11],[-3,5],[-2,0],[-2,4],[-1,5],[0,11],[-2,2],[-1,2],[0,16],[-1,17]],[[3362,5258],[3,-7],[2,1],[3,4],[4,-1],[1,4],[0,7],[2,1],[2,7],[2,-2],[2,1],[1,-3],[4,0],[1,3],[0,5],[2,-1],[3,4],[2,0],[3,-1],[2,1],[2,6],[1,5],[3,4],[3,-1],[3,4],[3,-6],[2,0],[1,-2],[3,-1],[2,3],[2,1],[2,-2],[3,2],[2,-1],[1,1],[3,-3],[1,0],[6,-3],[1,1],[1,4],[0,8],[-3,6],[-1,5],[-2,0],[1,5],[1,0],[2,4],[0,7],[2,-1],[4,-4],[2,-3],[3,3],[6,-1],[1,4],[1,2],[2,-2],[2,4],[2,-2],[2,4],[4,-9],[3,1]],[[3631,5081],[-1,-2],[-2,-6],[-2,3],[1,4],[2,4],[2,-3]],[[3657,5121],[1,-4],[-1,-4],[-1,-1],[-3,3],[2,5],[2,1]],[[3661,5135],[1,-2],[0,-4],[-1,-5],[-3,0],[-1,2],[3,8],[1,1]],[[3668,5146],[1,-3],[-2,-3],[0,4],[1,2]],[[3588,5147],[0,-3],[-1,-3],[-2,-1],[-1,-2],[-4,-3],[0,5],[1,4],[2,0],[1,4],[3,2],[1,-3]],[[3676,5149],[0,-7],[-1,0],[-2,7],[3,0]],[[3578,5147],[1,-4],[-2,-9],[-2,-10],[-1,0],[-3,-10],[-3,-6],[-4,-3],[-3,-6],[-3,-2],[-2,4],[2,4],[1,6],[2,3],[0,2],[2,1],[1,5],[0,12],[2,3],[1,5],[2,6],[2,3],[3,2],[2,-2],[2,-4]],[[3578,5174],[1,-1],[0,-6],[-2,-4],[-4,-7],[-1,1],[2,4],[2,9],[2,4]],[[3653,5149],[0,-9],[-2,-4],[0,-5],[-2,-2],[-1,-9],[-5,-7],[1,-4],[-1,-8],[-3,7],[1,-5],[2,-4],[-2,-3],[-4,-2],[-2,2],[-1,6],[-1,0],[-1,-13],[-2,0],[-1,3],[-1,-4],[-2,1],[-1,2],[-2,-3],[0,-5],[-2,0],[-1,-3],[-2,0],[-2,-2],[-3,3],[-2,1],[-2,2],[-3,-4],[0,2],[-3,1],[0,-4],[-3,-2],[-5,2],[-1,6],[-4,9],[-2,6],[0,7],[1,8],[0,5],[3,-3],[3,2],[0,3],[-3,-3],[-2,1],[-1,4],[0,20],[1,7],[1,11],[2,5],[2,4],[2,2],[2,0],[2,3],[7,-1],[12,-6],[7,0],[1,3],[5,2],[5,-1],[1,-1],[2,1],[1,-3],[2,1],[3,-2],[3,0],[4,-1],[2,-3],[0,-4],[-1,-2],[-1,-4],[-1,-6]],[[3584,5166],[-2,3],[0,4],[2,9],[5,3],[3,-3],[1,-4],[-2,-5],[-2,-3],[-4,-7],[-1,3]],[[3615,5177],[1,1],[2,4],[3,4],[3,1],[3,0],[2,-5],[0,-3],[-4,-4],[-6,0],[0,-1],[-4,3]],[[3593,5187],[0,4],[1,2],[3,-1],[1,-2],[1,-7],[-1,-1],[-3,0],[-2,5]],[[3610,5200],[3,-1],[7,6],[3,0],[1,-5],[-5,-6],[-2,-4],[-2,-7],[-4,-4],[-2,4],[-4,2],[-3,-2],[-1,2],[0,4],[-1,1],[1,5],[3,1],[4,-1],[2,5]],[[3600,5197],[-1,-1],[0,-4],[-3,2],[2,4],[1,7],[0,9],[1,4],[1,-3],[0,-9],[1,-4],[0,-3],[-2,-2]],[[3602,5206],[0,7],[2,4],[3,0],[2,3],[1,-3],[0,-5],[-4,-6],[-3,-3],[-1,3]],[[3625,5087],[2,-3],[-2,-2],[-1,4],[1,1]],[[2950,4773],[31,-28],[64,-32],[16,-17],[82,-80]],[[3143,4616],[5,-5]],[[3148,4611],[0,-2],[-3,-2],[-4,-6],[-4,-9],[-4,-4],[-2,1],[-2,-1],[0,-3],[-2,0],[-2,-5],[-3,-2],[-2,-7],[-1,-5],[-1,0],[-3,3],[-5,-1],[-2,-2],[-1,-4],[-2,-5],[-2,-7],[-3,-1],[-1,-2],[-3,-1],[-2,-3],[-4,-2],[-1,1],[-1,7],[-2,-1],[-3,1],[-2,2],[-6,1],[-3,1],[-3,-1],[-2,0],[-4,-1],[-2,2],[-5,1],[-6,-7],[-3,-2],[-3,1],[-1,1],[-3,6],[-3,-5],[0,27],[1,34],[0,8],[2,5],[-1,6],[-1,4],[1,1],[2,6],[-2,0],[-3,-5],[-2,-2],[-3,-6],[-4,-9],[-4,-3],[-1,-4],[-3,-3],[-2,-1],[-23,0],[1,7],[-1,5],[-2,2],[0,6],[-2,8],[-2,2],[-3,0],[-2,2],[-6,3],[-11,0],[3,9],[2,1],[1,5],[1,3],[0,6],[-3,5],[-3,10],[-3,3],[-2,4],[0,7],[-5,6],[-2,11],[0,3],[-2,7],[-3,3],[0,4],[2,2],[0,4],[-3,4],[-4,8],[0,3],[1,5],[-1,4],[4,2],[2,0],[1,2],[0,4],[-2,7]],[[3478,5324],[2,-1],[0,-7],[4,0],[0,-3],[2,-3],[3,-1],[1,-2],[2,-1],[2,1],[2,-3],[2,4],[1,0],[2,2],[2,5],[1,0],[2,4],[1,-3],[6,-4],[1,0],[3,3],[1,3],[3,-6],[-1,-3],[4,1],[2,-2],[3,0],[1,1],[1,4],[5,5],[2,6],[2,7],[-1,3],[4,13],[2,12],[0,4],[2,5],[2,2],[6,21],[1,5],[1,1],[0,3],[3,5],[1,7],[3,3],[1,2],[1,5],[0,3],[2,2],[-1,6],[2,5],[3,-5],[5,-11],[1,-8],[0,-12],[1,1],[1,4],[1,-1],[-1,-9],[1,-13],[-1,-7],[2,-9],[0,-4],[2,-12],[1,-4],[0,-3],[1,-2],[2,-14],[2,-10],[1,-8],[1,-3],[-1,-3],[3,-1],[0,-5],[2,-6],[1,-4],[1,-2],[2,-1],[2,1],[4,0],[6,-5],[1,-4],[1,-17],[-1,-8],[1,-3],[-3,-6],[-1,1],[-1,-4],[-1,-1],[-2,-5],[-2,-2],[-2,-3],[-1,-5],[-3,-5],[-1,-6],[-3,-10],[-5,-12],[-4,-1],[-1,-2],[-3,-8],[-4,-1],[-1,-2],[0,-3],[-2,-5],[-2,-9],[-1,-3],[0,-3],[-3,-4],[-2,-7],[-2,-5],[-1,-7],[0,-9],[-3,-6],[-2,-1]],[[3605,5226],[-2,-1],[0,4],[1,3],[3,3],[3,-1],[-2,-8],[-3,0]],[[3609,5236],[-1,2],[2,3],[3,2],[-1,-4],[-3,-3]],[[3598,5304],[2,0],[1,-3],[1,-6],[-2,-4],[-2,0],[-1,6],[-1,1],[1,5],[1,1]],[[3596,5306],[0,2],[2,0],[1,-2],[-1,-2],[-2,2]],[[3396,4161],[3,0],[1,-5],[3,-2],[1,-3],[1,3],[8,4],[4,8],[0,4],[3,6],[1,5],[2,4],[3,0],[5,1],[1,-1],[3,2],[2,4],[4,2],[2,-2],[2,-3],[4,-2],[1,-3],[2,0],[3,-2],[2,-6],[5,-5],[2,-3],[3,-3],[3,0],[5,2],[2,3],[1,3],[2,2],[5,0],[3,-4],[1,-5],[2,0],[2,2],[3,0],[1,3],[2,4],[2,3],[4,9],[2,3],[1,0],[-1,-22],[-3,-3],[-4,-12],[7,-6],[4,0],[3,-1],[5,1],[4,-2],[3,1]],[[3526,4145],[0,-16],[1,-4],[1,-1],[2,2],[3,-3],[0,-4],[-1,-4],[-2,-6],[1,-2],[3,-2],[4,-1],[3,1],[2,-1],[2,-4],[3,-1],[2,-2],[2,-3],[2,-2],[4,-3],[2,-3],[5,-5],[3,0],[4,-2],[2,-5],[4,-2],[1,0],[3,-5],[2,-6]],[[3584,4061],[1,-4],[-2,-2],[-1,-10],[1,-9],[0,-11]],[[3583,4025],[-2,-9],[-2,-2],[-5,-4],[-5,-12],[-2,-2],[-1,-5],[-1,-11],[-3,-7],[-1,-5],[-2,-2],[0,-13],[-2,-3],[-1,-4],[-3,0],[-1,-4],[2,-7],[-3,-4],[-2,-7],[-3,-5],[-1,-9],[-4,-7],[-5,-4],[-3,-5],[-1,-3],[-4,-2],[-1,-4],[-1,0],[-3,-10]],[[3523,3875],[-9,-7],[-3,-5],[-1,-6],[0,-5],[-3,-11],[-4,-6],[-2,-1],[-2,-13],[-1,-10],[0,-8],[-5,-5]],[[3493,3798],[-4,3],[-1,4],[-5,6],[-6,-4],[-4,-5],[-4,-1],[-3,-2],[-5,3],[-1,3],[0,11],[-1,3],[-2,4],[0,8],[1,5],[-2,3],[1,6],[-1,5],[-1,1],[0,4],[-1,3],[0,11],[1,5],[-1,6],[-2,1],[-1,4],[0,7],[-3,7],[-1,-1],[-8,2],[-4,4],[-3,7],[-2,-1],[-2,-5],[-2,-3],[-4,-1],[-1,-2],[-5,3],[-2,0],[-4,3],[-1,-2],[-3,0],[-3,2],[-4,0],[-1,5],[-2,0],[-3,-3],[-3,2],[-1,2],[0,3],[2,7],[-1,3],[0,6],[1,4],[-1,3],[1,4],[-1,2],[3,11],[-2,3],[2,4],[0,12],[-2,7],[1,1],[0,8],[-1,3],[-1,0],[-1,3],[-1,6],[1,5],[-3,3],[-1,9],[-1,3],[6,8],[1,0],[1,3],[-7,13],[0,1],[9,39],[2,1],[0,6],[-1,2],[6,37],[2,1],[0,2],[-2,1],[-2,11],[-3,9],[1,1],[-1,5]],[[3523,3875],[2,2],[3,5],[1,1],[7,-2],[2,2],[3,-3],[2,1],[3,-1],[2,1],[1,-2],[2,2],[0,3],[2,2],[3,-2],[3,-3],[3,-1],[2,-3],[1,1],[3,-2],[3,2],[2,0],[7,-7],[6,-3],[3,-7],[2,0],[2,2],[4,-2],[2,0],[2,2],[2,-2],[4,0],[5,2],[0,-3],[1,-1],[0,-3],[4,-3],[3,-6],[1,-4],[0,-8],[-1,-6],[3,-12],[0,-7],[-1,-2],[5,-12],[2,-4],[0,-4],[2,-6],[1,-1],[-2,-15],[0,-4],[2,-1],[5,0],[1,3],[2,-2],[3,0],[2,-2],[3,0],[1,1],[4,-3],[-2,-4],[0,-14],[1,-2],[3,7],[2,-3],[2,-1],[1,1],[2,-12],[3,0],[-1,-5]],[[3664,3725],[-2,-3],[-2,-5],[-1,2],[1,5],[-2,-1],[-1,2],[0,4],[-2,-2],[-1,-5],[1,-3],[-1,-3],[-2,1],[-2,-1],[-1,1],[-2,-1],[2,-4],[3,1],[2,-2],[2,-1],[-2,-3],[-2,-8],[-2,-13]],[[3650,3686],[-2,1],[-7,0],[-1,-2],[-4,-1],[-1,2],[-2,-2],[-3,-5],[-4,-3],[-1,-3],[-3,-1],[-4,4],[0,2],[-4,5],[-2,2],[-7,-3],[-1,1],[-4,-1],[-2,2],[-2,0],[-3,-3],[-1,-4],[-2,-5],[-6,-2],[-3,2],[-5,-7],[-1,-4],[0,-4],[1,-7],[-1,-2],[-3,-2],[-1,1],[-2,4],[-10,0],[-4,1],[-3,5],[-2,2],[-7,1],[-3,2],[-3,0],[0,2],[-4,2],[-3,-2],[-2,1],[-4,-1],[-4,6],[-2,1],[-3,-2],[-2,0],[-4,1]],[[3509,3670],[0,3],[-2,5],[-1,6],[-2,3],[0,9],[-1,4],[-1,7],[-1,-2],[-1,4],[-6,3],[0,-3],[-3,2],[-4,-5],[-2,4],[-2,0],[0,8],[1,4],[2,5],[2,8],[-1,6],[1,12],[2,5],[1,6],[-1,6],[2,7],[0,5],[-2,10],[1,3],[2,3]],[[3657,3721],[2,1],[-1,-7],[-1,3],[0,3]],[[3504,3618],[1,7],[1,1],[2,9],[-1,10],[0,10],[1,1],[-1,8],[2,6]],[[3650,3686],[-1,-3],[1,-7],[-2,-4],[-3,-1],[-1,-3],[4,-5],[1,-4],[-1,-6],[-1,-9],[2,-3],[0,-12],[1,-2],[-1,-5],[1,-3],[3,0],[-4,-5],[0,-4],[2,-2],[-1,-4],[-2,-4],[2,-6],[-2,-4],[1,-6],[2,-6],[-2,-4],[1,-5],[-5,-27],[-1,2],[0,5],[-2,1],[1,-7],[2,-4],[-1,-4],[-4,-2],[-3,-4],[-8,-12],[-6,-12],[-4,-11]],[[3654,3604],[2,-3],[-1,-4],[0,-4],[-2,-6],[0,-4],[-2,-2],[0,4],[1,10],[-1,5],[1,3],[2,1]],[[3651,3666],[-2,-4],[-2,5],[2,5],[3,3],[1,-3],[-2,-6]],[[3385,4760],[-2,-5],[-1,-5],[1,-5],[-5,-13],[0,-3],[2,-7],[0,-7],[-1,-8],[-1,-6],[-2,-3],[1,-7],[-2,-9],[-2,-3],[-85,-1]],[[3288,4678],[0,3],[-3,1],[-1,-2],[-2,-1],[-1,-7],[-1,0],[-6,6],[-1,9],[-1,1],[-3,1],[-2,11],[-2,2],[-3,-1],[0,4],[-2,4],[-1,6],[-2,3],[-3,3],[-2,0],[-17,1],[-2,-5],[0,-5],[-3,-1],[-1,-6],[-4,-1],[-1,-1],[-2,-7],[2,-5],[-2,-8],[-2,-2],[-2,0],[1,-6],[-1,-4],[1,-3],[-3,-1],[-4,1],[-2,-2],[-1,1],[-4,-4],[-2,0],[-2,2],[-2,-2],[-3,-6],[1,-5],[-4,-11],[-1,-2],[-2,1],[-1,6],[-1,3],[-6,-7],[0,-4],[-2,2],[-3,-2],[-2,-4],[-2,-2],[-3,4],[-2,4],[-2,1],[-3,-1],[-8,1],[0,-7],[-3,-6],[-2,-2],[-3,-5],[-1,0],[-3,-5]],[[2950,4773],[1,9],[0,3],[2,5],[5,7],[4,6],[2,1],[2,2],[2,6],[-1,13],[-1,3],[-1,5],[3,11],[4,10],[1,8],[0,6],[2,11],[-1,8],[2,2],[2,0],[1,2],[3,0],[0,2],[5,7],[2,6],[2,2],[2,0],[3,5],[2,4],[2,2],[3,4],[3,1],[2,0],[1,-1],[4,3],[6,2],[0,2],[3,-2],[1,3],[1,-2],[1,2],[3,-1],[4,8],[0,4],[2,1],[1,-1],[2,2],[2,-3],[1,3],[1,-2],[2,2],[4,-2],[0,-5],[2,-2],[1,-3],[1,5],[2,0],[0,-4],[3,1],[0,5],[1,2],[1,18],[4,37],[2,28],[3,37],[3,36],[1,4],[0,10],[1,3],[-1,6],[0,5],[-3,4],[-1,7],[-1,4],[1,5],[-2,8],[-3,3],[-3,7],[-2,2],[-3,7],[-1,3],[1,41],[3,0],[4,1],[3,4],[2,-1],[1,2],[2,2],[2,0],[2,-5],[4,-1],[2,2],[-1,4],[0,7],[-1,6],[-2,5],[-2,2],[-2,-2],[-1,2],[-4,0],[-3,-1],[-1,2],[-3,-2],[0,36],[1,2],[7,3],[3,0],[3,-2],[33,0],[-2,2],[0,5],[1,9],[3,-5],[1,-6],[2,-4],[2,0],[2,1],[2,3],[3,9],[2,5],[4,5],[3,-3],[2,-9],[3,-9],[1,-4],[2,-10],[-1,-16],[1,-5],[5,3],[13,-24],[3,-4],[2,1],[2,-1],[2,2],[3,2],[3,6],[3,4],[5,0],[2,-7],[-2,-7],[1,-5],[1,0],[2,2],[1,4],[0,5],[2,4],[3,1],[1,1],[1,8],[0,2],[4,1],[1,4],[2,1],[2,3],[3,-2],[3,5],[2,5],[4,5],[1,0],[-1,-6],[1,-2],[2,5],[3,6],[1,1],[2,4],[0,15],[2,3],[2,1],[3,0],[6,7],[5,3],[1,5]],[[3288,4678],[3,-5],[1,-4],[-1,-5],[-1,-7],[0,-6],[-1,-1],[-1,-4],[2,-3],[1,-11],[1,-5],[-2,-6],[1,-6],[-1,-8],[-1,-4],[0,-5],[1,-3],[0,-3],[2,-10],[-1,-15],[1,-4],[-1,-2],[0,-9],[1,-3],[29,0],[0,-2],[1,-4],[3,1],[3,-2],[3,0],[2,-1],[2,-14],[-3,-9],[-2,-3],[0,-9],[1,-7],[0,-2],[2,-1],[3,-12],[0,-7],[2,-8],[-2,-13],[-3,-7],[-1,-8],[-1,-3],[-3,-2],[-3,-6],[0,-4],[-2,-8],[-1,-8],[-9,-14]],[[3313,4396],[-2,3],[-3,3],[-3,1],[-1,4],[-2,-1],[-1,-2],[-2,0],[-3,1],[-4,-2],[-2,0],[-1,2],[-4,-2],[-3,0],[-1,4],[-4,6],[-3,8],[0,4],[-3,2],[-2,-1],[-2,0],[-3,4],[-2,0],[-2,2],[-2,4],[-3,-1],[-3,7],[-2,0],[-2,6],[0,6],[-2,1],[-3,-4],[-2,0],[-2,2],[-3,7],[-1,0],[-4,4],[-4,1],[-1,-1],[-2,-4],[-3,2],[-3,0],[-2,2],[-5,1],[-3,5],[1,6],[-1,2],[-3,1],[-3,4],[-2,7],[-6,2],[0,4],[-1,2],[-1,8],[-2,2],[-1,-2],[0,9],[-1,4],[-2,1],[-2,7],[1,3],[-1,2],[0,4],[-1,4],[2,3],[0,4],[1,3],[-1,7],[-2,4],[1,5],[-2,5],[0,9],[1,1],[0,3],[2,5],[1,5],[-1,10],[0,7],[1,6],[-1,2],[-1,4],[-2,2],[-2,-3],[-2,-6],[-1,0],[-3,5],[-1,-1],[-1,2],[-2,-3],[-3,0],[-1,-1],[-2,1],[-3,-1],[-2,-2],[-3,-1],[-2,-2],[-2,0],[-4,-2]],[[3396,4161],[-1,3],[-1,8],[-1,2],[-3,0],[-2,1],[-4,6],[-1,1],[-1,3],[-4,3],[-1,2],[0,14],[-1,6],[0,3],[-1,9],[1,3],[3,7],[-1,5],[1,2],[0,5],[-1,1],[-2,-3],[-18,1],[-11,1],[-18,1],[-1,3],[0,13],[-2,29],[0,2],[-8,18],[-1,3],[8,0],[1,1],[-1,26],[-2,3],[0,5],[-1,9],[-2,3],[0,10],[2,3],[0,5],[-1,3],[-1,6],[-3,3],[-4,6]],[[3604,4616],[-2,-11],[-2,-4],[0,-7],[-1,-7],[-2,-3],[-1,-10],[-2,-5],[0,-3],[-1,-13],[1,-6],[-2,-6],[0,-7],[-1,-8],[-1,-6],[3,-6],[-2,-6],[1,-9],[1,-1],[0,-4],[-1,-3],[0,-11],[1,-4],[1,-9],[-2,-12],[1,-1],[1,-9],[3,-2]],[[3597,4443],[0,-6],[-2,-4],[-1,-4],[1,-8],[-5,-18],[-1,-8],[-2,-2],[0,