{"type":"Topology","objects":{"subunits":{"type":"GeometryCollection","name":"CHN_subunits","crs":{"type":"name","properties":{"name":"urn:ogc:def:crs:OGC:1.3:CRS84"}},"geometries":[{"type":"Polygon","properties":{"name":"Xinjiang","fips":"CH13","postal":"XJ","scalerank":2,"country":"CHN","latitude":41.122,"longitude":85.4253,"type":"Zìzhìqu"},"id":"CN-XJ","arcs":[[0,1,2,3]]},{"type":"Polygon","properties":{"name":"Xizang","fips":"CH14","postal":"XZ","scalerank":2,"country":"CHN","latitude":31.4515,"longitude":88.4137,"type":"Zìzhìqu"},"id":"CN-XZ","arcs":[[-4,4,5,6,7]]},{"type":"Polygon","properties":{"name":"Inner Mongol","fips":"CH20","postal":"NM","scalerank":2,"country":"CHN","latitude":41.5938,"longitude":111.623,"type":"Zìzhìqu"},"id":"CN-NM","arcs":[[8,9,10,11,12,13,14,15,16]]},{"type":"Polygon","properties":{"name":"Gansu","fips":"CH15","postal":"GS","scalerank":2,"country":"CHN","latitude":38.7393,"longitude":100.735,"type":"Shěng"},"id":"CN-GS","arcs":[[17,-16,18,19,20,21,-2]]},{"type":"Polygon","properties":{"name":"Yunnan","fips":"CH29","postal":"YN","scalerank":2,"country":"CHN","latitude":24.4603,"longitude":101.661,"type":"Shěng"},"id":"CN-YN","arcs":[[-7,22,23,24,25]]},{"type":"Polygon","properties":{"name":"Heilongjiang","fips":"CH08","postal":"HL","scalerank":2,"country":"CHN","latitude":46.8451,"longitude":127.97,"type":"Shěng"},"id":"CN-HL","arcs":[[26,-9,27]]},{"type":"Polygon","properties":{"name":"Jilin","fips":"CH05","postal":"JL","scalerank":2,"country":"CHN","latitude":43.2978,"longitude":126.466,"type":"Shěng"},"id":"CN-JL","arcs":[[28,29,-10,-27]]},{"type":"MultiPolygon","properties":{"name":"Liaoning","fips":"CH19","postal":"LN","scalerank":2,"country":"CHN","latitude":41.386,"longitude":123.07,"type":"Shěng"},"id":"CN-LN","arcs":[[[30,31,-11,-30]]]},{"type":"MultiPolygon","properties":{"name":"Guangxi","fips":"CH16","postal":"GX","scalerank":2,"country":"CHN","latitude":23.7451,"longitude":108.756,"type":"Zìzhìqu"},"id":"CN-GX","arcs":[[[-25,32,33,34,35]]]},{"type":"MultiPolygon","properties":{"name":"Guangdong","fips":"CH30","postal":"GD","scalerank":2,"country":"CHN","latitude":23.7924,"longitude":113.72,"type":"Shěng"},"id":"CN-GD","arcs":[[[-35,36,37,38,39]]]},{"type":"Polygon","properties":{"name":"Hainan","fips":"CH31","postal":"HA","scalerank":2,"country":"CHN","latitude":19.1865,"longitude":109.825,"type":"Shěng"},"id":"CN-HI","arcs":[[40]]},{"type":"MultiPolygon","properties":{"name":"Fujian","fips":"CH07","postal":"FJ","scalerank":2,"country":"CHN","latitude":26.408,"longitude":118.178,"type":"Shěng"},"id":"CN-FJ","arcs":[[[41,-39,42,43]]]},{"type":"MultiPolygon","properties":{"name":"Zhejiang","fips":"CH02","postal":"ZJ","scalerank":2,"country":"CHN","latitude":29.1084,"longitude":119.97,"type":"Shěng"},"id":"CN-ZJ","arcs":[[[44,-44,45,46,47,48]],[[49]]]},{"type":"MultiPolygon","properties":{"name":"Shanghai","fips":"CH23","postal":"SH","scalerank":2,"country":"CHN","latitude":31.0909,"longitude":121.409,"type":"Zhíxiáshì"},"id":"CN-SH","arcs":[[[50,-49,51]],[[52]]]},{"type":"MultiPolygon","properties":{"name":"Jiangsu","fips":"CH04","postal":"JS","scalerank":2,"country":"CHN","latitude":32.9844,"longitude":119.942,"type":"Shěng"},"id":"CN-JS","arcs":[[[53,-52,-48,54,55]]]},{"type":"MultiPolygon","properties":{"name":"Shandong","fips":"CH25","postal":"SD","scalerank":2,"country":"CHN","latitude":36.3271,"longitude":118.114,"type":"Shěng"},"id":"CN-SD","arcs":[[[56,-56,57,58,59]]]},{"type":"MultiPolygon","properties":{"name":"Hebei","fips":"CH10","postal":"HB","scalerank":2,"country":"CHN","latitude":38.5205,"longitude":115.314,"type":"Shěng"},"id":"CN-HE","arcs":[[[60,-60,61,62,-12,-32,63,64,65,66]],[[67,68]]]},{"type":"Polygon","properties":{"name":"Tianjin","fips":"CH28","postal":"TJ","scalerank":2,"country":"CHN","latitude":39.3708,"longitude":117.347,"type":"Zhíxiáshì"},"id":"CN-TJ","arcs":[[69,-67,70,-68,71,-65]]},{"type":"Polygon","properties":{"name":"Beijing","fips":"CH22","postal":"BJ","scalerank":2,"country":"CHN","latitude":39.9488,"longitude":116.389,"type":"Zhíxiáshì"},"id":"CN-BJ","arcs":[[-72,-69,-71,-66]]},{"type":"Polygon","properties":{"name":"Sichuan","fips":"CH32","postal":"SC","scalerank":2,"country":"CHN","latitude":30.5431,"longitude":102.384,"type":"Shěng"},"id":"CN-SC","arcs":[[72,73,-23,-6,74,-21,75]]},{"type":"Polygon","properties":{"name":"Chongqing","fips":"CH33","postal":"CQ","scalerank":2,"country":"CHN","latitude":30.0173,"longitude":107.73,"type":"Zhíxiáshì"},"id":"CN-CQ","arcs":[[-73,76,77,78,79]]},{"type":"Polygon","properties":{"name":"Guizhou","fips":"CH18","postal":"GZ","scalerank":2,"country":"CHN","latitude":26.8033,"longitude":106.559,"type":"Shěng"},"id":"CN-GZ","arcs":[[-80,80,-33,-24,-74]]},{"type":"Polygon","properties":{"name":"Hunan","fips":"CH11","postal":"HN","scalerank":2,"country":"CHN","latitude":27.6667,"longitude":111.712,"type":"Shěng"},"id":"CN-HN","arcs":[[-79,81,82,-37,-34,-81]]},{"type":"Polygon","properties":{"name":"Ningxia","fips":"CH21","postal":"NX","scalerank":2,"country":"CHN","latitude":37.1762,"longitude":106.038,"type":"Zìzhìqu"},"id":"CN-NX","arcs":[[-15,83,-19]]},{"type":"Polygon","properties":{"name":"Shaanxi","fips":"CH26","postal":"SA","scalerank":2,"country":"CHN","latitude":33.7713,"longitude":108.363,"type":"Shěng"},"id":"CN-SN","arcs":[[-77,-76,-20,-84,-14,84,85,86]]},{"type":"Polygon","properties":{"name":"Qinghai","fips":null,"postal":"QH","scalerank":2,"country":"CHN","latitude":35.2652,"longitude":96.2377,"type":"Shěng"},"id":"CN-QH","arcs":[[-3,-22,-75,-5]]},{"type":"Polygon","properties":{"name":"Shanxi","fips":"CH24","postal":"SX","scalerank":2,"country":"CHN","latitude":37.7586,"longitude":112.389,"type":"Shěng"},"id":"CN-SX","arcs":[[-63,87,-85,-13]]},{"type":"Polygon","properties":{"name":"Jiangxi","fips":"CH03","postal":"JX","scalerank":2,"country":"CHN","latitude":27.6397,"longitude":116.017,"type":"Shěng"},"id":"CN-JX","arcs":[[-38,-83,88,89,-46,-43]]},{"type":"Polygon","properties":{"name":"Henan","fips":"CH09","postal":"HE","scalerank":2,"country":"CHN","latitude":33.9055,"longitude":113.484,"type":"Shěng"},"id":"CN-HA","arcs":[[-62,-59,90,91,-86,-88]]},{"type":"Polygon","properties":{"name":"Hubei","fips":"CH12","postal":"HU","scalerank":2,"country":"CHN","latitude":30.9857,"longitude":112.264,"type":"Shěng"},"id":"CN-HB","arcs":[[-78,-87,-92,92,-89,-82]]},{"type":"Polygon","properties":{"name":"Anhui","fips":"CH01","postal":"AH","scalerank":2,"country":"CHN","latitude":31.9537,"longitude":117.253,"type":"Shěng"},"id":"CN-AH","arcs":[[-47,-90,-93,-91,-58,-55]]}]},"places":{"type":"GeometryCollection","name":"CHN_places","crs":{"type":"name","properties":{"name":"urn:ogc:def:crs:OGC:1.3:CRS84"}},"geometries":[{"type":"Point","properties":{"name":"Yumen","scalerank":8,"subregion":"Gansu","latitude":39.830035,"longitude":97.729993},"id":"Q729562","coordinates":[394435,636466]},{"type":"Point","properties":{"name":"Linxia","scalerank":8,"subregion":"Gansu","latitude":35.600009,"longitude":103.200047},"id":"Q653608","coordinates":[483858,524543]},{"type":"Point","properties":{"name":"Zhuozhou","scalerank":8,"subregion":"Beijing","latitude":39.540053,"longitude":115.789976},"id":"Q198244","coordinates":[689676,628793]},{"type":"Point","properties":{"name":"Sanming","scalerank":8,"subregion":"Fujian","latitude":26.229987,"longitude":117.580048},"id":"Q68614","coordinates":[718939,276620]},{"type":"Point","properties":{"name":"Huizhou","scalerank":8,"subregion":"Guangdong","latitude":23.079972,"longitude":114.399983},"id":"Q59173","coordinates":[666952,193273]},{"type":"Point","properties":{"name":"Chaozhou","scalerank":8,"subregion":"Guangdong","latitude":23.680039,"longitude":116.630028},"id":"Q59227","coordinates":[703409,209151]},{"type":"Point","properties":{"name":"Gyangze","scalerank":8,"subregion":"Xizang","latitude":28.950002,"longitude":89.63333},"id":"Q1999606","coordinates":[262072,348589]},{"type":"Point","properties":{"name":"Dali","scalerank":8,"subregion":"Shaanxi","latitude":34.795252,"longitude":109.937775},"coordinates":[594005,503250]},{"type":"Point","properties":{"name":"Yangquan","scalerank":8,"subregion":"Shanxi","latitude":37.869974,"longitude":113.570008},"id":"Q72907","coordinates":[653384,584604]},{"type":"Point","properties":{"name":"Shiyan","scalerank":8,"subregion":"Hubei","latitude":32.570039,"longitude":110.779998},"id":"Q71227","coordinates":[607774,444373]},{"type":"Point","properties":{"name":"Danjiangkou","scalerank":8,"subregion":"Hubei","latitude":32.520016,"longitude":111.500005},"id":"Q1164197","coordinates":[619544,443049]},{"type":"Point","properties":{"name":"Jingzhou","scalerank":8,"subregion":"Hubei","latitude":30.320021,"longitude":112.229987},"id":"Q71247","coordinates":[631478,384839]},{"type":"Point","properties":{"name":"Anlu","scalerank":8,"subregion":"Hubei","latitude":31.269989,"longitude":113.670002},"id":"Q557934","coordinates":[655019,409974]},{"type":"Point","properties":{"name":"Zixing","scalerank":8,"subregion":"Hunan","latitude":25.969977,"longitude":113.400044},"id":"Q206996","coordinates":[650605,269740]},{"type":"Point","properties":{"name":"Deyang","scalerank":8,"subregion":"Sichuan","latitude":31.133331,"longitude":104.399974},"id":"Q425996","coordinates":[503474,406358]},{"type":"Point","properties":{"name":"Tengchong","scalerank":8,"subregion":"Yunnan","latitude":25.033316,"longitude":98.466589},"id":"Q7699838","coordinates":[406477,244957]},{"type":"Point","properties":{"name":"Mengzi","scalerank":8,"subregion":"Yunnan","latitude":23.361945,"longitude":103.406132},"id":"Q1201056","coordinates":[487227,200734]},{"type":"Point","properties":{"name":"Chuxiong","scalerank":8,"subregion":"Yunnan","latitude":25.036416,"longitude":101.545574},"id":"Q1090087","coordinates":[456811,245039]},{"type":"Point","properties":{"name":"Hengshui","scalerank":8,"subregion":"Hebei","latitude":37.719983,"longitude":115.700007},"id":"Q58724","coordinates":[688205,580636]},{"type":"Point","properties":{"name":"Xuanhua","scalerank":8,"subregion":"Hebei","latitude":40.594407,"longitude":115.024338},"coordinates":[677159,656691]},{"type":"Point","properties":{"name":"Luohe","scalerank":8,"subregion":"Henan","latitude":33.570004,"longitude":114.02998},"id":"Q404599","coordinates":[660904,470831]},{"type":"Point","properties":{"name":"Beipiao","scalerank":8,"subregion":"Liaoning","latitude":41.810018,"longitude":120.760009},"id":"Q814826","coordinates":[770925,688855]},{"type":"Point","properties":{"name":"Wafangdian","scalerank":8,"subregion":"Liaoning","latitude":39.625913,"longitude":121.995954},"id":"Q616048","coordinates":[791130,631065]},{"type":"Point","properties":{"name":"Zhucheng","scalerank":8,"subregion":"Shandong","latitude":35.98996,"longitude":119.380093},"id":"Q198184","coordinates":[748366,534861]},{"type":"Point","properties":{"name":"Hangu","scalerank":8,"subregion":"Tianjin","latitude":39.231958,"longitude":117.776986},"id":"Q1196666","coordinates":[722159,620641]},{"type":"Point","properties":{"name":"Xinyi","scalerank":8,"subregion":"Jiangsu","latitude":34.380006,"longitude":118.350026},"id":"Q1344902","coordinates":[731527,492263]},{"type":"Point","properties":{"name":"Yangzhou","scalerank":8,"subregion":"Jiangsu","latitude":32.399998,"longitude":119.430012},"id":"Q57906","coordinates":[749182,439873]},{"type":"Point","properties":{"name":"Linhai","scalerank":8,"subregion":"Zhejiang","latitude":28.850008,"longitude":121.119987},"id":"Q713317","coordinates":[776809,345944]},{"type":"Point","properties":{"name":"Huangyan","scalerank":8,"subregion":"Zhejiang","latitude":28.65002,"longitude":121.250004},"id":"Q1027910","coordinates":[778935,340652]},{"type":"Point","properties":{"name":"Daan","scalerank":8,"subregion":"Jilin","latitude":45.499999,"longitude":124.299999},"id":"Q1021732","coordinates":[828796,786488]},{"type":"Point","properties":{"name":"Changling","scalerank":8,"subregion":"Jilin","latitude":44.269997,"longitude":123.989992},"id":"Q1062078","coordinates":[823728,753943]},{"type":"Point","properties":{"name":"Tonghua","scalerank":8,"subregion":"Jilin","latitude":41.679974,"longitude":125.749988},"id":"Q92324","coordinates":[852500,685414]},{"type":"Point","properties":{"name":"Baishan","scalerank":8,"subregion":"Jilin","latitude":41.900012,"longitude":126.429998},"id":"Q92348","coordinates":[863616,691236]},{"type":"Point","properties":{"name":"Yanji","scalerank":8,"subregion":"Jilin","latitude":42.882304,"longitude":129.512756},"id":"Q713362","coordinates":[914013,717226]},{"type":"Point","properties":{"name":"Genhe","scalerank":8,"subregion":"Nei Mongol","latitude":50.78332,"longitude":121.516655},"id":"Q1354108","coordinates":[783294,926281]},{"type":"Point","properties":{"name":"Shangdu","scalerank":8,"subregion":"Nei Mongol","latitude":41.549439,"longitude":113.533886},"id":"Q1305772","coordinates":[652794,681960]},{"type":"Point","properties":{"name":"Orongen Zizhiqi","scalerank":8,"subregion":"Nei Mongol","latitude":50.566667,"longitude":123.716676},"id":"Q14230874","coordinates":[819260,920548]},{"type":"Point","properties":{"name":"Zalantun","scalerank":8,"subregion":"Nei Mongol","latitude":48.000002,"longitude":122.719992},"id":"Q145015","coordinates":[802966,852636]},{"type":"Point","properties":{"name":"Wuchuan","scalerank":8,"subregion":"Nei Mongol","latitude":41.095514,"longitude":111.440836},"coordinates":[618577,669949]},{"type":"Point","properties":{"name":"Hanggin Houqi","scalerank":8,"subregion":"Nei Mongol","latitude":40.8847,"longitude":107.140013},"id":"Q1202314","coordinates":[548268,664371]},{"type":"Point","properties":{"name":"Anda","scalerank":8,"subregion":"Heilongjiang","latitude":46.399996,"longitude":125.32004},"id":"Q489631","coordinates":[845471,810301]},{"type":"Point","properties":{"name":"Qinggang","scalerank":8,"subregion":"Heilongjiang","latitude":46.69003,"longitude":126.100044},"id":"Q8836938","coordinates":[858222,817976]},{"type":"Point","properties":{"name":"Angangxi","scalerank":8,"subregion":"Heilongjiang","latitude":47.160053,"longitude":123.80003},"coordinates":[820622,830412]},{"type":"Point","properties":{"name":"Hulan Ergi","scalerank":8,"subregion":"Heilongjiang","latitude":47.209972,"longitude":123.610015},"id":"Q34761","coordinates":[817516,831733]},{"type":"Point","properties":{"name":"Qingan","scalerank":8,"subregion":"Heilongjiang","latitude":46.871854,"longitude":127.511844},"coordinates":[881302,822786]},{"type":"Point","properties":{"name":"Baiquan","scalerank":8,"subregion":"Heilongjiang","latitude":47.601835,"longitude":126.081854},"id":"Q649215","coordinates":[857925,842101]},{"type":"Point","properties":{"name":"Suileng","scalerank":8,"subregion":"Heilongjiang","latitude":47.245991,"longitude":127.105978},"id":"Q13992688","coordinates":[874667,832686]},{"type":"Point","properties":{"name":"Linkou","scalerank":8,"subregion":"Heilongjiang","latitude":45.281899,"longitude":130.251884},"coordinates":[926096,780718]},{"type":"Point","properties":{"name":"Longxi","scalerank":7,"subregion":"Gansu","latitude":35.04764,"longitude":104.639442},"coordinates":[507913,508739]},{"type":"Point","properties":{"name":"Pingliang","scalerank":7,"subregion":"Gansu","latitude":35.530375,"longitude":106.680093},"id":"Q533985","coordinates":[540749,522701]},{"type":"Point","properties":{"name":"Anxi","scalerank":7,"subregion":"Gansu","latitude":40.500434,"longitude":95.799982},"id":"Q4778099","coordinates":[362884,654204]},{"type":"Point","properties":{"name":"Minxian","scalerank":7,"subregion":"Gansu","latitude":34.436178,"longitude":104.03059},"coordinates":[497436,493749]},{"type":"Point","properties":{"name":"Jinchang","scalerank":7,"subregion":"Gansu","latitude":38.495698,"longitude":102.173908},"id":"Q532776","coordinates":[467083,601160]},{"type":"Point","properties":{"name":"Guide","scalerank":7,"subregion":"Gansu","latitude":36.045098,"longitude":101.424186},"coordinates":[454827,536320]},{"type":"Point","properties":{"name":"Qinzhou","scalerank":7,"subregion":"Guangxi","latitude":21.950429,"longitude":108.619974},"id":"Q571766","coordinates":[572462,163387]},{"type":"Point","properties":{"name":"Pingxiang","scalerank":7,"subregion":"Guangxi","latitude":22.097371,"longitude":106.756677},"id":"Q1027734","coordinates":[542001,167275]},{"type":"Point","properties":{"name":"Yishan","scalerank":7,"subregion":"Guangxi","latitude":24.500377,"longitude":108.66669},"coordinates":[573226,230856]},{"type":"Point","properties":{"name":"Beihai","scalerank":7,"subregion":"Guangxi","latitude":21.480406,"longitude":109.100048},"id":"Q210365","coordinates":[580310,150950]},{"type":"Point","properties":{"name":"Hechi","scalerank":7,"subregion":"Guangxi","latitude":24.695252,"longitude":108.083},"id":"Q572089","coordinates":[563684,236012]},{"type":"Point","properties":{"name":"Tongren","scalerank":7,"subregion":"Guizhou","latitude":27.680415,"longitude":109.130021},"id":"Q486235","coordinates":[580800,314997]},{"type":"Point","properties":{"name":"Fengjie","scalerank":7,"subregion":"Chongqing","latitude":31.050442,"longitude":109.516664},"coordinates":[587121,404165]},{"type":"Point","properties":{"name":"Changping","scalerank":7,"subregion":"Beijing","latitude":40.224766,"longitude":116.194396},"coordinates":[696287,646910]},{"type":"Point","properties":{"name":"Shaowu","scalerank":7,"subregion":"Fujian","latitude":27.300387,"longitude":117.500001},"id":"Q1025451","coordinates":[717631,304942]},{"type":"Point","properties":{"name":"Longyan","scalerank":7,"subregion":"Fujian","latitude":25.180413,"longitude":117.030004},"id":"Q68862","coordinates":[709376,246021]},{"type":"Point","properties":{"name":"Zhangzhou","scalerank":7,"subregion":"Fujian","latitude":24.520375,"longitude":117.670016},"id":"Q68814","coordinates":[720410,231385]},{"type":"Point","properties":{"name":"Putian","scalerank":7,"subregion":"Fujian","latitude":25.430346,"longitude":119.020011},"id":"Q68579","coordinates":[742479,255462]},{"type":"Point","properties":{"name":"Fuan","scalerank":7,"subregion":"Fujian","latitude":27.070427,"longitude":119.620026},"id":"Q1374581","coordinates":[752288,298857]},{"type":"Point","properties":{"name":"Changting","scalerank":7,"subregion":"Fujian","latitude":25.866986,"longitude":116.316662},"coordinates":[698286,267015]},{"type":"Point","properties":{"name":"Nanping","scalerank":7,"subregion":"Fujian","latitude":26.630376,"longitude":118.169986},"id":"Q68534","coordinates":[728583,287214]},{"type":"Point","properties":{"name":"Ninde","scalerank":7,"subregion":"Fujian","latitude":26.680373,"longitude":119.530058},"id":"Q1337912","coordinates":[750818,288537]},{"type":"Point","properties":{"name":"Jieshou","scalerank":7,"subregion":"Anhui","latitude":33.250437,"longitude":115.350003},"id":"Q1018527","coordinates":[682483,462375]},{"type":"Point","properties":{"name":"Tongling","scalerank":7,"subregion":"Anhui","latitude":30.950448,"longitude":117.780035},"id":"Q360326","coordinates":[722209,401520]},{"type":"Point","properties":{"name":"Maanshan","scalerank":7,"subregion":"Anhui","latitude":31.7304,"longitude":118.480044},"id":"Q360235","coordinates":[733736,420626]},{"type":"Point","properties":{"name":"Fuyang","scalerank":7,"subregion":"Anhui","latitude":32.900407,"longitude":115.82},"id":"Q360584","coordinates":[690166,453114]},{"type":"Point","properties":{"name":"Yangjiang","scalerank":7,"subregion":"Guangdong","latitude":21.850409,"longitude":111.970002},"id":"Q59209","coordinates":[627227,160740]},{"type":"Point","properties":{"name":"Meizhou","scalerank":7,"subregion":"Guangdong","latitude":24.300492,"longitude":116.119982},"id":"Q59184","coordinates":[695070,225567]},{"type":"Point","properties":{"name":"Heyuan","scalerank":7,"subregion":"Guangdong","latitude":23.730424,"longitude":114.680018},"id":"Q59205","coordinates":[671530,210484]},{"type":"Point","properties":{"name":"Qingyuan","scalerank":7,"subregion":"Guangdong","latitude":23.7004,"longitude":113.030093},"id":"Q59213","coordinates":[644558,209689]},{"type":"Point","properties":{"name":"Zhaoqing","scalerank":7,"subregion":"Guangdong","latitude":23.050413,"longitude":112.450025},"id":"Q59164","coordinates":[635075,192491]},{"type":"Point","properties":{"name":"Lianxian","scalerank":7,"subregion":"Guangdong","latitude":24.781522,"longitude":112.382535},"id":"Q1023910","coordinates":[633971,238295]},{"type":"Point","properties":{"name":"Jiangmen","scalerank":7,"subregion":"Guangdong","latitude":22.58039,"longitude":113.080012},"id":"Q59132","coordinates":[645374,180055]},{"type":"Point","properties":{"name":"Maoming","scalerank":7,"subregion":"Guangdong","latitude":21.920405,"longitude":110.870018},"id":"Q38927","coordinates":[609245,162592]},{"type":"Point","properties":{"name":"Gar","scalerank":7,"subregion":"Xizang","latitude":32.200398,"longitude":79.983324},"coordinates":[104316,434592]},{"type":"Point","properties":{"name":"Turpan","scalerank":7,"subregion":"Xinjiang Uygur","latitude":42.935375,"longitude":89.165038},"id":"Q868527","coordinates":[254417,718631]},{"type":"Point","properties":{"name":"Quiemo","scalerank":7,"subregion":"Xinjiang Uygur","latitude":38.133756,"longitude":85.533322},"id":"Q3360588","coordinates":[195046,591584]},{"type":"Point","properties":{"name":"Koktokay","scalerank":7,"subregion":"Xinjiang Uygur","latitude":47.000373,"longitude":89.466622},"id":"Q1525001","coordinates":[260387,825942]},{"type":"Point","properties":{"name":"Hancheng","scalerank":7,"subregion":"Shaanxi","latitude":35.470431,"longitude":110.429993},"id":"Q577415","coordinates":[602052,521114]},{"type":"Point","properties":{"name":"Weinan","scalerank":7,"subregion":"Shaanxi","latitude":34.500438,"longitude":109.500076},"id":"Q126995","coordinates":[586850,495449]},{"type":"Point","properties":{"name":"Shuozhou","scalerank":7,"subregion":"Shanxi","latitude":39.300378,"longitude":112.420001},"id":"Q73020","coordinates":[634584,622452]},{"type":"Point","properties":{"name":"Xinzhou","scalerank":7,"subregion":"Shanxi","latitude":38.410432,"longitude":112.719983},"id":"Q73119","coordinates":[639488,598904]},{"type":"Point","properties":{"name":"Jincheng","scalerank":7,"subregion":"Shanxi","latitude":35.500377,"longitude":112.830002},"id":"Q72990","coordinates":[641287,521907]},{"type":"Point","properties":{"name":"Jiexiu","scalerank":7,"subregion":"Shanxi","latitude":37.040025,"longitude":111.899981},"id":"Q1362530","coordinates":[626083,562645]},{"type":"Point","properties":{"name":"Changzhi","scalerank":7,"subregion":"Shanxi","latitude":36.183875,"longitude":113.105282},"id":"Q72945","coordinates":[645787,539992]},{"type":"Point","properties":{"name":"Guangshui","scalerank":7,"subregion":"Hubei","latitude":31.620381,"longitude":114.000008},"id":"Q930230","coordinates":[660414,419245]},{"type":"Point","properties":{"name":"Jingmen","scalerank":7,"subregion":"Hubei","latitude":31.030392,"longitude":112.10002},"id":"Q71323","coordinates":[631004,403662]},{"type":"Point","properties":{"name":"Zicheng","scalerank":7,"subregion":"Hubei","latitude":30.300436,"longitude":111.500005},"id":"Q2009842","coordinates":[619544,384321]},{"type":"Point","properties":{"name":"Shishou","scalerank":7,"subregion":"Hubei","latitude":29.700395,"longitude":112.400002},"id":"Q1359319","coordinates":[634257,368444]},{"type":"Point","properties":{"name":"Xiaogan","scalerank":7,"subregion":"Hubei","latitude":30.920398,"longitude":113.900014},"id":"Q71339","coordinates":[658779,400724]},{"type":"Point","properties":{"name":"Puqi","scalerank":7,"subregion":"Hubei","latitude":29.72042,"longitude":113.880015},"coordinates":[658452,368974]},{"type":"Point","properties":{"name":"Yunxian","scalerank":7,"subregion":"Hubei","latitude":32.808164,"longitude":110.813639},"coordinates":[608324,450673]},{"type":"Point","properties":{"name":"Jinshi","scalerank":7,"subregion":"Hunan","latitude":29.632105,"longitude":111.851715},"id":"Q1374715","coordinates":[625294,366637]},{"type":"Point","properties":{"name":"Chenzhou","scalerank":7,"subregion":"Hunan","latitude":25.800427,"longitude":113.030093},"id":"Q416748","coordinates":[644558,265254]},{"type":"Point","properties":{"name":"Zhijiang","scalerank":7,"subregion":"Hunan","latitude":27.440947,"longitude":109.678049},"id":"Q14297991","coordinates":[589759,308661]},{"type":"Point","properties":{"name":"Xiangtan","scalerank":7,"subregion":"Hunan","latitude":27.850431,"longitude":112.900023},"id":"Q215755","coordinates":[642431,319496]},{"type":"Point","properties":{"name":"Zigong","scalerank":7,"subregion":"Sichuan","latitude":29.401946,"longitude":104.778056},"id":"Q29015","coordinates":[509655,360547]},{"type":"Point","properties":{"name":"Yaan","scalerank":7,"subregion":"Sichuan","latitude":29.98043,"longitude":103.080002},"id":"Q427557","coordinates":[481896,375854]},{"type":"Point","properties":{"name":"Langzhong","scalerank":7,"subregion":"Sichuan","latitude":31.57594,"longitude":105.965563},"id":"Q1200170","coordinates":[529068,418070]},{"type":"Point","properties":{"name":"Rongzhag","scalerank":7,"subregion":"Sichuan","latitude":30.950448,"longitude":101.916663},"coordinates":[462878,401520]},{"type":"Point","properties":{"name":"Simao","scalerank":7,"subregion":"Yunnan","latitude":22.780688,"longitude":100.978167},"coordinates":[447535,185355]},{"type":"Point","properties":{"name":"Wenshan","scalerank":7,"subregion":"Yunnan","latitude":23.372358,"longitude":104.249698},"id":"Q1201048","coordinates":[501018,201010]},{"type":"Point","properties":{"name":"Zhanyi","scalerank":7,"subregion":"Yunnan","latitude":25.600465,"longitude":103.81665},"coordinates":[493938,259963]},{"type":"Point","properties":{"name":"Huize","scalerank":7,"subregion":"Yunnan","latitude":26.350419,"longitude":103.416674},"coordinates":[487400,279807]},{"type":"Point","properties":{"name":"Chengde","scalerank":7,"subregion":"Hebei","latitude":40.96038,"longitude":117.93},"id":"Q58675","coordinates":[724660,666374]},{"type":"Point","properties":{"name":"Cangzhou","scalerank":7,"subregion":"Hebei","latitude":38.320386,"longitude":116.870013},"id":"Q58695","coordinates":[707332,596522]},{"type":"Point","properties":{"name":"Baoding","scalerank":7,"subregion":"Hebei","latitude":38.872376,"longitude":115.478075},"id":"Q58584","coordinates":[684427,610756]},{"type":"Point","properties":{"name":"Huanghua","scalerank":7,"subregion":"Hebei","latitude":38.370434,"longitude":117.330037},"id":"Q1207090","coordinates":[714852,597846]},{"type":"Point","properties":{"name":"Dingzhou","scalerank":7,"subregion":"Hebei","latitude":38.500427,"longitude":114.999998},"id":"Q645183","coordinates":[676761,601286]},{"type":"Point","properties":{"name":"Nangong","scalerank":7,"subregion":"Hebei","latitude":37.370392,"longitude":115.370002},"id":"Q1014384","coordinates":[682810,571386]},{"type":"Point","properties":{"name":"Linqing","scalerank":7,"subregion":"Hebei","latitude":36.850398,"longitude":115.680009},"id":"Q1207099","coordinates":[687878,557627]},{"type":"Point","properties":{"name":"Xiangtai","scalerank":7,"subregion":"Hebei","latitude":37.049972,"longitude":114.500029},"id":"Q58576","coordinates":[668588,562908]},{"type":"Point","properties":{"name":"Puyang","scalerank":7,"subregion":"Henan","latitude":35.700391,"longitude":114.98},"id":"Q404484","coordinates":[676434,527199]},{"type":"Point","properties":{"name":"Hebi","scalerank":7,"subregion":"Henan","latitude":35.950375,"longitude":114.220046},"id":"Q404301","coordinates":[664011,533813]},{"type":"Point","properties":{"name":"Xuchang","scalerank":7,"subregion":"Henan","latitude":34.02039,"longitude":113.820019},"id":"Q404529","coordinates":[657471,482748]},{"type":"Point","properties":{"name":"Zhoukou","scalerank":7,"subregion":"Henan","latitude":33.630414,"longitude":114.630047},"id":"Q198061","coordinates":[670713,472429]},{"type":"Point","properties":{"name":"Dengzhou","scalerank":7,"subregion":"Henan","latitude":32.680368,"longitude":112.080022},"id":"Q1187144","coordinates":[629026,447292]},{"type":"Point","properties":{"name":"Tieling","scalerank":7,"subregion":"Liaoning","latitude":42.300375,"longitude":123.819977},"id":"Q75268","coordinates":[820948,701829]},{"type":"Point","properties":{"name":"Chaoyang","scalerank":7,"subregion":"Liaoning","latitude":41.550421,"longitude":120.419978},"id":"Q75336","coordinates":[765366,681986]},{"type":"Point","properties":{"name":"Huanren","scalerank":7,"subregion":"Liaoning","latitude":41.256331,"longitude":125.345982},"id":"Q5926085","coordinates":[845895,674204]},{"type":"Point","properties":{"name":"Zhuanghe","scalerank":7,"subregion":"Liaoning","latitude":39.682292,"longitude":122.96189},"id":"Q198159","coordinates":[806920,632557]},{"type":"Point","properties":{"name":"Yishui","scalerank":7,"subregion":"Shandong","latitude":35.790437,"longitude":118.619984},"id":"Q1198349","coordinates":[735940,529582]},{"type":"Point","properties":{"name":"Shanxian","scalerank":7,"subregion":"Shandong","latitude":34.79042,"longitude":116.079984},"coordinates":[694417,503122]},{"type":"Point","properties":{"name":"Pingyi","scalerank":7,"subregion":"Shandong","latitude":35.510428,"longitude":117.620045},"coordinates":[719593,522173]},{"type":"Point","properties":{"name":"Pingdu","scalerank":7,"subregion":"Shandong","latitude":36.790376,"longitude":119.940007},"id":"Q2060398","coordinates":[757519,556039]},{"type":"Point","properties":{"name":"Laiwu","scalerank":7,"subregion":"Shandong","latitude":36.200412,"longitude":117.660043},"id":"Q373234","coordinates":[720247,540429]},{"type":"Point","properties":{"name":"Buizhou","scalerank":7,"subregion":"Shandong","latitude":37.370392,"longitude":118.020021},"id":"Q373687","coordinates":[725550,571652]},{"type":"Point","properties":{"name":"Liaocheng","scalerank":7,"subregion":"Shandong","latitude":36.430424,"longitude":115.970017},"id":"Q373564","coordinates":[692619,546515]},{"type":"Point","properties":{"name":"Rizhao","scalerank":7,"subregion":"Shandong","latitude":35.430381,"longitude":119.450011},"id":"Q373101","coordinates":[749509,520055]},{"type":"Point","properties":{"name":"Dezhou","scalerank":7,"subregion":"Shandong","latitude":37.450413,"longitude":116.300022},"id":"Q162880","coordinates":[698014,573503]},{"type":"Point","properties":{"name":"Linchuan","scalerank":7,"subregion":"Jiangxi","latitude":27.970346,"longitude":116.360019},"coordinates":[698995,322669]},{"type":"Point","properties":{"name":"Fengcheng","scalerank":7,"subregion":"Jiangxi","latitude":28.200409,"longitude":115.770029},"id":"Q1375351","coordinates":[689349,328756]},{"type":"Point","properties":{"name":"Jian","scalerank":7,"subregion":"Jiangxi","latitude":27.130423,"longitude":114.999998},"id":"Q363262","coordinates":[676761,300445]},{"type":"Point","properties":{"name":"Shangrao","scalerank":7,"subregion":"Jiangxi","latitude":28.470393,"longitude":117.969998},"id":"Q363479","coordinates":[725314,335899]},{"type":"Point","properties":{"name":"Jingdezhen","scalerank":7,"subregion":"Jiangxi","latitude":29.270421,"longitude":117.18002},"id":"Q34405","coordinates":[712400,357067]},{"type":"Point","properties":{"name":"Taizhou","scalerank":7,"subregion":"Jiangsu","latitude":32.490406,"longitude":119.900009},"id":"Q57931","coordinates":[756865,442266]},{"type":"Point","properties":{"name":"Shuyang","scalerank":7,"subregion":"Jiangsu","latitude":34.129866,"longitude":118.77336},"coordinates":[738447,485644]},{"type":"Point","properties":{"name":"Lianyungang","scalerank":7,"subregion":"Jiangsu","latitude":34.600432,"longitude":119.170028},"id":"Q57756","coordinates":[745850,497740]},{"type":"Point","properties":{"name":"Lishui","scalerank":7,"subregion":"Zhejiang","latitude":28.45042,"longitude":119.900009},"id":"Q58294","coordinates":[756865,335371]},{"type":"Point","properties":{"name":"Jiaojing","scalerank":7,"subregion":"Zhejiang","latitude":28.680406,"longitude":121.449992},"id":"Q513077","coordinates":[782204,341456]},{"type":"Point","properties":{"name":"Quzhou","scalerank":7,"subregion":"Zhejiang","latitude":28.97044,"longitude":118.869995},"id":"Q58235","coordinates":[740027,349130]},{"type":"Point","properties":{"name":"Songyuan","scalerank":7,"subregion":"Jilin","latitude":45.180381,"longitude":124.820019},"id":"Q92364","coordinates":[837297,778031]},{"type":"Point","properties":{"name":"Dunhua","scalerank":7,"subregion":"Jilin","latitude":43.350492,"longitude":128.220018},"id":"Q713307","coordinates":[892879,729614]},{"type":"Point","properties":{"name":"Nongan","scalerank":7,"subregion":"Jilin","latitude":44.4304,"longitude":125.170075},"id":"Q1996202","coordinates":[843019,758188]},{"type":"Point","properties":{"name":"Taonan","scalerank":7,"subregion":"Jilin","latitude":45.330423,"longitude":122.78004},"id":"Q1004248","coordinates":[803948,782001]},{"type":"Point","properties":{"name":"Liuhe","scalerank":7,"subregion":"Jilin","latitude":42.278852,"longitude":125.717329},"id":"Q11109923","coordinates":[851966,701259]},{"type":"Point","properties":{"name":"Huinan","scalerank":7,"subregion":"Jilin","latitude":42.62294,"longitude":126.26143},"id":"Q926818","coordinates":[860861,710364]},{"type":"Point","properties":{"name":"Panshi","scalerank":7,"subregion":"Jilin","latitude":42.942636,"longitude":126.056119},"id":"Q1361953","coordinates":[857504,718823]},{"type":"Point","properties":{"name":"Jiaohe","scalerank":7,"subregion":"Jilin","latitude":43.716284,"longitude":127.345963},"id":"Q1014635","coordinates":[878590,739293]},{"type":"Point","properties":{"name":"Linjiang","scalerank":7,"subregion":"Jilin","latitude":41.836347,"longitude":126.935962},"id":"Q594843","coordinates":[871888,689551]},{"type":"Point","properties":{"name":"Wangqing","scalerank":7,"subregion":"Jilin","latitude":43.324783,"longitude":129.734344},"id":"Q13897219","coordinates":[917635,728934]},{"type":"Point","properties":{"name":"Helong","scalerank":7,"subregion":"Jilin","latitude":42.534754,"longitude":129.004363},"id":"Q699125","coordinates":[905701,708030]},{"type":"Point","properties":{"name":"Shulan","scalerank":7,"subregion":"Jilin","latitude":44.40911,"longitude":126.948726},"id":"Q1205127","coordinates":[872096,757624]},{"type":"Point","properties":{"name":"Jiutai","scalerank":7,"subregion":"Jilin","latitude":44.144733,"longitude":125.844349},"id":"Q1015907","coordinates":[854042,750629]},{"type":"Point","properties":{"name":"Alxa Zuoqi","scalerank":7,"subregion":"Nei Mongol","latitude":38.83901,"longitude":105.66863},"id":"Q1367222","coordinates":[524214,610244]},{"type":"Point","properties":{"name":"Linxi","scalerank":7,"subregion":"Nei Mongol","latitude":43.517071,"longitude":118.033302},"id":"Q11106980","coordinates":[726349,734022]},{"type":"Point","properties":{"name":"Kailu","scalerank":7,"subregion":"Nei Mongol","latitude":43.583734,"longitude":121.199982},"coordinates":[778117,735786]},{"type":"Point","properties":{"name":"Bairin Zuoqi","scalerank":7,"subregion":"Nei Mongol","latitude":43.983709,"longitude":119.183361},"id":"Q1329235","coordinates":[745150,746369]},{"type":"Point","properties":{"name":"Yitulihe","scalerank":7,"subregion":"Nei Mongol","latitude":50.651623,"longitude":121.516655},"id":"Q10884943","coordinates":[783294,922796]},{"type":"Point","properties":{"name":"Yakeshi","scalerank":7,"subregion":"Nei Mongol","latitude":49.280414,"longitude":120.730036},"id":"Q1010264","coordinates":[770435,886515]},{"type":"Point","properties":{"name":"Bugt","scalerank":7,"subregion":"Nei Mongol","latitude":48.783804,"longitude":121.933374},"coordinates":[790106,873375]},{"type":"Point","properties":{"name":"Wuyuan","scalerank":7,"subregion":"Nei Mongol","latitude":41.089622,"longitude":108.272192},"coordinates":[566776,669793]},{"type":"Point","properties":{"name":"Bayan Obo","scalerank":7,"subregion":"Nei Mongol","latitude":41.767643,"longitude":109.971106},"coordinates":[594550,687733]},{"type":"Point","properties":{"name":"Fengzhen","scalerank":7,"subregion":"Nei Mongol","latitude":40.4547,"longitude":113.144349},"id":"Q1341574","coordinates":[646425,652994]},{"type":"Point","properties":{"name":"Suihua","scalerank":7,"subregion":"Heilongjiang","latitude":46.630421,"longitude":126.979991},"id":"Q349985","coordinates":[872607,816398]},{"type":"Point","properties":{"name":"Shuangyashan","scalerank":7,"subregion":"Heilongjiang","latitude":46.670419,"longitude":131.350008},"id":"Q349973","coordinates":[944048,817457]},{"type":"Point","properties":{"name":"Shangzhi","scalerank":7,"subregion":"Heilongjiang","latitude":45.22043,"longitude":127.970008},"id":"Q1015925","coordinates":[888792,779091]},{"type":"Point","properties":{"name":"Fujin","scalerank":7,"subregion":"Heilongjiang","latitude":47.270382,"longitude":132.019993},"id":"Q614877","coordinates":[955000,833331]},{"type":"Point","properties":{"name":"Yian","scalerank":7,"subregion":"Heilongjiang","latitude":47.880397,"longitude":125.29999},"id":"Q2600269","coordinates":[845143,849472]},{"type":"Point","properties":{"name":"Tailai","scalerank":7,"subregion":"Heilongjiang","latitude":46.390358,"longitude":123.409976},"id":"Q11145142","coordinates":[814246,810046]},{"type":"Point","properties":{"name":"Longjiang","scalerank":7,"subregion":"Heilongjiang","latitude":47.340404,"longitude":123.180016},"id":"Q1869551","coordinates":[810486,835184]},{"type":"Point","properties":{"name":"Gannan","scalerank":7,"subregion":"Heilongjiang","latitude":47.920368,"longitude":123.510022},"id":"Q1493582","coordinates":[815881,850529]},{"type":"Point","properties":{"name":"Hailun","scalerank":7,"subregion":"Heilongjiang","latitude":47.450423,"longitude":126.93002},"id":"Q1278514","coordinates":[871791,838095]},{"type":"Point","properties":{"name":"Mishan","scalerank":7,"subregion":"Heilongjiang","latitude":45.550384,"longitude":131.880002},"id":"Q203738","coordinates":[952712,787821]},{"type":"Point","properties":{"name":"Tieli","scalerank":7,"subregion":"Heilongjiang","latitude":46.950376,"longitude":128.050003},"id":"Q1344820","coordinates":[890100,824864]},{"type":"Point","properties":{"name":"Shuangcheng","scalerank":7,"subregion":"Heilongjiang","latitude":45.350344,"longitude":126.279982},"id":"Q1000142","coordinates":[861164,782529]},{"type":"Point","properties":{"name":"Zhaodong","scalerank":7,"subregion":"Heilongjiang","latitude":46.080429,"longitude":125.98},"id":"Q197495","coordinates":[856260,801846]},{"type":"Point","properties":{"name":"Lanxi","scalerank":7,"subregion":"Heilongjiang","latitude":46.266361,"longitude":126.275951},"id":"Q10893722","coordinates":[861098,806766]},{"type":"Point","properties":{"name":"Keshan","scalerank":7,"subregion":"Heilongjiang","latitude":48.026331,"longitude":125.86595},"id":"Q1522472","coordinates":[854395,853333]},{"type":"Point","properties":{"name":"Nancha","scalerank":7,"subregion":"Heilongjiang","latitude":47.136359,"longitude":129.285948},"id":"Q2043360","coordinates":[910305,829785]},{"type":"Point","properties":{"name":"Xinqing","scalerank":7,"subregion":"Heilongjiang","latitude":48.236344,"longitude":129.505935},"id":"Q787402","coordinates":[913901,858890]},{"type":"Point","properties":{"name":"Hulin","scalerank":7,"subregion":"Heilongjiang","latitude":45.769027,"longitude":132.992233},"id":"Q1361161","coordinates":[970894,793607]},{"type":"Point","properties":{"name":"Boli","scalerank":7,"subregion":"Heilongjiang","latitude":45.756366,"longitude":130.575947},"coordinates":[931393,793272]},{"type":"Point","properties":{"name":"Ningan","scalerank":7,"subregion":"Heilongjiang","latitude":44.331337,"longitude":129.465937},"id":"Q1321612","coordinates":[913247,755566]},{"type":"Point","properties":{"name":"Jyekundo","scalerank":6,"subregion":"Gansu","latitude":33.016627,"longitude":96.73331},"id":"Q1558594","coordinates":[382611,455689]},{"type":"Point","properties":{"name":"Liuzhou","scalerank":6,"subregion":"Guangxi","latitude":24.281948,"longitude":109.248068},"id":"Q38968","coordinates":[585435,226104]},{"type":"Point","properties":{"name":"Xingyi","scalerank":6,"subregion":"Guizhou","latitude":25.092364,"longitude":104.888075},"id":"Q1359367","coordinates":[511454,246520]},{"type":"Point","properties":{"name":"Anshun","scalerank":6,"subregion":"Guizhou","latitude":26.252345,"longitude":105.928064},"id":"Q486149","coordinates":[528455,277212]},{"type":"Point","properties":{"name":"Zunyi","scalerank":6,"subregion":"Guizhou","latitude":27.701972,"longitude":106.918081},"id":"Q28994","coordinates":[544640,315568]},{"type":"Point","properties":{"name":"Wanzhou","scalerank":6,"subregion":"Chongqing","latitude":30.819991,"longitude":108.400039},"coordinates":[568867,398068]},{"type":"Point","properties":{"name":"Huaibei","scalerank":6,"subregion":"Anhui","latitude":33.952314,"longitude":116.748075},"id":"Q360268","coordinates":[705338,480946]},{"type":"Point","properties":{"name":"Wuhu","scalerank":6,"subregion":"Anhui","latitude":31.35237,"longitude":118.368028},"id":"Q359990","coordinates":[731821,412154]},{"type":"Point","properties":{"name":"Luan","scalerank":6,"subregion":"Anhui","latitude":31.752293,"longitude":116.478066},"id":"Q360702","coordinates":[700924,422736]},{"type":"Point","properties":{"name":"Bengbu","scalerank":6,"subregion":"Anhui","latitude":32.951936,"longitude":117.328091},"id":"Q360069","coordinates":[714820,454477]},{"type":"Point","properties":{"name":"Anqing","scalerank":6,"subregion":"Anhui","latitude":30.499959,"longitude":117.050002},"id":"Q360374","coordinates":[710274,389600]},{"type":"Point","properties":{"name":"Foshan","scalerank":6,"subregion":"Guangdong","latitude":23.031999,"longitude":113.118064},"id":"Q34412","coordinates":[645922,191435]},{"type":"Point","properties":{"name":"Nagchu","scalerank":6,"subregion":"Xizang","latitude":31.480002,"longitude":92.05003},"id":"Q1868994","coordinates":[301580,415531]},{"type":"Point","properties":{"name":"Nyingchi","scalerank":6,"subregion":"Xizang","latitude":29.533299,"longitude":94.416707},"id":"Q1012465","coordinates":[339449,367130]},{"type":"Point","properties":{"name":"Chamdo","scalerank":6,"subregion":"Xizang","latitude":31.166688,"longitude":97.233279},"id":"Q1012419","coordinates":[385459,406560]},{"type":"Point","properties":{"name":"Korla","scalerank":6,"subregion":"Xinjiang Uygur","latitude":41.729997,"longitude":86.150028},"id":"Q837425","coordinates":[205128,686737]},{"type":"Point","properties":{"name":"Kuqa","scalerank":6,"subregion":"Xinjiang Uygur","latitude":41.727749,"longitude":82.936374},"id":"Q1023116","coordinates":[152592,686678]},{"type":"Point","properties":{"name":"Tacheng","scalerank":6,"subregion":"Xinjiang Uygur","latitude":46.750026,"longitude":82.950017},"id":"Q648696","coordinates":[152815,819563]},{"type":"Point","properties":{"name":"Shihezi","scalerank":6,"subregion":"Xinjiang Uygur","latitude":44.299969,"longitude":86.029932},"id":"Q848680","coordinates":[203165,754737]},{"type":"Point","properties":{"name":"Karamay","scalerank":6,"subregion":"Xinjiang Uygur","latitude":45.589942,"longitude":84.859926},"id":"Q658240","coordinates":[184038,788868]},{"type":"Point","properties":{"name":"Aksu","scalerank":6,"subregion":"Xinjiang Uygur","latitude":41.150006,"longitude":80.250026},"id":"Q421648","coordinates":[108676,671391]},{"type":"Point","properties":{"name":"Sanya","scalerank":6,"subregion":"Hainan","latitude":18.259105,"longitude":109.504032},"id":"Q319804","coordinates":[586914,65717]},{"type":"Point","properties":{"name":"Haikou","scalerank":6,"subregion":"Hainan","latitude":20.050002,"longitude":110.320026},"id":"Q189823","coordinates":[600254,113103]},{"type":"Point","properties":{"name":"Hanzhong","scalerank":6,"subregion":"Shaanxi","latitude":33.129979,"longitude":107.029994},"id":"Q515573","coordinates":[546469,459188]},{"type":"Point","properties":{"name":"Baoji","scalerank":6,"subregion":"Shaanxi","latitude":34.380006,"longitude":107.149987},"id":"Q514796","coordinates":[548431,492263]},{"type":"Point","properties":{"name":"Tongchuan","scalerank":6,"subregion":"Shaanxi","latitude":35.079989,"longitude":109.029975},"id":"Q514608","coordinates":[579165,510784]},{"type":"Point","properties":{"name":"Linfen","scalerank":6,"subregion":"Shanxi","latitude":36.082288,"longitude":111.518058},"id":"Q73156","coordinates":[619839,537304]},{"type":"Point","properties":{"name":"Yuci","scalerank":6,"subregion":"Shanxi","latitude":37.682345,"longitude":112.728062},"coordinates":[639620,579640]},{"type":"Point","properties":{"name":"Datong","scalerank":6,"subregion":"Shanxi","latitude":40.081966,"longitude":113.298053},"id":"Q72877","coordinates":[648938,643132]},{"type":"Point","properties":{"name":"Jianmen","scalerank":6,"subregion":"Hubei","latitude":30.651999,"longitude":113.158061},"id":"Q71323","coordinates":[646650,393623]},{"type":"Point","properties":{"name":"Yichang","scalerank":6,"subregion":"Hubei","latitude":30.701918,"longitude":111.278073},"id":"Q71266","coordinates":[615916,394944]},{"type":"Point","properties":{"name":"Xiantao","scalerank":6,"subregion":"Hubei","latitude":30.372352,"longitude":113.438096},"id":"Q71455","coordinates":[651228,386224]},{"type":"Point","properties":{"name":"Macheng","scalerank":6,"subregion":"Hubei","latitude":31.179995,"longitude":115.030022},"id":"Q1016939","coordinates":[677252,407593]},{"type":"Point","properties":{"name":"Huangshi","scalerank":6,"subregion":"Hubei","latitude":30.220002,"longitude":115.099992},"id":"Q71204","coordinates":[678396,382193]},{"type":"Point","properties":{"name":"Zhuzhou","scalerank":6,"subregion":"Hunan","latitude":27.831938,"longitude":113.148088},"id":"Q198266","coordinates":[646487,319006]},{"type":"Point","properties":{"name":"Yongzhou","scalerank":6,"subregion":"Hunan","latitude":26.23232,"longitude":111.618052},"id":"Q266014","coordinates":[621328,281593]},{"type":"Point","properties":{"name":"Yiyang","scalerank":6,"subregion":"Hunan","latitude":28.602356,"longitude":112.328086},"id":"Q416669","coordinates":[633081,339391]},{"type":"Point","properties":{"name":"Changde","scalerank":6,"subregion":"Hunan","latitude":29.031943,"longitude":111.6781},"id":"Q416544","coordinates":[622456,350757]},{"type":"Point","properties":{"name":"Shaoyang","scalerank":6,"subregion":"Hunan","latitude":26.999992,"longitude":111.200075},"id":"Q194531","coordinates":[614641,296994]},{"type":"Point","properties":{"name":"Leshan","scalerank":6,"subregion":"Sichuan","latitude":29.569042,"longitude":103.731402},"id":"Q426868","coordinates":[492545,364969]},{"type":"Point","properties":{"name":"Panzhihua","scalerank":6,"subregion":"Sichuan","latitude":26.549993,"longitude":101.730007},"id":"Q425415","coordinates":[459826,285087]},{"type":"Point","properties":{"name":"Fulin","scalerank":6,"subregion":"Sichuan","latitude":29.350003,"longitude":102.716717},"id":"Q10954379","coordinates":[475957,359173]},{"type":"Point","properties":{"name":"Guangyuan","scalerank":6,"subregion":"Sichuan","latitude":32.429996,"longitude":105.870013},"id":"Q426237","coordinates":[527506,440667]},{"type":"Point","properties":{"name":"Luzhou","scalerank":6,"subregion":"Sichuan","latitude":28.881926,"longitude":105.378071},"id":"Q425492","coordinates":[519464,346788]},{"type":"Point","properties":{"name":"Yibin","scalerank":6,"subregion":"Sichuan","latitude":28.771933,"longitude":104.568095},"id":"Q427265","coordinates":[506223,343878]},{"type":"Point","properties":{"name":"Zhaotang","scalerank":6,"subregion":"Yunnan","latitude":27.322331,"longitude":103.718069},"id":"Q197519","coordinates":[492327,305523]},{"type":"Point","properties":{"name":"Lijiang","scalerank":6,"subregion":"Yunnan","latitude":26.800004,"longitude":100.266582},"id":"Q205914","coordinates":[435903,291702]},{"type":"Point","properties":{"name":"Yuxi","scalerank":6,"subregion":"Yunnan","latitude":24.379996,"longitude":102.570008},"id":"Q496496","coordinates":[473558,227671]},{"type":"Point","properties":{"name":"Dali","scalerank":6,"subregion":"Yunnan","latitude":25.700019,"longitude":100.179973},"id":"Q855228","coordinates":[435637,259785]},{"type":"Point","properties":{"name":"Qinhuangdao","scalerank":6,"subregion":"Hebei","latitude":39.932311,"longitude":119.618081},"id":"Q58560","coordinates":[752257,639172]},{"type":"Point","properties":{"name":"Langfang","scalerank":6,"subregion":"Hebei","latitude":39.52231,"longitude":116.678053},"id":"Q58710","coordinates":[704194,628324]},{"type":"Point","properties":{"name":"Zhangjiakou","scalerank":6,"subregion":"Hebei","latitude":40.831946,"longitude":114.928031},"id":"Q58650","coordinates":[674342,662269]},{"type":"Point","properties":{"name":"Tangshan","scalerank":6,"subregion":"Hebei","latitude":39.626283,"longitude":118.192431},"id":"Q58422","coordinates":[728950,631075]},{"type":"Point","properties":{"name":"Anyang","scalerank":6,"subregion":"Henan","latitude":36.081926,"longitude":114.348066},"id":"Q324293","coordinates":[666104,537294]},{"type":"Point","properties":{"name":"Jiaozuo","scalerank":6,"subregion":"Henan","latitude":35.251951,"longitude":113.218058},"id":"Q404429","coordinates":[648309,513977]},{"type":"Point","properties":{"name":"Kaifeng","scalerank":6,"subregion":"Henan","latitude":34.851949,"longitude":114.348066},"id":"Q208471","coordinates":[666214,503212]},{"type":"Point","properties":{"name":"Shangqiu","scalerank":6,"subregion":"Henan","latitude":34.452361,"longitude":115.64809},"id":"Q404817","coordinates":[687381,493134]},{"type":"Point","properties":{"name":"Pingdingshan","scalerank":6,"subregion":"Henan","latitude":33.732353,"longitude":113.298053},"id":"Q404116","coordinates":[648938,475126]},{"type":"Point","properties":{"name":"Xinyang","scalerank":6,"subregion":"Henan","latitude":32.132322,"longitude":114.068032},"id":"Q404873","coordinates":[661526,432791]},{"type":"Point","properties":{"name":"Xinxiang","scalerank":6,"subregion":"Henan","latitude":35.322386,"longitude":113.868044},"id":"Q404362","coordinates":[658925,516647]},{"type":"Point","properties":{"name":"Luoyang","scalerank":6,"subregion":"Henan","latitude":34.681934,"longitude":112.468129},"id":"Q187136","coordinates":[634984,499242]},{"type":"Point","properties":{"name":"Liaoyang","scalerank":6,"subregion":"Liaoning","latitude":41.281944,"longitude":123.17807},"id":"Q75203","coordinates":[810455,674882]},{"type":"Point","properties":{"name":"Dandong","scalerank":6,"subregion":"Liaoning","latitude":40.145554,"longitude":124.391639},"id":"Q75110","coordinates":[830294,644814]},{"type":"Point","properties":{"name":"Yingkow","scalerank":6,"subregion":"Liaoning","latitude":40.672292,"longitude":122.278073},"id":"Q75150","coordinates":[795742,658751]},{"type":"Point","properties":{"name":"Jinzhou","scalerank":6,"subregion":"Liaoning","latitude":41.122316,"longitude":121.098094},"id":"Q28996","coordinates":[776452,670659]},{"type":"Point","properties":{"name":"Fuxin","scalerank":6,"subregion":"Liaoning","latitude":42.012417,"longitude":121.658059},"id":"Q34750","coordinates":[785606,694210]},{"type":"Point","properties":{"name":"Benxi","scalerank":6,"subregion":"Liaoning","latitude":41.332329,"longitude":123.748061},"id":"Q75091","coordinates":[819773,676215]},{"type":"Point","properties":{"name":"Fushun","scalerank":6,"subregion":"Liaoning","latitude":41.867335,"longitude":123.868054},"id":"Q75026","coordinates":[821734,690371]},{"type":"Point","properties":{"name":"Jining","scalerank":6,"subregion":"Shandong","latitude":35.402355,"longitude":116.548087},"id":"Q372791","coordinates":[702069,519313]},{"type":"Point","properties":{"name":"Weifang","scalerank":6,"subregion":"Shandong","latitude":36.722352,"longitude":119.098164},"id":"Q217698","coordinates":[744696,553708]},{"type":"Point","properties":{"name":"Taian","scalerank":6,"subregion":"Shandong","latitude":36.201944,"longitude":117.11813},"id":"Q217681","coordinates":[711388,540470]},{"type":"Point","properties":{"name":"Heze","scalerank":6,"subregion":"Shandong","latitude":35.231926,"longitude":115.448103},"id":"Q332753","coordinates":[684087,514804]},{"type":"Point","properties":{"name":"Laiyang","scalerank":6,"subregion":"Shandong","latitude":36.968401,"longitude":120.708435},"id":"Q371640","coordinates":[770081,560749]},{"type":"Point","properties":{"name":"Xinyu","scalerank":6,"subregion":"Jiangxi","latitude":27.801966,"longitude":114.928031},"id":"Q362959","coordinates":[675585,318213]},{"type":"Point","properties":{"name":"Ganzhou","scalerank":6,"subregion":"Jiangxi","latitude":25.91998,"longitude":114.950027},"id":"Q363166","coordinates":[675944,268418]},{"type":"Point","properties":{"name":"Jiujiang","scalerank":6,"subregion":"Jiangxi","latitude":29.72998,"longitude":115.980042},"id":"Q216077","coordinates":[692783,369227]},{"type":"Point","properties":{"name":"Changzhou","scalerank":6,"subregion":"Jiangsu","latitude":31.78193,"longitude":119.968033},"id":"Q57970","coordinates":[757978,423520]},{"type":"Point","properties":{"name":"Zhenjiang","scalerank":6,"subregion":"Jiangsu","latitude":32.221929,"longitude":119.428066},"id":"Q57958","coordinates":[749190,433939]},{"type":"Point","properties":{"name":"Nantong","scalerank":6,"subregion":"Jiangsu","latitude":32.032328,"longitude":120.823072},"id":"Q57947","coordinates":[773615,428821]},{"type":"Point","properties":{"name":"Jiaxing","scalerank":6,"subregion":"Zhejiang","latitude":30.772353,"longitude":120.748037},"id":"Q58178","coordinates":[770729,396807]},{"type":"Point","properties":{"name":"Huzhou","scalerank":6,"subregion":"Zhejiang","latitude":30.872321,"longitude":120.098051},"id":"Q42664","coordinates":[760103,399452]},{"type":"Point","properties":{"name":"Shaoxing","scalerank":6,"subregion":"Zhejiang","latitude":30.002323,"longitude":120.5681},"id":"Q42666","coordinates":[767787,376433]},{"type":"Point","properties":{"name":"Jinhua","scalerank":6,"subregion":"Zhejiang","latitude":29.120043,"longitude":119.649999},"id":"Q58210","coordinates":[752778,353089]},{"type":"Point","properties":{"name":"Liaoyuan","scalerank":6,"subregion":"Jilin","latitude":42.899977,"longitude":125.129974},"id":"Q92311","coordinates":[842364,717694]},{"type":"Point","properties":{"name":"Tumen","scalerank":6,"subregion":"Jilin","latitude":42.969999,"longitude":129.820076},"id":"Q713323","coordinates":[919037,719547]},{"type":"Point","properties":{"name":"Siping","scalerank":6,"subregion":"Jilin","latitude":43.170012,"longitude":124.330023},"id":"Q92297","coordinates":[829286,724839]},{"type":"Point","properties":{"name":"Baicheng","scalerank":6,"subregion":"Jilin","latitude":45.620018,"longitude":122.820038},"id":"Q92381","coordinates":[804601,789664]},{"type":"Point","properties":{"name":"Wuhai","scalerank":6,"subregion":"Nei Mongol","latitude":39.664697,"longitude":106.812229},"id":"Q570768","coordinates":[542909,632091]},{"type":"Point","properties":{"name":"Erenhot","scalerank":6,"subregion":"Nei Mongol","latitude":43.661559,"longitude":111.965455},"id":"Q1001036","coordinates":[627153,737845]},{"type":"Point","properties":{"name":"Jining","scalerank":6,"subregion":"Nei Mongol","latitude":41.029988,"longitude":113.080012},"id":"Q11060772","coordinates":[645374,668216]},{"type":"Point","properties":{"name":"Arxan","scalerank":6,"subregion":"Nei Mongol","latitude":47.183307,"longitude":119.96662},"id":"Q717743","coordinates":[757954,831027]},{"type":"Point","properties":{"name":"Manzhouli","scalerank":6,"subregion":"Nei Mongol","latitude":49.599982,"longitude":117.429979},"id":"Q890671","coordinates":[716486,894970]},{"type":"Point","properties":{"name":"Xilinhot","scalerank":6,"subregion":"Nei Mongol","latitude":43.944332,"longitude":116.044327},"id":"Q1009416","coordinates":[693834,745327]},{"type":"Point","properties":{"name":"Heihe","scalerank":6,"subregion":"Heilongjiang","latitude":50.250019,"longitude":127.446009},"id":"Q349983","coordinates":[880226,912170]},{"type":"Point","properties":{"name":"Qitaihe","scalerank":6,"subregion":"Heilongjiang","latitude":45.799981,"longitude":130.850039},"id":"Q349979","coordinates":[938474,793575]},{"type":"Point","properties":{"name":"Yichun","scalerank":6,"subregion":"Heilongjiang","latitude":47.701888,"longitude":128.898031},"id":"Q349976","coordinates":[903963,844748]},{"type":"Point","properties":{"name":"Hegang","scalerank":6,"subregion":"Heilongjiang","latitude":47.400012,"longitude":130.370016},"id":"Q349982","coordinates":[926829,835349]},{"type":"Point","properties":{"name":"Nenjiang","scalerank":6,"subregion":"Heilongjiang","latitude":49.179981,"longitude":125.23002},"id":"Q6991629","coordinates":[843999,883858]},{"type":"Point","properties":{"name":"Nehe","scalerank":6,"subregion":"Heilongjiang","latitude":48.489998,"longitude":124.880015},"id":"Q1332600","coordinates":[838278,865601]},{"type":"Point","properties":{"name":"Mudangiang","scalerank":6,"subregion":"Heilongjiang","latitude":44.576963,"longitude":129.588066},"id":"Q217646","coordinates":[915244,762066]},{"type":"Point","properties":{"name":"Xuanzhou","scalerank":6,"subregion":"Anhui","latitude":30.954446,"longitude":118.753332},"id":"Q360942","coordinates":[738120,401625]},{"type":"Point","properties":{"name":"Zhuhai","scalerank":6,"subregion":"Guangdong","latitude":22.27889,"longitude":113.565832},"id":"Q59095","coordinates":[653316,172077]},{"type":"Point","properties":{"name":"Xianyang","scalerank":6,"subregion":"Shaanxi","latitude":34.347502,"longitude":108.712776},"id":"Q497341","coordinates":[573979,491403]},{"type":"Point","properties":{"name":"Xiangyang","scalerank":6,"subregion":"Hubei","latitude":32.021941,"longitude":112.128099},"id":"Q71284","coordinates":[629812,429870]},{"type":"Point","properties":{"name":"Suining","scalerank":6,"subregion":"Sichuan","latitude":30.535279,"longitude":105.531387},"id":"Q426644","coordinates":[521970,390535]},{"type":"Point","properties":{"name":"Lingyuan","scalerank":6,"subregion":"Liaoning","latitude":41.241946,"longitude":119.399165},"id":"Q1333417","coordinates":[748678,673824]},{"type":"Point","properties":{"name":"Weihai","scalerank":6,"subregion":"Shandong","latitude":37.499971,"longitude":122.099978},"id":"Q373023","coordinates":[792830,574814]},{"type":"Point","properties":{"name":"Yichun","scalerank":6,"subregion":"Jiangxi","latitude":27.835279,"longitude":114.398054},"id":"Q363326","coordinates":[666921,319095]},{"type":"Point","properties":{"name":"Yancheng","scalerank":6,"subregion":"Jiangsu","latitude":33.387502,"longitude":120.123332},"id":"Q57866","coordinates":[761239,464689]},{"type":"Point","properties":{"name":"Fuyang","scalerank":6,"subregion":"Zhejiang","latitude":30.055279,"longitude":119.949999},"id":"Q1011103","coordinates":[757683,377834]},{"type":"Point","properties":{"name":"Xiamen","scalerank":4,"subregion":"Fujian","latitude":24.451938,"longitude":118.078071},"id":"Q68744","coordinates":[727081,229574]},{"type":"Point","properties":{"name":"Nanchong","scalerank":4,"subregion":"Sichuan","latitude":30.782378,"longitude":106.128051},"id":"Q426996","coordinates":[531725,397073]},{"type":"Point","properties":{"name":"Neijiang","scalerank":4,"subregion":"Sichuan","latitude":29.582323,"longitude":105.048066},"id":"Q426756","coordinates":[514069,365320]},{"type":"Point","properties":{"name":"Nanyang","scalerank":4,"subregion":"Henan","latitude":33.002346,"longitude":112.528074},"id":"Q404763","coordinates":[636351,455811]},{"type":"Point","properties":{"name":"Jinxi","scalerank":4,"subregion":"Liaoning","latitude":40.752287,"longitude":120.828033},"coordinates":[772037,660868]},{"type":"Point","properties":{"name":"Yantai","scalerank":4,"subregion":"Shandong","latitude":37.532354,"longitude":121.398075},"id":"Q210493","coordinates":[781356,575671]},{"type":"Point","properties":{"name":"Zaozhuang","scalerank":4,"subregion":"Shandong","latitude":34.881947,"longitude":117.568077},"id":"Q147187","coordinates":[718744,505544]},{"type":"Point","properties":{"name":"Suzhou","scalerank":4,"subregion":"Jiangsu","latitude":31.302424,"longitude":120.618071},"id":"Q42622","coordinates":[768604,410833]},{"type":"Point","properties":{"name":"Xuzhou","scalerank":4,"subregion":"Jiangsu","latitude":34.281958,"longitude":117.178074},"id":"Q57719","coordinates":[712368,489668]},{"type":"Point","properties":{"name":"Wuxi","scalerank":4,"subregion":"Jiangsu","latitude":31.581942,"longitude":120.298039},"id":"Q42651","coordinates":[763372,418228]},{"type":"Point","properties":{"name":"Jilin","scalerank":4,"subregion":"Jilin","latitude":43.851917,"longitude":126.548097},"id":"Q92277","coordinates":[865547,742881]},{"type":"Point","properties":{"name":"Zhangye","scalerank":4,"subregion":"Gansu","latitude":38.929987,"longitude":100.450034},"id":"Q197402","coordinates":[438902,612651]},{"type":"Point","properties":{"name":"Wuwei","scalerank":4,"subregion":"Gansu","latitude":37.928007,"longitude":102.641011},"id":"Q249007","coordinates":[474719,586140]},{"type":"Point","properties":{"name":"Dunhuang","scalerank":4,"subregion":"Gansu","latitude":40.142678,"longitude":94.662015},"id":"Q319114","coordinates":[344280,644738]},{"type":"Point","properties":{"name":"Tianshui","scalerank":4,"subregion":"Gansu","latitude":34.601964,"longitude":105.918038},"id":"Q533157","coordinates":[528291,498136]},{"type":"Point","properties":{"name":"Dulan","scalerank":4,"subregion":"Gansu","latitude":36.16659,"longitude":98.266601},"coordinates":[403207,539534]},{"type":"Point","properties":{"name":"Golmud","scalerank":4,"subregion":"Gansu","latitude":36.416626,"longitude":94.883345},"id":"Q858250","coordinates":[347899,546150]},{"type":"Point","properties":{"name":"Yulin","scalerank":4,"subregion":"Guangxi","latitude":22.63192,"longitude":110.148064},"id":"Q571918","coordinates":[597443,181418]},{"type":"Point","properties":{"name":"Bose","scalerank":4,"subregion":"Guangxi","latitude":23.899716,"longitude":106.613327},"id":"Q92381","coordinates":[539658,214963]},{"type":"Point","properties":{"name":"Wuzhou","scalerank":4,"subregion":"Guangxi","latitude":23.480026,"longitude":111.320016},"id":"Q571652","coordinates":[616602,203858]},{"type":"Point","properties":{"name":"Liupanshui","scalerank":4,"subregion":"Guizhou","latitude":26.596381,"longitude":104.831386},"id":"Q485918","coordinates":[510527,286315]},{"type":"Point","properties":{"name":"Quanzhou","scalerank":4,"subregion":"Fujian","latitude":24.901962,"longitude":118.578041},"id":"Q68695","coordinates":[735254,241482]},{"type":"Point","properties":{"name":"Hefei","scalerank":4,"subregion":"Anhui","latitude":31.851977,"longitude":117.278068},"id":"Q185684","coordinates":[714003,425373]},{"type":"Point","properties":{"name":"Suzhou","scalerank":4,"subregion":"Anhui","latitude":33.638057,"longitude":116.976943},"id":"Q360643","coordinates":[709080,472631]},{"type":"Point","properties":{"name":"Zhanjiang","scalerank":4,"subregion":"Guangdong","latitude":21.20193,"longitude":110.378076},"id":"Q59144","coordinates":[601203,143582]},{"type":"Point","properties":{"name":"Shaoguan","scalerank":4,"subregion":"Guangdong","latitude":24.799971,"longitude":113.579982},"id":"Q59107","coordinates":[653547,238783]},{"type":"Point","properties":{"name":"Xigaze","scalerank":4,"subregion":"Xizang","latitude":29.250009,"longitude":88.88335},"id":"Q1211183","coordinates":[249812,356527]},{"type":"Point","properties":{"name":"Shache","scalerank":4,"subregion":"Xinjiang Uygur","latitude":38.426142,"longitude":77.250003},"id":"Q857618","coordinates":[59633,599320]},{"type":"Point","properties":{"name":"Yining","scalerank":4,"subregion":"Xinjiang Uygur","latitude":43.900019,"longitude":81.350011},"id":"Q866021","coordinates":[126659,744154]},{"type":"Point","properties":{"name":"Altay","scalerank":4,"subregion":"Xinjiang Uygur","latitude":47.866599,"longitude":88.116626},"id":"Q434924","coordinates":[237278,849107]},{"type":"Point","properties":{"name":"Shizuishan","scalerank":4,"subregion":"Ningxia Hui","latitude":39.233276,"longitude":106.769028},"id":"Q604385","coordinates":[542203,620676]},{"type":"Point","properties":{"name":"Yulin","scalerank":4,"subregion":"Shaanxi","latitude":38.283308,"longitude":109.733291},"id":"Q515712","coordinates":[590662,595541]},{"type":"Point","properties":{"name":"Ankang","scalerank":4,"subregion":"Shaanxi","latitude":32.679981,"longitude":109.020002},"id":"Q515846","coordinates":[579002,447281]},{"type":"Point","properties":{"name":"Houma","scalerank":4,"subregion":"Shanxi","latitude":35.619982,"longitude":111.209997},"id":"Q975264","coordinates":[614803,525071]},{"type":"Point","properties":{"name":"Yueyang","scalerank":4,"subregion":"Hunan","latitude":29.381999,"longitude":113.098065},"id":"Q151958","coordinates":[645669,360020]},{"type":"Point","properties":{"name":"Hengyang","scalerank":4,"subregion":"Hunan","latitude":26.881971,"longitude":112.58807},"id":"Q144663","coordinates":[637332,293871]},{"type":"Point","properties":{"name":"Mianyang","scalerank":4,"subregion":"Sichuan","latitude":31.471923,"longitude":104.768031},"id":"Q426130","coordinates":[508215,415130]},{"type":"Point","properties":{"name":"Xichang","scalerank":4,"subregion":"Sichuan","latitude":27.880015,"longitude":102.299998},"id":"Q224603","coordinates":[469144,320278]},{"type":"Point","properties":{"name":"Baoshan","scalerank":4,"subregion":"Yunnan","latitude":25.119977,"longitude":99.15001},"id":"Q496576","coordinates":[417649,247250]},{"type":"Point","properties":{"name":"Gejiu","scalerank":4,"subregion":"Yunnan","latitude":23.37998,"longitude":103.150076},"id":"Q1016730","coordinates":[483041,201211]},{"type":"Point","properties":{"name":"Shijiazhuang","scalerank":4,"subregion":"Hebei","latitude":38.051961,"longitude":114.478033},"id":"Q58401","coordinates":[668228,589420]},{"type":"Point","properties":{"name":"Handan","scalerank":4,"subregion":"Hebei","latitude":36.581921,"longitude":114.478033},"id":"Q58570","coordinates":[668228,550524]},{"type":"Point","properties":{"name":"Anshan","scalerank":4,"subregion":"Liaoning","latitude":41.116967,"longitude":122.938085},"id":"Q74957","coordinates":[806531,670517]},{"type":"Point","properties":{"name":"Dalian","scalerank":4,"subregion":"Liaoning","latitude":38.924784,"longitude":121.627885},"id":"Q74881","coordinates":[785112,612514]},{"type":"Point","properties":{"name":"Qingdao","scalerank":4,"subregion":"Shandong","latitude":36.091925,"longitude":120.328063},"id":"Q170322","coordinates":[763863,537559]},{"type":"Point","properties":{"name":"Linyi","scalerank":4,"subregion":"Shandong","latitude":35.081935,"longitude":118.32803},"id":"Q373346","coordinates":[731167,510835]},{"type":"Point","properties":{"name":"Huaiyin","scalerank":4,"subregion":"Jiangsu","latitude":33.581949,"longitude":119.028039},"id":"Q57818","coordinates":[743231,471232]},{"type":"Point","properties":{"name":"Wenzhou","scalerank":4,"subregion":"Zhejiang","latitude":28.021927,"longitude":120.648147},"id":"Q42635","coordinates":[769096,324033]},{"type":"Point","properties":{"name":"Ningbo","scalerank":4,"subregion":"Zhejiang","latitude":29.881917,"longitude":121.548092},"id":"Q42780","coordinates":[783808,373247]},{"type":"Point","properties":{"name":"Tongliao","scalerank":4,"subregion":"Nei Mongol","latitude":43.621905,"longitude":122.268048},"id":"Q570884","coordinates":[795578,736796]},{"type":"Point","properties":{"name":"Hohhot","scalerank":4,"subregion":"Nei Mongol","latitude":40.821921,"longitude":111.65805},"id":"Q535534","coordinates":[622128,662710]},{"type":"Point","properties":{"name":"Chifeng","scalerank":4,"subregion":"Nei Mongol","latitude":42.271961,"longitude":118.948044},"id":"Q570829","coordinates":[741303,701077]},{"type":"Point","properties":{"name":"Ulan Hot","scalerank":4,"subregion":"Nei Mongol","latitude":46.080016,"longitude":122.080031},"id":"Q1000383","coordinates":[792504,801835]},{"type":"Point","properties":{"name":"Hailar","scalerank":4,"subregion":"Nei Mongol","latitude":49.19998,"longitude":119.700022},"id":"Q986724","coordinates":[753596,884387]},{"type":"Point","properties":{"name":"Jiamusi","scalerank":4,"subregion":"Heilongjiang","latitude":46.831967,"longitude":130.348072},"id":"Q29003","coordinates":[927668,821731]},{"type":"Point","properties":{"name":"Bei'an","scalerank":4,"subregion":"Heilongjiang","latitude":48.239005,"longitude":126.482037},"id":"Q814616","coordinates":[865228,859152]},{"type":"Point","properties":{"name":"Daqing","scalerank":4,"subregion":"Heilongjiang","latitude":46.581905,"longitude":124.998062},"id":"Q304848","coordinates":[840207,815115]},{"type":"Point","properties":{"name":"Jixi","scalerank":4,"subregion":"Heilongjiang","latitude":45.301906,"longitude":130.968085},"id":"Q28979","coordinates":[937804,781247]},{"type":"Point","properties":{"name":"Jiayuguan","scalerank":3,"subregion":"Gansu","latitude":39.82001,"longitude":98.299984},"id":"Q532560","coordinates":[403753,636201]},{"type":"Point","properties":{"name":"Xining","scalerank":3,"subregion":"Gansu","latitude":36.621945,"longitude":101.768059},"id":"Q69060","coordinates":[460448,551583]},{"type":"Point","properties":{"name":"Guilin","scalerank":3,"subregion":"Guangxi","latitude":25.281939,"longitude":110.278082},"id":"Q189633","coordinates":[599568,251536]},{"type":"Point","properties":{"name":"Huainan","scalerank":3,"subregion":"Anhui","latitude":32.63193,"longitude":116.978035},"id":"Q360178","coordinates":[709098,446010]},{"type":"Point","properties":{"name":"Shantou","scalerank":3,"subregion":"Guangdong","latitude":23.371952,"longitude":116.66808},"id":"Q59100","coordinates":[704031,200999]},{"type":"Point","properties":{"name":"Lhasa","scalerank":3,"subregion":"Xizang","latitude":29.645024,"longitude":91.10001},"id":"Q5869","coordinates":[286049,366979]},{"type":"Point","properties":{"name":"Hami","scalerank":3,"subregion":"Xinjiang Uygur","latitude":42.826984,"longitude":93.515005},"id":"Q650585","coordinates":[325529,715763]},{"type":"Point","properties":{"name":"Hotan","scalerank":3,"subregion":"Xinjiang Uygur","latitude":37.099711,"longitude":79.926945},"id":"Q235389","coordinates":[103395,564224]},{"type":"Point","properties":{"name":"Kashgar","scalerank":3,"subregion":"Xinjiang Uygur","latitude":39.476336,"longitude":75.969926},"id":"Q170521","coordinates":[38706,627107]},{"type":"Point","properties":{"name":"Yinchuan","scalerank":3,"subregion":"Ningxia Hui","latitude":38.46992,"longitude":106.271092},"id":"Q211243","coordinates":[534063,600478]},{"type":"Point","properties":{"name":"Pingxiang","scalerank":3,"subregion":"Jiangxi","latitude":27.621951,"longitude":113.848097},"id":"Q362865","coordinates":[657930,313450]},{"type":"Point","properties":{"name":"Qiqihar","scalerank":3,"subregion":"Heilongjiang","latitude":47.346923,"longitude":123.988046},"id":"Q205922","coordinates":[823696,835356]},{"type":"Point","properties":{"name":"Shenzhen","scalerank":2,"subregion":"Guangdong","latitude":22.554316,"longitude":114.120177},"id":"Q15174","coordinates":[661413,179200]},{"type":"Point","properties":{"name":"Zibo","scalerank":2,"subregion":"Shandong","latitude":36.801934,"longitude":118.048047},"id":"Q198370","coordinates":[725747,556859]},{"type":"Point","properties":{"name":"Lanzhou","scalerank":2,"subregion":"Gansu","latitude":36.057974,"longitude":103.790054},"id":"Q183584","coordinates":[493503,536660]},{"type":"Point","properties":{"name":"Nanning","scalerank":2,"subregion":"Guangxi","latitude":22.821934,"longitude":108.318099},"id":"Q179608","coordinates":[567527,186446]},{"type":"Point","properties":{"name":"Guiyang","scalerank":2,"subregion":"Guizhou","latitude":26.581989,"longitude":106.718093},"id":"Q192271","coordinates":[541370,285934]},{"type":"Point","properties":{"name":"Chongqing","scalerank":2,"subregion":"Chongqing","latitude":29.566923,"longitude":106.593036},"id":"Q11725","coordinates":[539326,364913]},{"type":"Point","properties":{"name":"Fuzhou","scalerank":2,"subregion":"Fujian","latitude":26.081942,"longitude":119.2981},"id":"Q68481","coordinates":[747026,272703]},{"type":"Point","properties":{"name":"Guangzhou","scalerank":2,"subregion":"Guangdong","latitude":23.146927,"longitude":113.323064},"id":"Q16572","coordinates":[648345,194457]},{"type":"Point","properties":{"name":"Dongguan","scalerank":2,"subregion":"Guangdong","latitude":23.050835,"longitude":113.742776},"id":"Q59218","coordinates":[656334,191727]},{"type":"Point","properties":{"name":"Xian","scalerank":2,"subregion":"Shaanxi","latitude":34.276971,"longitude":108.89305},"id":"Q5826","coordinates":[576926,489537]},{"type":"Point","properties":{"name":"Taiyuan","scalerank":2,"subregion":"Shanxi","latitude":37.876958,"longitude":112.543112},"id":"Q72778","coordinates":[636597,584789]},{"type":"Point","properties":{"name":"Wuhan","scalerank":2,"subregion":"Hubei","latitude":30.581977,"longitude":114.268071},"id":"Q11746","coordinates":[664796,391770]},{"type":"Point","properties":{"name":"Changsha","scalerank":2,"subregion":"Hunan","latitude":28.201916,"longitude":112.968047},"id":"Q174091","coordinates":[643543,328796]},{"type":"Point","properties":{"name":"Kunming","scalerank":2,"subregion":"Yunnan","latitude":25.071926,"longitude":102.678029},"id":"Q182852","coordinates":[475642,245210]},{"type":"Point","properties":{"name":"Zhengzhou","scalerank":2,"subregion":"Henan","latitude":34.756942,"longitude":113.663147},"id":"Q30340","coordinates":[654907,502236]},{"type":"Point","properties":{"name":"Shenyeng","scalerank":2,"subregion":"Liaoning","latitude":41.806925,"longitude":123.448028},"id":"Q11720","coordinates":[814868,688773]},{"type":"Point","properties":{"name":"Jinan","scalerank":2,"subregion":"Shandong","latitude":36.676928,"longitude":116.993073},"id":"Q170247","coordinates":[709344,553037]},{"type":"Point","properties":{"name":"Tianjin","scalerank":2,"subregion":"Tianjin","latitude":39.131972,"longitude":117.198073},"id":"Q11736","coordinates":[712671,616694]},{"type":"Point","properties":{"name":"Nanchang","scalerank":2,"subregion":"Jiangxi","latitude":28.681938,"longitude":115.87805},"id":"Q171943","coordinates":[691115,341497]},{"type":"Point","properties":{"name":"Nanjing","scalerank":2,"subregion":"Jiangsu","latitude":32.051965,"longitude":118.778029},"id":"Q16666","coordinates":[738524,430665]},{"type":"Point","properties":{"name":"Hangzhou","scalerank":2,"subregion":"Zhejiang","latitude":30.25192,"longitude":120.168073},"id":"Q4970","coordinates":[761248,383037]},{"type":"Point","properties":{"name":"Changchun","scalerank":2,"subregion":"Jilin","latitude":43.866954,"longitude":125.338042},"id":"Q92161","coordinates":[845765,743279]},{"type":"Point","properties":{"name":"Baotou","scalerank":2,"subregion":"Nei Mongol","latitude":40.654153,"longitude":109.820074},"id":"Q569907","coordinates":[592081,658271]},{"type":"Point","properties":{"name":"Harbin","scalerank":2,"subregion":"Heilongjiang","latitude":45.75193,"longitude":126.648039},"id":"Q42956","coordinates":[867181,793154]},{"type":"Point","properties":{"name":"Ürümqi","scalerank":1,"subregion":"Xinjiang Uygur","latitude":43.806958,"longitude":87.57306},"id":"Q16959","coordinates":[228392,741692]},{"type":"Point","properties":{"name":"Chengdu","scalerank":1,"subregion":"Sichuan","latitude":30.671946,"longitude":104.068074},"id":"Q30002","coordinates":[498048,394151]},{"type":"Point","properties":{"name":"Beijing","scalerank":0,"subregion":"Beijing","latitude":39.930838,"longitude":116.38634},"id":"Q956","coordinates":[699553,638363]},{"type":"Point","properties":{"name":"Shanghai","scalerank":0,"subregion":"Shanghai","latitude":31.218398,"longitude":121.434559},"id":"Q8686","coordinates":[781952,408609]}]}},"arcs":[[[87537,491203],[-11178,8438],[-4447,16141],[891,4868],[-10510,437],[-8441,3181],[-5324,4277],[-549,4002],[-6067,-2547],[-4442,7703],[1345,9664],[-3041,5959],[-6213,1574],[-968,4457],[-7206,1238],[-8631,4340],[12777,7251],[-4450,5254],[1198,4452],[-2852,8308],[-235,11357],[-7228,4136],[-4991,-3698],[-3785,2000],[-1859,6671],[2163,3673],[-3494,6403],[497,5625],[4808,3824],[-1696,5631],[2958,6750],[5982,1191],[7609,10737],[5862,-1862],[6437,4516],[1539,-8473],[9193,3956],[1134,-2590],[5079,7520],[2332,8392],[3938,2633],[7637,-1645],[9810,1521],[4658,8943],[15436,10849],[14350,6176],[1414,5742],[-2099,10186],[1430,4446],[5346,2856],[-3047,3427],[6862,2635],[-1229,8754],[-6009,17045],[175,14547],[1967,2184],[-7919,1541],[1144,5961],[12950,2846],[14474,5598],[3447,-5122],[10383,856],[498,6842],[-5300,2587],[3228,9750],[8575,34209],[14580,-5838],[12395,262],[1692,-4387],[7161,5706],[4798,479],[2808,8798],[-2534,14181],[4386,12894],[12774,3168],[5269,15333],[8388,-948],[6798,2509],[-170,-9664],[2239,-5321],[10173,-6786],[256,-3467],[7598,-5794],[8112,1006],[3425,-5469],[4795,1467],[4907,-5851],[2026,-9253],[5877,-8642],[3585,-11004],[-2474,-6996],[1737,-7413],[-4768,-7135],[-975,-6854],[3631,-8122],[12910,-3351],[13277,-1642],[4538,1072],[12630,-2295],[6574,-7364],[18136,-11059],[5601,850],[-848,-7420],[2987,-729],[6510,-20230],[6308,-7442],[1177,-5566]],[[372142,713009],[-5273,-5901],[-130,-13351],[-4314,-4381],[-11667,-1089],[-7803,-5381],[-9317,-12731],[-7088,-13655],[-10396,-3053],[-359,-9380],[-2406,-8137],[2870,-9474],[-196,-7928]],[[316063,618548],[-9855,-2725],[-3439,-2890],[-13542,-5173],[-10477,-1880],[-8216,-6384],[4714,-11555],[-46,-5755],[10418,-7690],[3496,-12553],[-7844,-2724],[-1956,-5611],[5208,-5160],[2110,-9600],[-4263,-3625],[-4125,2844],[-15446,-772]],[[262800,537295],[-7425,4805],[-12496,4904],[-32693,-6071],[-4039,-2739],[-4617,-9373],[-6017,-2759],[-6737,2445],[-15286,-9548],[-10625,-748],[-7620,1378],[-2661,6914],[-8300,415],[-6963,-9798],[-4754,-1953],[-10634,3781],[-1342,-2518],[-10784,5712],[-7117,-15602],[1184,-6214],[-2653,-6713],[-9637,223],[-4047,-2633]],[[262800,537295],[-3967,-2491],[5780,-4259],[-958,-10139],[-4018,-2684],[1280,-10208],[3679,-794],[-1043,-4942],[1989,-9780],[-3358,-8256],[9245,-17370],[9782,-6905],[9115,5198],[2960,-6791],[11095,-8873],[12826,-274],[8247,-5782],[3658,1491],[6157,-2493],[7707,5132],[7840,-10874],[5942,-4404],[1174,-9343],[9762,-1088],[3007,5518],[3352,-4117],[5104,-1006],[-1020,6480],[8531,3054],[1732,11229],[5802,1165]],[[394202,443689],[8011,-4989],[4041,-9831],[-447,-4516],[7509,-12154],[-4597,-4877],[5731,-11163],[-800,-2224],[2467,-19804],[-1137,-6996],[1996,-11302]],[[416976,355833],[-4220,-10681],[-3039,4077],[-399,-14554],[-2461,-4658],[-3108,2824],[-3020,-5581]],[[400729,327260],[-9298,10441],[-3641,-8494],[-3400,3945],[-13302,1433],[4842,7652],[-2296,7532],[-4288,-1415],[1980,6106],[-2852,5202],[-6493,-742],[-6169,-8042],[-9659,3445],[-2389,4042],[-5879,-5862],[-337,-4361],[-5271,-6624],[-7872,-287],[-3897,-8767],[-9041,-6211],[-1305,-6827],[-5483,463],[-6125,-3580],[-3976,5840],[-5420,3723],[-3230,-3168],[-10092,2663],[1839,4259],[-5920,3310],[-5929,-1656],[-4928,-4264],[-8346,-13927],[-2593,-7746],[-2474,6090],[1845,7884],[-3979,6936],[-8047,-6481],[-6399,-1405],[-9335,477],[-9999,7070],[-1721,-4820],[-3855,2427],[-3642,-3106],[-4697,11908],[-1326,-2225],[-8691,1790],[1435,6996],[-8014,561],[-7236,7822],[-2223,9181],[-9516,-1463],[-5803,11469],[-5321,916],[-4819,6970],[-6343,3571],[-1063,7194],[-11464,1160],[-1065,-6354],[-3672,-3092],[-1990,6305],[-10629,7708],[-1544,4721],[-6505,6260],[-7061,1643],[-5417,11582],[-2439,-5072],[-2984,1728],[1314,7207],[-2419,4317],[1205,5125],[-4686,7023],[-1258,7895],[5432,2897],[3237,-7482],[11597,9895],[-3377,6438],[98,8021],[-5265,330],[-4476,4588],[-1539,16357],[3708,6898]],[[781604,993328],[6325,-7772],[-10238,-11340],[13797,-8252],[2547,5200],[9832,-7399],[-2247,-2780],[1255,-10406],[3953,-8350],[10028,-4820],[4849,2898],[7921,-921],[7681,2308],[5017,6612],[5870,-2867],[9313,-13947],[-4942,-5978],[906,-5083],[-4371,-4119],[-4035,-10375],[-455,-15240],[-1786,-7603],[-4809,642],[-5328,-15973],[-910,-12174],[-4060,11093],[-16792,-18972],[-10487,-7479],[-2618,-5278],[2760,-5306],[10018,-9777],[6972,2103],[-3532,-6437],[-6429,-315],[2577,-9680]],[[810186,805541],[-5933,-3459],[-1476,-9905],[-5066,6196],[-2595,-3590],[-3986,4414],[-5664,-6333],[4657,-1350],[4898,-10660],[-3649,-4464],[575,-11203],[5406,-12567],[11806,8242],[6921,-22080],[-2355,-6451],[5201,-2638]],[[818926,729693],[-1378,-7200],[-14452,-9005],[-4113,2874],[-2893,-5640],[-4158,2233],[-6522,-7072],[-4532,1228],[-5470,-6347],[-6644,-2639],[-9672,-11985],[-96,4053],[-7644,13527],[-5182,-4904],[1964,-2276],[-1100,-8550],[1490,-8064],[-2595,-5270]],[[745929,674656],[-14406,1663],[-3113,10131],[2661,3821],[-3077,4190],[-1793,9544],[-3871,6006],[-6131,-4009],[-8588,-1660],[-474,-9945],[-7856,-259],[-5553,-5532],[-2927,3356],[-8922,-6034],[-6933,-2365],[512,8648],[-1887,6391],[-5289,-2729],[-3689,-5694],[-958,-7051],[-4399,-4637],[-1719,-8577],[5416,-9303]],[[662933,660611],[-1804,-6736],[-11601,-4479],[-1705,2591],[-8639,-6400],[-4940,3005],[-4908,-7485],[-2902,-8377],[-7055,-971],[-6210,-7063]],[[613169,624696],[172,5175],[-7891,-8882],[-2349,3419],[-13404,-9608],[-11246,-17886],[680,-5934],[-4045,-5441],[-264,-5911],[-11862,-1307],[-6230,5832]],[[556730,584153],[-8092,7559],[-5452,312],[-5869,3712],[8300,19710],[-3085,8608],[-7963,-1891],[-3087,-4462],[-4447,-14540],[-868,-20274],[-7089,-1387],[-6705,-5475],[-8486,-1247],[-1090,-2576]],[[502797,572202],[-4087,1604],[-7027,8286],[-3932,1783],[540,15703],[5282,4098],[7037,13227],[-2684,8909],[-5090,-66],[-12814,-8084],[-9355,3118],[-9330,-4436],[3413,-5037],[-3271,-5010],[-8512,2091],[-2133,6662],[-5362,3885],[-307,5625],[-4736,762],[-5797,7568],[-8218,4792],[-4174,74],[7659,8625],[4977,10906],[-3149,7391],[-13956,-1587],[-8364,-7111],[-6719,-684],[1499,8307],[-6147,6989],[-4952,8883],[3258,4332],[-10728,30899]],[[385618,714706],[37335,-5896],[8869,2971],[19646,-3881],[6848,-381],[6483,-8753],[16990,-4765],[10585,-6587],[12748,3043],[-45,-5419],[8449,-1842],[13957,10513],[14700,7756],[23043,4437],[10128,-1480],[11251,1347],[15066,8449],[8616,13737],[16341,10818],[-1546,6407],[-4822,5767],[-2247,6872],[5430,14548],[4463,3206],[7027,-928],[2365,-3402],[17149,-4698],[6870,5141],[7821,11773],[18050,1557],[8698,7005],[708,5267],[6382,10614],[11413,1080],[1505,5854],[4944,-1564],[8862,5375],[9448,1132],[14123,-4407],[3663,3104],[-3339,11922],[-6834,6756],[-3244,6527],[-8848,8062],[-13087,300],[-6227,-8645],[-8297,5855],[-9962,-245],[-6395,-4162],[-5528,11021],[4818,4018],[-145,6784],[14449,34209],[17567,-8216],[14476,11691],[10984,3653],[599,6690],[-3460,823],[5811,9537],[9997,24558],[10969,11970],[-902,11234],[-10913,1544],[-384,4237],[13753,13746],[8812,983]],[[372142,713009],[13476,1697]],[[502797,572202],[5411,283],[10334,-16701],[-1654,-2323],[3686,-11599],[-2050,-8761],[5990,-6408],[3611,-7326],[9105,-1906],[-581,9713],[7914,2365],[513,7623],[-7327,5065],[95,11593],[2316,12572],[10486,-2995]],[[550646,563397],[-58,-4063],[9884,-4221],[2537,-4171],[10821,-6318],[-434,-9359],[-3008,-3282],[2029,-12922],[-2037,-3184],[-13440,-1178],[2613,-6648],[-10127,-2247],[-4839,5219],[-5726,-249],[-243,-5743],[-3793,-7388],[5818,-5257],[-4075,-12857],[2209,-7941],[-7945,500],[-5811,-6055],[3184,-4101],[-429,-6765],[-6342,-1868]],[[521434,453299],[-3737,-7030],[-6076,-791],[-9963,6246],[1537,12664],[-4739,9050],[-9322,1206],[-5535,2857],[-1048,9168],[-5530,2794],[-6700,-7891],[-3282,-905],[5078,-12614],[-10284,-9074],[1152,7523],[-2382,3272]],[[460603,469774],[-4609,4619],[-5482,-1071],[-503,4934],[-5522,8050],[2347,6124],[11058,-5162],[2758,-3274],[7110,7648],[-1063,3665],[-6461,5520],[10144,13230],[-1411,5377],[6509,2850],[211,8595],[4507,-164],[1052,10140],[-3626,2898],[-5860,16659],[1479,5508],[-8467,8337],[-1563,6662],[-2803,-5443],[-11702,11609],[-6768,3749],[-8092,10066],[289,-7367],[-5862,4188],[-16642,18574],[-2937,-3178],[-4543,2002],[-4180,-5858],[-11543,9223],[-5494,1211],[-1324,-22172],[-14561,8483],[-12252,13334],[-4057,-935],[-9446,4508],[-12380,-293],[-12851,-4072]],[[416976,355833],[878,-20786],[3580,-6711],[190,9479],[5324,7924],[2073,-6310],[4862,-6938],[-1377,-7288],[4746,-8451],[5097,3396],[7856,-21967],[5774,-8977],[-1344,-3596],[3779,-5826],[-796,-3726],[4162,-4599],[4300,1312],[7448,7785],[1629,-4043],[4637,3156],[1741,5612],[-2560,9724],[-194,9704],[3781,3195],[6339,11967],[-809,7150],[6887,5053],[-1391,5436],[10119,2882],[-2684,-2893],[3181,-11401],[-1132,-3657],[3750,-3065],[4784,1463],[2589,4948],[3705,-2312],[238,-7382]],[[518138,316091],[-1628,-8549],[-5337,-2352],[-6984,991],[-4403,-2003],[-3159,3387],[-6289,-8558],[3004,-3340],[104,-9862],[3823,-1665],[6694,5248],[4016,-8818],[-6037,-18905],[7716,-10664],[-3897,-13758]],[[505761,237243],[970,-8976],[8400,193],[931,-6415],[4532,-3433],[2524,2749],[3047,-3198],[3811,2388],[2823,-6390],[-1073,-8698],[-4579,-563],[-5341,-9426]],[[521806,195474],[-3420,5362],[-7227,-5351],[-759,-6335],[-7903,-6291],[-2075,3668],[-3726,-7881],[-5532,7194],[-2169,-5601],[-3345,5307],[-5240,-9269],[-8932,8667],[-3674,-9380],[-9211,938],[-2229,-5766],[3807,-10903],[-543,-18036],[-8319,2939],[-1473,13607],[-6783,-6440],[-8449,-2342],[-667,5856],[-3206,1903],[-128,8583],[-13045,2858],[3488,9047],[-815,6607],[3026,8261],[-10365,3228],[-27,11244],[-4449,12472],[-6599,1136],[-8901,-6750],[-1972,2098],[3126,4828],[-1109,8308],[-1966,-225],[270,8314],[4701,13669],[4654,3367],[519,5889],[3148,-1177],[2891,7173],[2990,1083],[-2401,5997],[3434,13743],[-1357,14567],[110,10630],[-4398,2829],[-1889,-3907],[-2938,16068]],[[942459,732754],[-6795,-527],[-6917,5819],[-2189,7813],[-2886,-3149],[-3118,4661],[-2623,-3901],[-8226,-2328],[-332,-4704],[-5658,-1382],[-7143,15817],[-1426,9201],[-5161,-4260],[-3161,-7535],[-5833,9393],[1086,4310],[-8407,646],[517,8885],[-2026,5296],[-6430,2978],[-6684,-2793],[-5064,2478],[-2311,7334],[-5306,-3004],[-16317,1559],[-5799,8076],[-1068,13974],[-12996,-1870]],[[781604,993328],[15115,4604],[8530,-460],[12337,2366],[10109,-4808],[2869,-3862],[11758,-771],[9909,-5951],[13039,-21934],[-1391,-4501],[7453,-15387],[487,-8923],[5813,-8275],[708,-11188],[4050,-2848],[-1149,-10536],[9553,-7429],[11516,818],[4756,-5832],[6777,1553],[6720,-9822],[5491,-4632],[6948,167],[-2307,-6218],[4723,-7992],[-2285,-7499],[5574,-9738],[24543,668],[2452,6432],[6823,4132],[6077,-457],[12138,7147],[8086,-2596],[-2184,-5851],[3357,-8723],[-10111,-11981],[-4114,-26431],[-3516,-3099],[-4286,-14855],[-4658,-3836],[-406,-8266],[-2649,-2610],[-16082,5542],[-2478,2618],[-6515,-9891],[-7947,-3102],[2165,-4225],[3247,-16612],[-1539,-7226],[1349,-8254]],[[942459,732754],[-4257,-16416],[-3644,452],[-7271,-5703],[-3323,8773],[-4410,-528],[-2426,-13746],[-5937,82],[-2109,-5967],[-5030,-5125],[-14204,-860],[4388,-10857],[-2565,-5479],[-14338,3403],[-5546,7834],[-5099,-3575],[-1906,-6127],[-7944,-13897],[-5089,-1321]],[[851749,663697],[1019,7416],[-7522,14311],[427,12814],[-9264,24896],[-4663,-6729],[-3247,9915],[-8716,6517],[-857,-3144]],[[851749,663697],[-4754,-6018],[-8464,-3920],[-12708,-17211],[-11957,-1152],[-16191,-10016],[-8770,-12341],[-11554,-5742],[-575,5710],[9092,3826],[1728,7500],[-9096,4158],[5296,3824],[-187,4990],[5523,3430],[6998,13520],[-7369,8729],[-11039,2383],[-10301,-13757],[-1793,-5501],[-9577,-5508]],[[756051,640601],[-3522,5894],[-1162,8757],[-4414,-247],[-7176,7671],[6152,11980]],[[505761,237243],[3098,-2920],[7509,9985],[5230,-5062],[8372,-4645],[2207,8426],[13729,7806],[-342,4896],[4408,3127],[4163,-9115],[2428,2441],[3506,-4244],[4370,3250],[2684,7141],[4487,-3250],[2073,4925],[5669,-1552],[-1440,6148],[5674,-864],[2555,7827]],[[586141,271563],[5155,-3458],[2538,7645],[5226,-5792],[5021,9606],[5310,-1747],[1117,3034],[4980,-2915],[-941,-8525],[4124,-815],[-8043,-23850],[1243,-2840],[3985,6077],[3036,-3685],[-522,-8662],[3906,2610],[5386,-1164]],[[627662,237082],[829,-9372],[-2909,-3959],[533,-6093],[-3996,-4230],[-4353,-10860],[-654,-13839],[-5353,-7132],[-5583,-4103],[1509,-5291],[-7210,-2465],[716,-7596],[-6705,-970],[-3582,-7721]],[[590904,153451],[-4175,3271],[622,-5474],[-6409,-2383],[-48,5328],[-6281,1248],[-4950,5706],[1145,-7151],[-3225,3020],[-4985,-6331],[-4443,4952],[-6484,-1539],[-11443,10481],[-1983,11438],[3592,8376],[-4231,4791],[-2814,-1895],[-5173,3217],[-2377,-1871],[-5436,6839]],[[627662,237082],[2422,1531],[621,9500],[7857,-1044],[5322,-3948],[-1321,9425],[5058,4907],[5966,-4753],[5642,3232]],[[659229,255932],[1610,-4774],[8882,3683],[2638,-7341],[-5186,-3962],[-3995,-8205],[4181,-4498],[16278,7540],[4662,-6319],[2971,9818]],[[691270,241874],[7922,-1997],[2574,-5978],[3580,-1690],[3582,-9694],[1126,-11824],[2257,-3226]],[[712311,207465],[-4343,1013],[-2218,-8075],[-4112,1634],[1468,-4563],[-1910,-7921],[-3207,632],[-7725,-5731],[-2346,3744],[-2592,-3873],[-7494,1434],[-3029,-6267],[-1560,6793],[-3620,-2199],[-777,-7411],[-1965,4256],[-8260,-4254],[-4245,15404],[-4582,-3842],[4067,-8322],[-188,-8925],[-9139,-7322],[-3313,132],[-3564,-5055],[-5936,-1814],[-3790,2590],[-6254,-7264],[-8862,-1514],[-6270,-3284],[-1118,-3132],[-7060,-3914],[-782,-6175],[3469,0],[-1114,-5075],[3815,-4731],[-2194,-4696],[-7935,-1383],[-3575,24385],[4063,8546],[-3210,2165]],[[611542,103413],[-5572,-7992],[-3971,-18543],[-7099,-6293],[-4028,-1248],[-3023,-5995],[-14161,8877],[-1112,20377],[9449,11738],[1615,5374],[2637,-2319],[4152,4673],[4431,-2770],[2729,4270],[6656,-2192],[1860,4738],[4196,-4459],[1241,-8236]],[[765353,302454],[-2972,-7385],[-8848,-5796],[2964,-10446],[-3333,-870],[-3516,-7885],[3987,67],[-2062,-13817],[-3596,3630],[-4148,-4755],[3045,-6117],[-4989,2484],[-2059,-4894],[2283,-3826],[-4598,-2907],[-1136,-7280],[-6990,-714],[-957,4021],[-2687,-6521],[2131,-4893],[-3806,-6192],[-9826,-6311],[-1929,-4582]],[[691270,241874],[-730,7354],[2221,4130],[2558,13640],[3074,2349],[1238,8796],[3605,5412],[-1872,5218],[2693,7875],[4148,902],[3766,6757],[-679,7706],[2812,7657],[3673,3011],[3868,-4168],[1273,3280],[8899,4298],[1286,5001]],[[733103,331092],[4721,986],[211,-9334],[2794,-13134],[5666,-1394],[4672,6626],[4168,-9564],[8789,1761],[1229,-4585]],[[779340,394661],[-4856,-3914],[-3978,-8231],[2590,-1652],[7921,4108],[4911,-8584],[4990,-4695],[-6758,-9224],[5659,4400],[444,-11774],[-4749,-340],[286,-9464],[-2613,-4453],[2391,-8407],[-4264,-1461],[-3457,2594],[-3578,-10451],[-6026,-11030],[-2900,-9629]],[[733103,331092],[-342,10756],[-6944,11873],[2844,6983]],[[728661,360704],[3245,1190],[5730,7339],[2783,6678],[-210,9043],[8358,1166],[-2466,4826],[3296,2339],[3051,13062]],[[752448,406347],[4939,453],[3216,-5473],[3810,-117],[2113,-4632],[6840,6563]],[[773366,403141],[5974,-8480]],[[796549,377019],[-5182,-639],[-586,3908],[5768,-3269]],[[780421,415821],[6282,-5540],[4123,-9701],[-11486,-5919]],[[773366,403141],[4536,11795],[2519,885]],[[788647,418916],[119,-4465],[-8777,5726],[-824,4908],[9482,-6169]],[[746734,510694],[-1439,-9483],[2525,1657],[4811,-6094],[10072,-6315],[3705,-17512],[6736,-16839],[-522,-9063],[8592,-7570],[882,-7160],[6189,-4282],[-76,-6920],[-8679,5282],[-5045,-2017],[-2730,5510],[-5232,1583],[-3656,-3539],[-4497,1777],[-2839,7881],[-547,-5275],[7276,-5436],[3685,2978],[4822,-1140],[-32,-4660],[6474,-3111],[3212,-5125]],[[752448,406347],[-4592,4046],[-8710,-1574],[725,10611],[-6270,4309],[-2042,4140],[4878,7705],[-1612,8905],[5551,562],[3093,-3958],[1242,9847],[-4890,4076],[-2243,-6355],[-5249,-32],[-2960,11880],[-4679,1461],[4004,12105],[-7354,934],[-1685,7418],[-9644,3896],[-918,5307],[-9817,7500]],[[699276,499130],[1517,6845],[5846,1589],[5790,-13445],[14200,5327],[1880,-6674],[3688,1177],[1409,6495],[4614,1572],[1755,7612],[6759,1066]],[[723142,595213],[4049,-3497],[7490,-1863],[4857,2229],[6794,-12719],[-3573,1328],[-1057,-11679],[7663,-4237],[5385,828],[1443,5512],[14373,12537],[10405,-5912],[3549,-4923],[8667,3658],[1004,-3825],[8256,-221],[-970,-5742],[-5053,-9786],[-4580,4277],[-21074,-13902],[-879,-8340],[-5612,-2729],[-3862,4467],[1172,-6996],[-4649,-8485],[-4195,-1075],[-6011,-13424]],[[699276,499130],[-3694,-1927]],[[695582,497203],[-9965,286],[-6003,9701],[-5563,1905],[284,4286],[6130,6300],[11449,16027],[-9695,-2404],[2067,6000]],[[684286,539304],[-3017,8370],[5733,8450],[5699,13973],[7285,4157],[5284,8480],[11063,1254],[6809,11225]],[[718343,604484],[4799,-9271]],[[684286,539304],[-14908,-499],[-9139,5821],[-4386,-84]],[[655853,544542],[-4367,10075],[5266,4074],[-355,5936],[4885,10203],[-438,6620],[-3853,10639],[-4106,2627],[-82,7545],[4752,7223],[461,6933],[5934,-86],[3147,3198],[2160,9031],[-2585,8727],[-7306,4092],[2443,4479],[6953,3704],[-3677,1418],[-2152,9631]],[[756051,640601],[-8347,-7164],[-564,-7477],[-4732,-6435],[-6478,-760],[-4497,-3449],[-5472,4971]],[[725961,620287],[-1909,9156],[-4478,643],[-1922,10579],[4061,1977],[-6423,5122]],[[715290,647764],[-2823,6356],[4934,4357],[-6996,404],[-6248,6957],[-15492,-10598],[3548,-6506],[-8470,-8761],[594,-8450],[4782,-3553],[7430,1666],[2880,-3433],[6651,4238]],[[706080,630441],[1608,-13224],[-2958,-7462],[9162,-6913],[4451,1642]],[[713365,643414],[-1411,-12548],[-4530,1801]],[[707424,632667],[-1900,8630],[7841,2117]],[[725961,620287],[-4123,-2755],[-3495,-13048]],[[706080,630441],[1344,2226]],[[713365,643414],[1925,4350]],[[570801,434517],[-4096,-5944],[3807,-4818],[-1535,-5948],[-6109,-9096],[-1694,-9250],[-6897,-1340],[-490,-5623],[-7270,-14596],[-5160,38],[-2922,7457],[-4896,-3198],[-7313,5374],[-3834,-7296],[2498,-7411],[-6848,-7481],[1984,-6372],[4711,-3182],[731,-6057],[8419,-3319],[1996,-7854]],[[535883,338601],[-716,-2444],[-5791,7234],[-4924,-4500],[-535,-6441],[3945,-4925],[3558,551],[3857,-8990],[-11676,-4041],[-5463,1046]],[[394202,443689],[-4660,4131],[-1140,5205],[5940,13470],[-5457,5431],[-114,6839],[5103,3582],[807,-3715],[4224,2390],[7430,-3045],[3072,-4337],[3372,-13264],[7148,-7613],[6689,-3771],[2644,7488],[4878,-6492],[3936,-632],[3329,-8127],[1172,6135],[8110,139],[-109,11635],[4594,2851],[3244,-2859],[2189,10644]],[[521434,453299],[1139,-4682],[8734,3421],[2067,-7085],[7906,3859],[5767,-781],[2237,-6761],[4024,1837],[9069,-9851],[4053,3041],[4371,-1780]],[[570801,434517],[8787,-6798],[4579,-6228],[4217,856]],[[588384,422347],[2267,-4670],[6141,-4315],[1089,-5539],[-1776,-9531],[-3197,1591],[-7789,-8066],[-11839,-262],[-4731,-4608],[2475,-2228],[-317,-15707],[1642,3603],[4234,-5796],[793,-7673],[4676,-6475]],[[582052,352671],[1115,-1455],[-269,-14377]],[[582898,336839],[-2671,-7956],[-5991,979],[903,4865],[-7412,6961],[-721,10266],[-6717,-2463],[-6200,6933],[-969,-9759],[-6639,274],[-5505,-10712],[-3806,8906],[-1287,-6532]],[[582898,336839],[683,-12024],[2405,-10622],[-10723,-14999],[10575,1267],[1335,-7215],[-3692,-3467],[1774,-5028],[-1732,-5947],[2618,-7241]],[[582052,352671],[3690,11368],[5736,5319],[5243,1336],[4214,-3581],[3752,3209],[-2093,6419],[4556,2175],[16785,-4672],[7341,-6627],[1051,-3498],[5987,2381],[3891,4362],[681,-7846],[3271,-857],[7559,11036],[2273,-11718],[-1217,-8283],[4046,-1526]],[[658818,351668],[3929,-7352],[-1403,-5933],[2778,-4109],[-5074,-10260],[-2937,-1048],[-2856,-10346],[591,-5690],[4131,-784],[-1585,-5399],[2263,-5199],[-453,-7659],[3602,-2074],[-2610,-10772],[3870,1349],[-4168,-12478],[333,-7982]],[[556730,584153],[-5565,-6952],[-519,-13804]],[[613169,624696],[1877,-1975],[-3757,-8115],[-2325,-14463],[-5584,-6749],[62,-6540],[4475,-10414],[-6853,-17732],[1857,-7891],[-587,-11937],[2821,-14410],[-4649,-10564],[-1360,-14149],[1370,-1254]],[[600516,498503],[1598,-9379],[3016,-2617],[-400,-7481],[6121,-7433],[104,-8793]],[[610955,462800],[-3625,-4459],[-3359,3899],[-5116,-2355],[-9396,2852],[-3377,-3068],[4972,-1801],[-289,-3971],[5824,-2348],[1185,-5792],[-8721,-839],[-2417,-6246],[2931,-8244],[-1183,-8081]],[[655853,544542],[-1816,-18780],[-11561,-10729],[-13802,-161],[-332,-4994],[-3413,974],[-4442,-5799],[-16791,-7401],[-3180,851]],[[658818,351668],[5626,4830],[9346,3836],[1108,3457],[6311,2385],[3501,6604],[6043,-3325],[4763,1328]],[[695516,370783],[5644,2538],[2583,4391],[3863,-3446],[-3463,-5620],[813,-4106],[5794,4164],[-196,3449],[5545,-248],[1979,-5526],[7496,-1332],[3087,-4343]],[[695582,497203],[4082,-7718],[2470,313],[1457,-8828],[-7506,-6215],[-3607,7457],[-5031,1277],[-309,-12081],[-4784,-2410],[53,-6618],[-3311,-4402],[-4189,-22],[4874,-5936],[238,-7080],[5975,-5002],[5004,3440],[498,-19526],[-6045,-1537],[-2575,-8437]],[[682876,413878],[-4013,4683],[-2121,-3093],[-7372,2521],[127,4360],[-6730,2907],[-2811,-2672],[-2904,5979],[-1065,11820],[-3295,-3243],[-7877,3401],[-12425,-1974],[-8281,4491],[-9304,10844],[-3850,8898]],[[682876,413878],[10821,-11341],[-4383,-7958],[2913,-6410],[3289,-17386]]],"transform":{"scale":[0.00006117038425038425,0.00003779410557810556],"translate":[73.60225630700006,15.77537669500009]}}