{"type":"Topology","objects":{"subunits":{"type":"GeometryCollection","name":"CHN_subunits","crs":{"type":"name","properties":{"name":"urn:ogc:def:crs:OGC:1.3:CRS84"}},"geometries":[{"type":"Polygon","properties":{" name":"Xinjiang","fips":"CH13","scalerank":2,"country":"CHN","latitude":41.122,"longitude":85.4253,"type":"Zìzhìqu"},"id":"XJ","arcs":[[0,1,2,3]]},{"type":"Polygon","properties":{" name":"Xizang","fips":"CH14","scalerank":2,"country":"CHN","latitude":31.4515,"longitude":88.4137,"type":"Zìzhìqu"},"id":"XZ","arcs":[[-4,4,5,6,7]]},{"type":"Polygon","properties":{" name":"Inner Mongol","fips":"CH20","scalerank":2,"country":"CHN","latitude":41.5938,"longitude":111.623,"type":"Zìzhìqu"},"id":"NM","arcs":[[8,9,10,11,12,13,14,15,16]]},{"type":"Polygon","properties":{" name":"Gansu","fips":"CH15","scalerank":2,"country":"CHN","latitude":38.7393,"longitude":100.735,"type":"Shěng"},"id":"GS","arcs":[[17,-16,18,19,20,21,-2]]},{"type":"Polygon","properties":{" name":"Yunnan","fips":"CH29","scalerank":2,"country":"CHN","latitude":24.4603,"longitude":101.661,"type":"Shěng"},"id":"YN","arcs":[[-7,22,23,24,25]]},{"type":"Polygon","properties":{" name":"Heilongjiang","fips":"CH08","scalerank":2,"country":"CHN","latitude":46.8451,"longitude":127.97,"type":"Shěng"},"id":"HL","arcs":[[26,-9,27]]},{"type":"Polygon","properties":{" name":"Jilin","fips":"CH05","scalerank":2,"country":"CHN","latitude":43.2978,"longitude":126.466,"type":"Shěng"},"id":"JL","arcs":[[28,29,-10,-27]]},{"type":"MultiPolygon","properties":{" name":"Liaoning","fips":"CH19","scalerank":2,"country":"CHN","latitude":41.386,"longitude":123.07,"type":"Shěng"},"id":"LN","arcs":[[[30,31,32,33,34,35,36,37,38,39,40,41,42,43,44,45,46,47,48,49,50,51,52,53,54,55,56,57,58,59,60,61,62,63,64,65,66,67,-11,-30]],[[68]]]},{"type":"Polygon","properties":{" name":"Guangxi","fips":"CH16","scalerank":2,"country":"CHN","latitude":23.7451,"longitude":108.756,"type":"Zìzhìqu"},"id":"GX","arcs":[[-25,69,70,71,72,73,74,75,76,77,78,79,80,81,82,83]]},{"type":"MultiPolygon","properties":{" name":"Guangdong","fips":"CH30","scalerank":2,"country":"CHN","latitude":23.7924,"longitude":113.72,"type":"Shěng"},"id":"GD","arcs":[[[84,85,86,87,88,89,90,91,92,93,94,95,96,97,98,99,100,101,102,103,104,105,106,107,108,109,110,111,112,113,114,115,116,117,118,119,120,121,122,123,124,125,126,127,128,129,130,-72,131,132,133,134,135,136,137,138,139,140,141,142,143,144,145,146,147,148,149,150,151]],[[152]],[[153]],[[154]],[[155]],[[156]],[[157]],[[158]],[[159]]]},{"type":"Polygon","properties":{" name":"Hainan","fips":"CH31","scalerank":2,"country":"CHN","latitude":19.1865,"longitude":109.825,"type":"Shěng"},"id":"HA","arcs":[[160,161,162,163,164,165,166,167,168,169,170,171,172,173,174,175,176,177,178,179,180,181,182,183,184,185,186]]},{"type":"MultiPolygon","properties":{" name":"Fujian","fips":"CH07","scalerank":2,"country":"CHN","latitude":26.408,"longitude":118.178,"type":"Shěng"},"id":"FJ","arcs":[[[187]],[[188]],[[189,190,191,192,193,194,195,196,197,198,199,200,201,202,203,204,205,206,207,208,209,210,211,212,213,214,215,216,217,218,219,220,221,222,223,224,225,226,-134,227,228]],[[229]],[[230]],[[231]]]},{"type":"MultiPolygon","properties":{" name":"Zhejiang","fips":"CH02","scalerank":2,"country":"CHN","latitude":29.1084,"longitude":119.97,"type":"Shěng"},"id":"ZJ","arcs":[[[232]],[[233]],[[234]],[[235,236,237,238,239,240,241,242,243,244,245,246,247,248,249,250,251,252,253,254,255,256,257,258,259,260,261,262,263,264,265,266,267,268,-229,269,270,271,272]],[[273]],[[274]],[[275]],[[276,277,278,279]]]},{"type":"MultiPolygon","properties":{" name":"Shanghai","fips":"CH23","scalerank":2,"country":"CHN","latitude":31.0909,"longitude":121.409,"type":"Zhíxiáshì"},"id":"SH","arcs":[[[280,281,282,-273,283]],[[284,285,286,287,288,289]]]},{"type":"MultiPolygon","properties":{" name":"Jiangsu","fips":"CH04","scalerank":2,"country":"CHN","latitude":32.9844,"longitude":119.942,"type":"Shěng"},"id":"JS","arcs":[[[290]],[[291,292,293,294,295,296,297,298,299,300,301,302,303,304,305,306,307,308,309,310,311,312,313,-284,-272,314,315]]]},{"type":"Polygon","properties":{" name":"Shandong","fips":"CH25","scalerank":2,"country":"CHN","latitude":36.3271,"longitude":118.114,"type":"Shěng"},"id":"SD","arcs":[[316,317,318,319,320,321,322,323,324,325,326,327,328,329,330,331,332,333,334,335,336,337,338,339,340,341,342,343,344,345,346,347,348,349,350,351,352,353,354,355,356,357,358,359,360,361,-316,362,363,364]]},{"type":"MultiPolygon","properties":{" name":"Hebei","fips":"CH10","scalerank":2,"country":"CHN","latitude":38.5205,"longitude":115.314,"type":"Shěng"},"id":"HB","arcs":[[[365,366,-365,367,368,-12,-68,369,370,371,372,373,374,375,376,377,378]],[[379]],[[380,381]]]},{"type":"Polygon","properties":{" name":"Tianjin","fips":"CH28","scalerank":2,"country":"CHN","latitude":39.3708,"longitude":117.347,"type":"Zhíxiáshì"},"id":"TJ","arcs":[[382,383,384,385,386,-379,387,-381,388,-377]]},{"type":"Polygon","properties":{" name":"Beijing","fips":"CH22","scalerank":2,"country":"CHN","latitude":39.9488,"longitude":116.389,"type":"Zhíxiáshì"},"id":"BJ","arcs":[[-389,-382,-388,-378]]},{"type":"Polygon","properties":{" name":"Sichuan","fips":"CH32","scalerank":2,"country":"CHN","latitude":30.5431,"longitude":102.384,"type":"Shěng"},"id":"SC","arcs":[[389,390,-23,-6,391,-21,392]]},{"type":"Polygon","properties":{" name":"Chongqing","fips":"CH33","scalerank":2,"country":"CHN","latitude":30.0173,"longitude":107.73,"type":"Zhíxiáshì"},"id":"CQ","arcs":[[-390,393,394,395,396]]},{"type":"Polygon","properties":{" name":"Guizhou","fips":"CH18","scalerank":2,"country":"CHN","latitude":26.8033,"longitude":106.559,"type":"Shěng"},"id":"GZ","arcs":[[-397,397,-70,-24,-391]]},{"type":"Polygon","properties":{" name":"Hunan","fips":"CH11","scalerank":2,"country":"CHN","latitude":27.6667,"longitude":111.712,"type":"Shěng"},"id":"HN","arcs":[[-396,398,399,-132,-71,-398]]},{"type":"Polygon","properties":{" name":"Ningxia","fips":"CH21","scalerank":2,"country":"CHN","latitude":37.1762,"longitude":106.038,"type":"Zìzhìqu"},"id":"NX","arcs":[[-15,400,-19]]},{"type":"Polygon","properties":{" name":"Shaanxi","fips":"CH26","scalerank":2,"country":"CHN","latitude":33.7713,"longitude":108.363,"type":"Shěng"},"id":"SA","arcs":[[-394,-393,-20,-401,-14,401,402,403]]},{"type":"Polygon","properties":{" name":"Qinghai","fips":null,"scalerank":2,"country":"CHN","latitude":35.2652,"longitude":96.2377,"type":"Shěng"},"id":"QH","arcs":[[-3,-22,-392,-5]]},{"type":"Polygon","properties":{" name":"Shanxi","fips":"CH24","scalerank":2,"country":"CHN","latitude":37.7586,"longitude":112.389,"type":"Shěng"},"id":"SX","arcs":[[-369,404,-402,-13]]},{"type":"Polygon","properties":{" name":"Jiangxi","fips":"CH03","scalerank":2,"country":"CHN","latitude":27.6397,"longitude":116.017,"type":"Shěng"},"id":"JX","arcs":[[-133,-400,405,406,-270,-228]]},{"type":"Polygon","properties":{" name":"Henan","fips":"CH09","scalerank":2,"country":"CHN","latitude":33.9055,"longitude":113.484,"type":"Shěng"},"id":"HE","arcs":[[-368,-364,407,408,-403,-405]]},{"type":"Polygon","properties":{" name":"Hubei","fips":"CH12","scalerank":2,"country":"CHN","latitude":30.9857,"longitude":112.264,"type":"Shěng"},"id":"HU","arcs":[[-395,-404,-409,409,-406,-399]]},{"type":"Polygon","properties":{" name":"Anhui","fips":"CH01","scalerank":2,"country":"CHN","latitude":31.9537,"longitude":117.253,"type":"Shěng"},"id":"AH","arcs":[[-271,-407,-410,-408,-363,-315]]}]},"places":{"type":"GeometryCollection","name":"CHN_places","crs":{"type":"name","properties":{"name":"urn:ogc:def:crs:OGC:1.3:CRS84"}},"geometries":[{"type":"Point","properties":{" name":"Yumen","scalerank":8,"subregion":"Gansu","latitude":39.830035,"longitude":97.729993},"id":"Q729562","coordinates":[7714,7476]},{"type":"Point","properties":{" name":"Linxia","scalerank":8,"subregion":"Gansu","latitude":35.600009,"longitude":103.200047},"id":"Q653608","coordinates":[7866,7233]},{"type":"Point","properties":{" name":"Zhuozhou","scalerank":8,"subregion":"Beijing","latitude":39.540053,"longitude":115.789976},"id":"Q198244","coordinates":[8216,7460]},{"type":"Point","properties":{" name":"Sanming","scalerank":8,"subregion":"Fujian","latitude":26.229987,"longitude":117.580048},"id":"Q68614","coordinates":[8265,6693]},{"type":"Point","properties":{" name":"Huizhou","scalerank":8,"subregion":"Guangdong","latitude":23.079972,"longitude":114.399983},"id":"Q59173","coordinates":[8177,6512]},{"type":"Point","properties":{" name":"Chaozhou","scalerank":8,"subregion":"Guangdong","latitude":23.680039,"longitude":116.630028},"id":"Q59227","coordinates":[8239,6546]},{"type":"Point","properties":{" name":"Gyangze","scalerank":8,"subregion":"Xizang","latitude":28.950002,"longitude":89.63333},"id":"Q1999606","coordinates":[7489,6850]},{"type":"Point","properties":{" name":"Dali","scalerank":8,"subregion":"Shaanxi","latitude":34.795252,"longitude":109.937775},"coordinates":[8053,7187]},{"type":"Point","properties":{" name":"Yangquan","scalerank":8,"subregion":"Shanxi","latitude":37.869974,"longitude":113.570008},"id":"Q72907","coordinates":[8154,7364]},{"type":"Point","properties":{" name":"Shiyan","scalerank":8,"subregion":"Hubei","latitude":32.570039,"longitude":110.779998},"id":"Q71227","coordinates":[8076,7058]},{"type":"Point","properties":{" name":"Danjiangkou","scalerank":8,"subregion":"Hubei","latitude":32.520016,"longitude":111.500005},"id":"Q1164197","coordinates":[8096,7056]},{"type":"Point","properties":{" name":"Jingzhou","scalerank":8,"subregion":"Hubei","latitude":30.320021,"longitude":112.229987},"id":"Q71247","coordinates":[8117,6929]},{"type":"Point","properties":{" name":"Anlu","scalerank":8,"subregion":"Hubei","latitude":31.269989,"longitude":113.670002},"id":"Q557934","coordinates":[8157,6984]},{"type":"Point","properties":{" name":"Zixing","scalerank":8,"subregion":"Hunan","latitude":25.969977,"longitude":113.400044},"id":"Q206996","coordinates":[8149,6678]},{"type":"Point","properties":{" name":"Deyang","scalerank":8,"subregion":"Sichuan","latitude":31.133331,"longitude":104.399974},"id":"Q425996","coordinates":[7899,6976]},{"type":"Point","properties":{" name":"Tengchong","scalerank":8,"subregion":"Yunnan","latitude":25.033316,"longitude":98.466589},"id":"Q7699838","coordinates":[7734,6624]},{"type":"Point","properties":{" name":"Mengzi","scalerank":8,"subregion":"Yunnan","latitude":23.361945,"longitude":103.406132},"id":"Q1201056","coordinates":[7872,6528]},{"type":"Point","properties":{" name":"Chuxiong","scalerank":8,"subregion":"Yunnan","latitude":25.036416,"longitude":101.545574},"id":"Q1090087","coordinates":[7820,6625]},{"type":"Point","properties":{" name":"Hengshui","scalerank":8,"subregion":"Hebei","latitude":37.719983,"longitude":115.700007},"id":"Q58724","coordinates":[8213,7355]},{"type":"Point","properties":{" name":"Xuanhua","scalerank":8,"subregion":"Hebei","latitude":40.594407,"longitude":115.024338},"coordinates":[8194,7520]},{"type":"Point","properties":{" name":"Luohe","scalerank":8,"subregion":"Henan","latitude":33.570004,"longitude":114.02998},"id":"Q404599","coordinates":[8167,7116]},{"type":"Point","properties":{" name":"Beipiao","scalerank":8,"subregion":"Liaoning","latitude":41.810018,"longitude":120.760009},"id":"Q814826","coordinates":[8354,7590]},{"type":"Point","properties":{" name":"Wafangdian","scalerank":8,"subregion":"Liaoning","latitude":39.625913,"longitude":121.995954},"id":"Q616048","coordinates":[8388,7465]},{"type":"Point","properties":{" name":"Zhucheng","scalerank":8,"subregion":"Shandong","latitude":35.98996,"longitude":119.380093},"id":"Q198184","coordinates":[8315,7255]},{"type":"Point","properties":{" name":"Hangu","scalerank":8,"subregion":"Tianjin","latitude":39.231958,"longitude":117.776986},"id":"Q1196666","coordinates":[8271,7442]},{"type":"Point","properties":{" name":"Xinyi","scalerank":8,"subregion":"Jiangsu","latitude":34.380006,"longitude":118.350026},"id":"Q1344902","coordinates":[8287,7163]},{"type":"Point","properties":{" name":"Yangzhou","scalerank":8,"subregion":"Jiangsu","latitude":32.399998,"longitude":119.430012},"id":"Q57906","coordinates":[8317,7049]},{"type":"Point","properties":{" name":"Linhai","scalerank":8,"subregion":"Zhejiang","latitude":28.850008,"longitude":121.119987},"id":"Q713317","coordinates":[8364,6844]},{"type":"Point","properties":{" name":"Huangyan","scalerank":8,"subregion":"Zhejiang","latitude":28.65002,"longitude":121.250004},"id":"Q1027910","coordinates":[8367,6833]},{"type":"Point","properties":{" name":"Daan","scalerank":8,"subregion":"Jilin","latitude":45.499999,"longitude":124.299999},"id":"Q1021732","coordinates":[8452,7803]},{"type":"Point","properties":{" name":"Changling","scalerank":8,"subregion":"Jilin","latitude":44.269997,"longitude":123.989992},"id":"Q1062078","coordinates":[8443,7732]},{"type":"Point","properties":{" name":"Tonghua","scalerank":8,"subregion":"Jilin","latitude":41.679974,"longitude":125.749988},"id":"Q92324","coordinates":[8492,7583]},{"type":"Point","properties":{" name":"Baishan","scalerank":8,"subregion":"Jilin","latitude":41.900012,"longitude":126.429998},"id":"Q92348","coordinates":[8511,7596]},{"type":"Point","properties":{" name":"Yanji","scalerank":8,"subregion":"Jilin","latitude":42.882304,"longitude":129.512756},"id":"Q713362","coordinates":[8597,7652]},{"type":"Point","properties":{" name":"Genhe","scalerank":8,"subregion":"Nei Mongol","latitude":50.78332,"longitude":121.516655},"id":"Q1354108","coordinates":[8375,8107]},{"type":"Point","properties":{" name":"Shangdu","scalerank":8,"subregion":"Nei Mongol","latitude":41.549439,"longitude":113.533886},"id":"Q1305772","coordinates":[8153,7575]},{"type":"Point","properties":{" name":"Orongen Zizhiqi","scalerank":8,"subregion":"Nei Mongol","latitude":50.566667,"longitude":123.716676},"id":"Q14230874","coordinates":[8436,8095]},{"type":"Point","properties":{" name":"Zalantun","scalerank":8,"subregion":"Nei Mongol","latitude":48.000002,"longitude":122.719992},"id":"Q145015","coordinates":[8408,7947]},{"type":"Point","properties":{" name":"Wuchuan","scalerank":8,"subregion":"Nei Mongol","latitude":41.095514,"longitude":111.440836},"coordinates":[8095,7549]},{"type":"Point","properties":{" name":"Hanggin Houqi","scalerank":8,"subregion":"Nei Mongol","latitude":40.8847,"longitude":107.140013},"id":"Q1202314","coordinates":[7975,7537]},{"type":"Point","properties":{" name":"Anda","scalerank":8,"subregion":"Heilongjiang","latitude":46.399996,"longitude":125.32004},"id":"Q489631","coordinates":[8480,7855]},{"type":"Point","properties":{" name":"Qinggang","scalerank":8,"subregion":"Heilongjiang","latitude":46.69003,"longitude":126.100044},"id":"Q8836938","coordinates":[8502,7872]},{"type":"Point","properties":{" name":"Angangxi","scalerank":8,"subregion":"Heilongjiang","latitude":47.160053,"longitude":123.80003},"coordinates":[8438,7899]},{"type":"Point","properties":{" name":"Hulan Ergi","scalerank":8,"subregion":"Heilongjiang","latitude":47.209972,"longitude":123.610015},"id":"Q34761","coordinates":[8433,7901]},{"type":"Point","properties":{" name":"Qingan","scalerank":8,"subregion":"Heilongjiang","latitude":46.871854,"longitude":127.511844},"coordinates":[8541,7882]},{"type":"Point","properties":{" name":"Baiquan","scalerank":8,"subregion":"Heilongjiang","latitude":47.601835,"longitude":126.081854},"id":"Q649215","coordinates":[8501,7924]},{"type":"Point","properties":{" name":"Suileng","scalerank":8,"subregion":"Heilongjiang","latitude":47.245991,"longitude":127.105978},"id":"Q13992688","coordinates":[8530,7904]},{"type":"Point","properties":{" name":"Linkou","scalerank":8,"subregion":"Heilongjiang","latitude":45.281899,"longitude":130.251884},"coordinates":[8617,7790]},{"type":"Point","properties":{" name":"Longxi","scalerank":7,"subregion":"Gansu","latitude":35.04764,"longitude":104.639442},"coordinates":[7907,7198]},{"type":"Point","properties":{" name":"Pingliang","scalerank":7,"subregion":"Gansu","latitude":35.530375,"longitude":106.680093},"id":"Q533985","coordinates":[7963,7229]},{"type":"Point","properties":{" name":"Anxi","scalerank":7,"subregion":"Gansu","latitude":40.500434,"longitude":95.799982},"id":"Q4778099","coordinates":[7660,7515]},{"type":"Point","properties":{" name":"Minxian","scalerank":7,"subregion":"Gansu","latitude":34.436178,"longitude":104.03059},"coordinates":[7889,7166]},{"type":"Point","properties":{" name":"Jinchang","scalerank":7,"subregion":"Gansu","latitude":38.495698,"longitude":102.173908},"id":"Q532776","coordinates":[7837,7400]},{"type":"Point","properties":{" name":"Guide","scalerank":7,"subregion":"Gansu","latitude":36.045098,"longitude":101.424186},"coordinates":[7817,7259]},{"type":"Point","properties":{" name":"Qinzhou","scalerank":7,"subregion":"Guangxi","latitude":21.950429,"longitude":108.619974},"id":"Q571766","coordinates":[8016,6447]},{"type":"Point","properties":{" name":"Pingxiang","scalerank":7,"subregion":"Guangxi","latitude":22.097371,"longitude":106.756677},"id":"Q1027734","coordinates":[7965,6455]},{"type":"Point","properties":{" name":"Yishan","scalerank":7,"subregion":"Guangxi","latitude":24.500377,"longitude":108.66669},"coordinates":[8018,6594]},{"type":"Point","properties":{" name":"Beihai","scalerank":7,"subregion":"Guangxi","latitude":21.480406,"longitude":109.100048},"id":"Q210365","coordinates":[8030,6420]},{"type":"Point","properties":{" name":"Hechi","scalerank":7,"subregion":"Guangxi","latitude":24.695252,"longitude":108.083},"id":"Q572089","coordinates":[8002,6605]},{"type":"Point","properties":{" name":"Tongren","scalerank":7,"subregion":"Guizhou","latitude":27.680415,"longitude":109.130021},"id":"Q486235","coordinates":[8031,6777]},{"type":"Point","properties":{" name":"Fengjie","scalerank":7,"subregion":"Chongqing","latitude":31.050442,"longitude":109.516664},"coordinates":[8041,6971]},{"type":"Point","properties":{" name":"Changping","scalerank":7,"subregion":"Beijing","latitude":40.224766,"longitude":116.194396},"coordinates":[8227,7499]},{"type":"Point","properties":{" name":"Shaowu","scalerank":7,"subregion":"Fujian","latitude":27.300387,"longitude":117.500001},"id":"Q1025451","coordinates":[8263,6755]},{"type":"Point","properties":{" name":"Longyan","scalerank":7,"subregion":"Fujian","latitude":25.180413,"longitude":117.030004},"id":"Q68862","coordinates":[8249,6627]},{"type":"Point","properties":{" name":"Zhangzhou","scalerank":7,"subregion":"Fujian","latitude":24.520375,"longitude":117.670016},"id":"Q68814","coordinates":[8268,6595]},{"type":"Point","properties":{" name":"Putian","scalerank":7,"subregion":"Fujian","latitude":25.430346,"longitude":119.020011},"id":"Q68579","coordinates":[8305,6647]},{"type":"Point","properties":{" name":"Fuan","scalerank":7,"subregion":"Fujian","latitude":27.070427,"longitude":119.620026},"id":"Q1374581","coordinates":[8322,6742]},{"type":"Point","properties":{" name":"Changting","scalerank":7,"subregion":"Fujian","latitude":25.866986,"longitude":116.316662},"coordinates":[8230,6672]},{"type":"Point","properties":{" name":"Nanping","scalerank":7,"subregion":"Fujian","latitude":26.630376,"longitude":118.169986},"id":"Q68534","coordinates":[8282,6716]},{"type":"Point","properties":{" name":"Ninde","scalerank":7,"subregion":"Fujian","latitude":26.680373,"longitude":119.530058},"id":"Q1337912","coordinates":[8319,6719]},{"type":"Point","properties":{" name":"Jieshou","scalerank":7,"subregion":"Anhui","latitude":33.250437,"longitude":115.350003},"id":"Q1018527","coordinates":[8203,7098]},{"type":"Point","properties":{" name":"Tongling","scalerank":7,"subregion":"Anhui","latitude":30.950448,"longitude":117.780035},"id":"Q360326","coordinates":[8271,6965]},{"type":"Point","properties":{" name":"Maanshan","scalerank":7,"subregion":"Anhui","latitude":31.7304,"longitude":118.480044},"id":"Q360235","coordinates":[8290,7007]},{"type":"Point","properties":{" name":"Fuyang","scalerank":7,"subregion":"Anhui","latitude":32.900407,"longitude":115.82},"id":"Q360584","coordinates":[8216,7077]},{"type":"Point","properties":{" name":"Yangjiang","scalerank":7,"subregion":"Guangdong","latitude":21.850409,"longitude":111.970002},"id":"Q59209","coordinates":[8109,6441]},{"type":"Point","properties":{" name":"Meizhou","scalerank":7,"subregion":"Guangdong","latitude":24.300492,"longitude":116.119982},"id":"Q59184","coordinates":[8225,6582]},{"type":"Point","properties":{" name":"Heyuan","scalerank":7,"subregion":"Guangdong","latitude":23.730424,"longitude":114.680018},"id":"Q59205","coordinates":[8185,6549]},{"type":"Point","properties":{" name":"Qingyuan","scalerank":7,"subregion":"Guangdong","latitude":23.7004,"longitude":113.030093},"id":"Q59213","coordinates":[8139,6548]},{"type":"Point","properties":{" name":"Zhaoqing","scalerank":7,"subregion":"Guangdong","latitude":23.050413,"longitude":112.450025},"id":"Q59164","coordinates":[8123,6510]},{"type":"Point","properties":{" name":"Lianxian","scalerank":7,"subregion":"Guangdong","latitude":24.781522,"longitude":112.382535},"id":"Q1023910","coordinates":[8121,6610]},{"type":"Point","properties":{" name":"Jiangmen","scalerank":7,"subregion":"Guangdong","latitude":22.58039,"longitude":113.080012},"id":"Q59132","coordinates":[8140,6483]},{"type":"Point","properties":{" name":"Maoming","scalerank":7,"subregion":"Guangdong","latitude":21.920405,"longitude":110.870018},"id":"Q38927","coordinates":[8079,6445]},{"type":"Point","properties":{" name":"Gar","scalerank":7,"subregion":"Xizang","latitude":32.200398,"longitude":79.983324},"coordinates":[7221,7037]},{"type":"Point","properties":{" name":"Turpan","scalerank":7,"subregion":"Xinjiang Uygur","latitude":42.935375,"longitude":89.165038},"id":"Q868527","coordinates":[7476,7655]},{"type":"Point","properties":{" name":"Quiemo","scalerank":7,"subregion":"Xinjiang Uygur","latitude":38.133756,"longitude":85.533322},"id":"Q3360588","coordinates":[7375,7379]},{"type":"Point","properties":{" name":"Koktokay","scalerank":7,"subregion":"Xinjiang Uygur","latitude":47.000373,"longitude":89.466622},"id":"Q1525001","coordinates":[7486,7889]},{"type":"Point","properties":{" name":"Hancheng","scalerank":7,"subregion":"Shaanxi","latitude":35.470431,"longitude":110.429993},"id":"Q577415","coordinates":[8067,7225]},{"type":"Point","properties":{" name":"Weinan","scalerank":7,"subregion":"Shaanxi","latitude":34.500438,"longitude":109.500076},"id":"Q126995","coordinates":[8041,7170]},{"type":"Point","properties":{" name":"Shuozhou","scalerank":7,"subregion":"Shanxi","latitude":39.300378,"longitude":112.420001},"id":"Q73020","coordinates":[8122,7446]},{"type":"Point","properties":{" name":"Xinzhou","scalerank":7,"subregion":"Shanxi","latitude":38.410432,"longitude":112.719983},"id":"Q73119","coordinates":[8130,7395]},{"type":"Point","properties":{" name":"Jincheng","scalerank":7,"subregion":"Shanxi","latitude":35.500377,"longitude":112.830002},"id":"Q72990","coordinates":[8133,7227]},{"type":"Point","properties":{" name":"Jiexiu","scalerank":7,"subregion":"Shanxi","latitude":37.040025,"longitude":111.899981},"id":"Q1362530","coordinates":[8108,7316]},{"type":"Point","properties":{" name":"Changzhi","scalerank":7,"subregion":"Shanxi","latitude":36.183875,"longitude":113.105282},"id":"Q72945","coordinates":[8141,7267]},{"type":"Point","properties":{" name":"Guangshui","scalerank":7,"subregion":"Hubei","latitude":31.620381,"longitude":114.000008},"id":"Q930230","coordinates":[8166,7004]},{"type":"Point","properties":{" name":"Jingmen","scalerank":7,"subregion":"Hubei","latitude":31.030392,"longitude":112.10002},"id":"Q71323","coordinates":[8116,6970]},{"type":"Point","properties":{" name":"Zicheng","scalerank":7,"subregion":"Hubei","latitude":30.300436,"longitude":111.500005},"id":"Q2009842","coordinates":[8096,6928]},{"type":"Point","properties":{" name":"Shishou","scalerank":7,"subregion":"Hubei","latitude":29.700395,"longitude":112.400002},"id":"Q1359319","coordinates":[8121,6893]},{"type":"Point","properties":{" name":"Xiaogan","scalerank":7,"subregion":"Hubei","latitude":30.920398,"longitude":113.900014},"id":"Q71339","coordinates":[8163,6963]},{"type":"Point","properties":{" name":"Puqi","scalerank":7,"subregion":"Hubei","latitude":29.72042,"longitude":113.880015},"coordinates":[8163,6894]},{"type":"Point","properties":{" name":"Yunxian","scalerank":7,"subregion":"Hubei","latitude":32.808164,"longitude":110.813639},"coordinates":[8077,7072]},{"type":"Point","properties":{" name":"Jinshi","scalerank":7,"subregion":"Hunan","latitude":29.632105,"longitude":111.851715},"id":"Q1374715","coordinates":[8106,6889]},{"type":"Point","properties":{" name":"Chenzhou","scalerank":7,"subregion":"Hunan","latitude":25.800427,"longitude":113.030093},"id":"Q416748","coordinates":[8139,6669]},{"type":"Point","properties":{" name":"Zhijiang","scalerank":7,"subregion":"Hunan","latitude":27.440947,"longitude":109.678049},"id":"Q14297991","coordinates":[8046,6763]},{"type":"Point","properties":{" name":"Xiangtan","scalerank":7,"subregion":"Hunan","latitude":27.850431,"longitude":112.900023},"id":"Q215755","coordinates":[8135,6787]},{"type":"Point","properties":{" name":"Zigong","scalerank":7,"subregion":"Sichuan","latitude":29.401946,"longitude":104.778056},"id":"Q29015","coordinates":[7910,6876]},{"type":"Point","properties":{" name":"Yaan","scalerank":7,"subregion":"Sichuan","latitude":29.98043,"longitude":103.080002},"id":"Q427557","coordinates":[7863,6909]},{"type":"Point","properties":{" name":"Langzhong","scalerank":7,"subregion":"Sichuan","latitude":31.57594,"longitude":105.965563},"id":"Q1200170","coordinates":[7943,7001]},{"type":"Point","properties":{" name":"Rongzhag","scalerank":7,"subregion":"Sichuan","latitude":30.950448,"longitude":101.916663},"coordinates":[7830,6965]},{"type":"Point","properties":{" name":"Simao","scalerank":7,"subregion":"Yunnan","latitude":22.780688,"longitude":100.978167},"coordinates":[7804,6495]},{"type":"Point","properties":{" name":"Wenshan","scalerank":7,"subregion":"Yunnan","latitude":23.372358,"longitude":104.249698},"id":"Q1201048","coordinates":[7895,6529]},{"type":"Point","properties":{" name":"Zhanyi","scalerank":7,"subregion":"Yunnan","latitude":25.600465,"longitude":103.81665},"coordinates":[7883,6657]},{"type":"Point","properties":{" name":"Huize","scalerank":7,"subregion":"Yunnan","latitude":26.350419,"longitude":103.416674},"coordinates":[7872,6700]},{"type":"Point","properties":{" name":"Chengde","scalerank":7,"subregion":"Hebei","latitude":40.96038,"longitude":117.93},"id":"Q58675","coordinates":[8275,7542]},{"type":"Point","properties":{" name":"Cangzhou","scalerank":7,"subregion":"Hebei","latitude":38.320386,"longitude":116.870013},"id":"Q58695","coordinates":[8246,7390]},{"type":"Point","properties":{" name":"Baoding","scalerank":7,"subregion":"Hebei","latitude":38.872376,"longitude":115.478075},"id":"Q58584","coordinates":[8207,7421]},{"type":"Point","properties":{" name":"Huanghua","scalerank":7,"subregion":"Hebei","latitude":38.370434,"longitude":117.330037},"id":"Q1207090","coordinates":[8258,7392]},{"type":"Point","properties":{" name":"Dingzhou","scalerank":7,"subregion":"Hebei","latitude":38.500427,"longitude":114.999998},"id":"Q645183","coordinates":[8194,7400]},{"type":"Point","properties":{" name":"Nangong","scalerank":7,"subregion":"Hebei","latitude":37.370392,"longitude":115.370002},"id":"Q1014384","coordinates":[8204,7335]},{"type":"Point","properties":{" name":"Linqing","scalerank":7,"subregion":"Hebei","latitude":36.850398,"longitude":115.680009},"id":"Q1207099","coordinates":[8213,7305]},{"type":"Point","properties":{" name":"Xiangtai","scalerank":7,"subregion":"Hebei","latitude":37.049972,"longitude":114.500029},"id":"Q58576","coordinates":[8180,7316]},{"type":"Point","properties":{" name":"Puyang","scalerank":7,"subregion":"Henan","latitude":35.700391,"longitude":114.98},"id":"Q404484","coordinates":[8193,7239]},{"type":"Point","properties":{" name":"Hebi","scalerank":7,"subregion":"Henan","latitude":35.950375,"longitude":114.220046},"id":"Q404301","coordinates":[8172,7253]},{"type":"Point","properties":{" name":"Xuchang","scalerank":7,"subregion":"Henan","latitude":34.02039,"longitude":113.820019},"id":"Q404529","coordinates":[8161,7142]},{"type":"Point","properties":{" name":"Zhoukou","scalerank":7,"subregion":"Henan","latitude":33.630414,"longitude":114.630047},"id":"Q198061","coordinates":[8183,7119]},{"type":"Point","properties":{" name":"Dengzhou","scalerank":7,"subregion":"Henan","latitude":32.680368,"longitude":112.080022},"id":"Q1187144","coordinates":[8113,7065]},{"type":"Point","properties":{" name":"Tieling","scalerank":7,"subregion":"Liaoning","latitude":42.300375,"longitude":123.819977},"id":"Q75268","coordinates":[8439,7619]},{"type":"Point","properties":{" name":"Chaoyang","scalerank":7,"subregion":"Liaoning","latitude":41.550421,"longitude":120.419978},"id":"Q75336","coordinates":[8344,7576]},{"type":"Point","properties":{" name":"Huanren","scalerank":7,"subregion":"Liaoning","latitude":41.256331,"longitude":125.345982},"id":"Q5926085","coordinates":[8481,7559]},{"type":"Point","properties":{" name":"Zhuanghe","scalerank":7,"subregion":"Liaoning","latitude":39.682292,"longitude":122.96189},"id":"Q198159","coordinates":[8415,7468]},{"type":"Point","properties":{" name":"Yishui","scalerank":7,"subregion":"Shandong","latitude":35.790437,"longitude":118.619984},"id":"Q1198349","coordinates":[8294,7244]},{"type":"Point","properties":{" name":"Shanxian","scalerank":7,"subregion":"Shandong","latitude":34.79042,"longitude":116.079984},"coordinates":[8224,7186]},{"type":"Point","properties":{" name":"Pingyi","scalerank":7,"subregion":"Shandong","latitude":35.510428,"longitude":117.620045},"coordinates":[8266,7228]},{"type":"Point","properties":{" name":"Pingdu","scalerank":7,"subregion":"Shandong","latitude":36.790376,"longitude":119.940007},"id":"Q2060398","coordinates":[8331,7301]},{"type":"Point","properties":{" name":"Laiwu","scalerank":7,"subregion":"Shandong","latitude":36.200412,"longitude":117.660043},"id":"Q373234","coordinates":[8268,7267]},{"type":"Point","properties":{" name":"Buizhou","scalerank":7,"subregion":"Shandong","latitude":37.370392,"longitude":118.020021},"id":"Q373687","coordinates":[8277,7335]},{"type":"Point","properties":{" name":"Liaocheng","scalerank":7,"subregion":"Shandong","latitude":36.430424,"longitude":115.970017},"id":"Q373564","coordinates":[8221,7281]},{"type":"Point","properties":{" name":"Rizhao","scalerank":7,"subregion":"Shandong","latitude":35.430381,"longitude":119.450011},"id":"Q373101","coordinates":[8317,7223]},{"type":"Point","properties":{" name":"Dezhou","scalerank":7,"subregion":"Shandong","latitude":37.450413,"longitude":116.300022},"id":"Q162880","coordinates":[8230,7339]},{"type":"Point","properties":{" name":"Linchuan","scalerank":7,"subregion":"Jiangxi","latitude":27.970346,"longitude":116.360019},"coordinates":[8231,6794]},{"type":"Point","properties":{" name":"Fengcheng","scalerank":7,"subregion":"Jiangxi","latitude":28.200409,"longitude":115.770029},"id":"Q1375351","coordinates":[8215,6807]},{"type":"Point","properties":{" name":"Jian","scalerank":7,"subregion":"Jiangxi","latitude":27.130423,"longitude":114.999998},"id":"Q363262","coordinates":[8194,6745]},{"type":"Point","properties":{" name":"Shangrao","scalerank":7,"subregion":"Jiangxi","latitude":28.470393,"longitude":117.969998},"id":"Q363479","coordinates":[8276,6822]},{"type":"Point","properties":{" name":"Jingdezhen","scalerank":7,"subregion":"Jiangxi","latitude":29.270421,"longitude":117.18002},"id":"Q34405","coordinates":[8254,6868]},{"type":"Point","properties":{" name":"Taizhou","scalerank":7,"subregion":"Jiangsu","latitude":32.490406,"longitude":119.900009},"id":"Q57931","coordinates":[8330,7054]},{"type":"Point","properties":{" name":"Shuyang","scalerank":7,"subregion":"Jiangsu","latitude":34.129866,"longitude":118.77336},"coordinates":[8298,7148]},{"type":"Point","properties":{" name":"Lianyungang","scalerank":7,"subregion":"Jiangsu","latitude":34.600432,"longitude":119.170028},"id":"Q57756","coordinates":[8311,7175]},{"type":"Point","properties":{" name":"Lishui","scalerank":7,"subregion":"Zhejiang","latitude":28.45042,"longitude":119.900009},"id":"Q58294","coordinates":[8330,6821]},{"type":"Point","properties":{" name":"Jiaojing","scalerank":7,"subregion":"Zhejiang","latitude":28.680406,"longitude":121.449992},"id":"Q513077","coordinates":[8373,6834]},{"type":"Point","properties":{" name":"Quzhou","scalerank":7,"subregion":"Zhejiang","latitude":28.97044,"longitude":118.869995},"id":"Q58235","coordinates":[8301,6851]},{"type":"Point","properties":{" name":"Songyuan","scalerank":7,"subregion":"Jilin","latitude":45.180381,"longitude":124.820019},"id":"Q92364","coordinates":[8466,7785]},{"type":"Point","properties":{" name":"Dunhua","scalerank":7,"subregion":"Jilin","latitude":43.350492,"longitude":128.220018},"id":"Q713307","coordinates":[8561,7679]},{"type":"Point","properties":{" name":"Nongan","scalerank":7,"subregion":"Jilin","latitude":44.4304,"longitude":125.170075},"id":"Q1996202","coordinates":[8476,7741]},{"type":"Point","properties":{" name":"Taonan","scalerank":7,"subregion":"Jilin","latitude":45.330423,"longitude":122.78004},"id":"Q1004248","coordinates":[8410,7793]},{"type":"Point","properties":{" name":"Liuhe","scalerank":7,"subregion":"Jilin","latitude":42.278852,"longitude":125.717329},"id":"Q11109923","coordinates":[8491,7617]},{"type":"Point","properties":{" name":"Huinan","scalerank":7,"subregion":"Jilin","latitude":42.62294,"longitude":126.26143},"id":"Q926818","coordinates":[8506,7637]},{"type":"Point","properties":{" name":"Panshi","scalerank":7,"subregion":"Jilin","latitude":42.942636,"longitude":126.056119},"id":"Q1361953","coordinates":[8501,7656]},{"type":"Point","properties":{" name":"Jiaohe","scalerank":7,"subregion":"Jilin","latitude":43.716284,"longitude":127.345963},"id":"Q1014635","coordinates":[8537,7700]},{"type":"Point","properties":{" name":"Linjiang","scalerank":7,"subregion":"Jilin","latitude":41.836347,"longitude":126.935962},"id":"Q594843","coordinates":[8525,7592]},{"type":"Point","properties":{" name":"Wangqing","scalerank":7,"subregion":"Jilin","latitude":43.324783,"longitude":129.734344},"id":"Q13897219","coordinates":[8603,7678]},{"type":"Point","properties":{" name":"Helong","scalerank":7,"subregion":"Jilin","latitude":42.534754,"longitude":129.004363},"id":"Q699125","coordinates":[8583,7632]},{"type":"Point","properties":{" name":"Shulan","scalerank":7,"subregion":"Jilin","latitude":44.40911,"longitude":126.948726},"id":"Q1205127","coordinates":[8526,7740]},{"type":"Point","properties":{" name":"Jiutai","scalerank":7,"subregion":"Jilin","latitude":44.144733,"longitude":125.844349},"id":"Q1015907","coordinates":[8495,7725]},{"type":"Point","properties":{" name":"Alxa Zuoqi","scalerank":7,"subregion":"Nei Mongol","latitude":38.83901,"longitude":105.66863},"id":"Q1367222","coordinates":[7934,7419]},{"type":"Point","properties":{" name":"Linxi","scalerank":7,"subregion":"Nei Mongol","latitude":43.517071,"longitude":118.033302},"id":"Q11106980","coordinates":[8278,7689]},{"type":"Point","properties":{" name":"Kailu","scalerank":7,"subregion":"Nei Mongol","latitude":43.583734,"longitude":121.199982},"coordinates":[8366,7693]},{"type":"Point","properties":{" name":"Bairin Zuoqi","scalerank":7,"subregion":"Nei Mongol","latitude":43.983709,"longitude":119.183361},"id":"Q1329235","coordinates":[8310,7716]},{"type":"Point","properties":{" name":"Yitulihe","scalerank":7,"subregion":"Nei Mongol","latitude":50.651623,"longitude":121.516655},"id":"Q10884943","coordinates":[8375,8100]},{"type":"Point","properties":{" name":"Yakeshi","scalerank":7,"subregion":"Nei Mongol","latitude":49.280414,"longitude":120.730036},"id":"Q1010264","coordinates":[8353,8021]},{"type":"Point","properties":{" name":"Bugt","scalerank":7,"subregion":"Nei Mongol","latitude":48.783804,"longitude":121.933374},"coordinates":[8386,7992]},{"type":"Point","properties":{" name":"Wuyuan","scalerank":7,"subregion":"Nei Mongol","latitude":41.089622,"longitude":108.272192},"coordinates":[8007,7549]},{"type":"Point","properties":{" name":"Bayan Obo","scalerank":7,"subregion":"Nei Mongol","latitude":41.767643,"longitude":109.971106},"coordinates":[8054,7588]},{"type":"Point","properties":{" name":"Fengzhen","scalerank":7,"subregion":"Nei Mongol","latitude":40.4547,"longitude":113.144349},"id":"Q1341574","coordinates":[8142,7512]},{"type":"Point","properties":{" name":"Suihua","scalerank":7,"subregion":"Heilongjiang","latitude":46.630421,"longitude":126.979991},"id":"Q349985","coordinates":[8526,7868]},{"type":"Point","properties":{" name":"Shuangyashan","scalerank":7,"subregion":"Heilongjiang","latitude":46.670419,"longitude":131.350008},"id":"Q349973","coordinates":[8648,7870]},{"type":"Point","properties":{" name":"Shangzhi","scalerank":7,"subregion":"Heilongjiang","latitude":45.22043,"longitude":127.970008},"id":"Q1015925","coordinates":[8554,7787]},{"type":"Point","properties":{" name":"Fujin","scalerank":7,"subregion":"Heilongjiang","latitude":47.270382,"longitude":132.019993},"id":"Q614877","coordinates":[8666,7905]},{"type":"Point","properties":{" name":"Yian","scalerank":7,"subregion":"Heilongjiang","latitude":47.880397,"longitude":125.29999},"id":"Q2600269","coordinates":[8480,7940]},{"type":"Point","properties":{" name":"Tailai","scalerank":7,"subregion":"Heilongjiang","latitude":46.390358,"longitude":123.409976},"id":"Q11145142","coordinates":[8427,7854]},{"type":"Point","properties":{" name":"Longjiang","scalerank":7,"subregion":"Heilongjiang","latitude":47.340404,"longitude":123.180016},"id":"Q1869551","coordinates":[8421,7909]},{"type":"Point","properties":{" name":"Gannan","scalerank":7,"subregion":"Heilongjiang","latitude":47.920368,"longitude":123.510022},"id":"Q1493582","coordinates":[8430,7942]},{"type":"Point","properties":{" name":"Hailun","scalerank":7,"subregion":"Heilongjiang","latitude":47.450423,"longitude":126.93002},"id":"Q1278514","coordinates":[8525,7915]},{"type":"Point","properties":{" name":"Mishan","scalerank":7,"subregion":"Heilongjiang","latitude":45.550384,"longitude":131.880002},"id":"Q203738","coordinates":[8662,7806]},{"type":"Point","properties":{" name":"Tieli","scalerank":7,"subregion":"Heilongjiang","latitude":46.950376,"longitude":128.050003},"id":"Q1344820","coordinates":[8556,7887]},{"type":"Point","properties":{" name":"Shuangcheng","scalerank":7,"subregion":"Heilongjiang","latitude":45.350344,"longitude":126.279982},"id":"Q1000142","coordinates":[8507,7794]},{"type":"Point","properties":{" name":"Zhaodong","scalerank":7,"subregion":"Heilongjiang","latitude":46.080429,"longitude":125.98},"id":"Q197495","coordinates":[8499,7836]},{"type":"Point","properties":{" name":"Lanxi","scalerank":7,"subregion":"Heilongjiang","latitude":46.266361,"longitude":126.275951},"id":"Q10893722","coordinates":[8507,7847]},{"type":"Point","properties":{" name":"Keshan","scalerank":7,"subregion":"Heilongjiang","latitude":48.026331,"longitude":125.86595},"id":"Q1522472","coordinates":[8495,7948]},{"type":"Point","properties":{" name":"Nancha","scalerank":7,"subregion":"Heilongjiang","latitude":47.136359,"longitude":129.285948},"id":"Q2043360","coordinates":[8590,7897]},{"type":"Point","properties":{" name":"Xinqing","scalerank":7,"subregion":"Heilongjiang","latitude":48.236344,"longitude":129.505935},"id":"Q787402","coordinates":[8597,7961]},{"type":"Point","properties":{" name":"Hulin","scalerank":7,"subregion":"Heilongjiang","latitude":45.769027,"longitude":132.992233},"id":"Q1361161","coordinates":[8693,7818]},{"type":"Point","properties":{" name":"Boli","scalerank":7,"subregion":"Heilongjiang","latitude":45.756366,"longitude":130.575947},"coordinates":[8626,7818]},{"type":"Point","properties":{" name":"Ningan","scalerank":7,"subregion":"Heilongjiang","latitude":44.331337,"longitude":129.465937},"id":"Q1321612","coordinates":[8595,7736]},{"type":"Point","properties":{" name":"Jyekundo","scalerank":6,"subregion":"Gansu","latitude":33.016627,"longitude":96.73331},"id":"Q1558594","coordinates":[7694,7083]},{"type":"Point","properties":{" name":"Liuzhou","scalerank":6,"subregion":"Guangxi","latitude":24.281948,"longitude":109.248068},"id":"Q38968","coordinates":[8038,6583]},{"type":"Point","properties":{" name":"Xingyi","scalerank":6,"subregion":"Guizhou","latitude":25.092364,"longitude":104.888075},"id":"Q1359367","coordinates":[7913,6628]},{"type":"Point","properties":{" name":"Anshun","scalerank":6,"subregion":"Guizhou","latitude":26.252345,"longitude":105.928064},"id":"Q486149","coordinates":[7942,6695]},{"type":"Point","properties":{" name":"Zunyi","scalerank":6,"subregion":"Guizhou","latitude":27.701972,"longitude":106.918081},"id":"Q28994","coordinates":[7969,6778]},{"type":"Point","properties":{" name":"Wanzhou","scalerank":6,"subregion":"Chongqing","latitude":30.819991,"longitude":108.400039},"coordinates":[8010,6958]},{"type":"Point","properties":{" name":"Huaibei","scalerank":6,"subregion":"Anhui","latitude":33.952314,"longitude":116.748075},"id":"Q360268","coordinates":[8242,7138]},{"type":"Point","properties":{" name":"Wuhu","scalerank":6,"subregion":"Anhui","latitude":31.35237,"longitude":118.368028},"id":"Q359990","coordinates":[8287,6988]},{"type":"Point","properties":{" name":"Luan","scalerank":6,"subregion":"Anhui","latitude":31.752293,"longitude":116.478066},"id":"Q360702","coordinates":[8235,7011]},{"type":"Point","properties":{" name":"Bengbu","scalerank":6,"subregion":"Anhui","latitude":32.951936,"longitude":117.328091},"id":"Q360069","coordinates":[8258,7080]},{"type":"Point","properties":{" name":"Anqing","scalerank":6,"subregion":"Anhui","latitude":30.499959,"longitude":117.050002},"id":"Q360374","coordinates":[8251,6939]},{"type":"Point","properties":{" name":"Foshan","scalerank":6,"subregion":"Guangdong","latitude":23.031999,"longitude":113.118064},"id":"Q34412","coordinates":[8141,6508]},{"type":"Point","properties":{" name":"Nagchu","scalerank":6,"subregion":"Xizang","latitude":31.480002,"longitude":92.05003},"id":"Q1868994","coordinates":[7556,6996]},{"type":"Point","properties":{" name":"Nyingchi","scalerank":6,"subregion":"Xizang","latitude":29.533299,"longitude":94.416707},"id":"Q1012465","coordinates":[7621,6890]},{"type":"Point","properties":{" name":"Chamdo","scalerank":6,"subregion":"Xizang","latitude":31.166688,"longitude":97.233279},"id":"Q1012419","coordinates":[7699,6976]},{"type":"Point","properties":{" name":"Korla","scalerank":6,"subregion":"Xinjiang Uygur","latitude":41.729997,"longitude":86.150028},"id":"Q837425","coordinates":[7392,7586]},{"type":"Point","properties":{" name":"Kuqa","scalerank":6,"subregion":"Xinjiang Uygur","latitude":41.727749,"longitude":82.936374},"id":"Q1023116","coordinates":[7303,7586]},{"type":"Point","properties":{" name":"Tacheng","scalerank":6,"subregion":"Xinjiang Uygur","latitude":46.750026,"longitude":82.950017},"id":"Q648696","coordinates":[7303,7875]},{"type":"Point","properties":{" name":"Shihezi","scalerank":6,"subregion":"Xinjiang Uygur","latitude":44.299969,"longitude":86.029932},"id":"Q848680","coordinates":[7389,7734]},{"type":"Point","properties":{" name":"Karamay","scalerank":6,"subregion":"Xinjiang Uygur","latitude":45.589942,"longitude":84.859926},"id":"Q658240","coordinates":[7356,7808]},{"type":"Point","properties":{" name":"Aksu","scalerank":6,"subregion":"Xinjiang Uygur","latitude":41.150006,"longitude":80.250026},"id":"Q421648","coordinates":[7228,7552]},{"type":"Point","properties":{" name":"Sanya","scalerank":6,"subregion":"Hainan","latitude":18.259105,"longitude":109.504032},"id":"Q319804","coordinates":[8041,6234]},{"type":"Point","properties":{" name":"Haikou","scalerank":6,"subregion":"Hainan","latitude":20.050002,"longitude":110.320026},"id":"Q189823","coordinates":[8064,6337]},{"type":"Point","properties":{" name":"Hanzhong","scalerank":6,"subregion":"Shaanxi","latitude":33.129979,"longitude":107.029994},"id":"Q515573","coordinates":[7972,7091]},{"type":"Point","properties":{" name":"Baoji","scalerank":6,"subregion":"Shaanxi","latitude":34.380006,"longitude":107.149987},"id":"Q514796","coordinates":[7976,7163]},{"type":"Point","properties":{" name":"Tongchuan","scalerank":6,"subregion":"Shaanxi","latitude":35.079989,"longitude":109.029975},"id":"Q514608","coordinates":[8028,7203]},{"type":"Point","properties":{" name":"Linfen","scalerank":6,"subregion":"Shanxi","latitude":36.082288,"longitude":111.518058},"id":"Q73156","coordinates":[8097,7261]},{"type":"Point","properties":{" name":"Yuci","scalerank":6,"subregion":"Shanxi","latitude":37.682345,"longitude":112.728062},"coordinates":[8131,7353]},{"type":"Point","properties":{" name":"Datong","scalerank":6,"subregion":"Shanxi","latitude":40.081966,"longitude":113.298053},"id":"Q72877","coordinates":[8146,7491]},{"type":"Point","properties":{" name":"Jianmen","scalerank":6,"subregion":"Hubei","latitude":30.651999,"longitude":113.158061},"id":"Q71323","coordinates":[8142,6948]},{"type":"Point","properties":{" name":"Yichang","scalerank":6,"subregion":"Hubei","latitude":30.701918,"longitude":111.278073},"id":"Q71266","coordinates":[8090,6951]},{"type":"Point","properties":{" name":"Xiantao","scalerank":6,"subregion":"Hubei","latitude":30.372352,"longitude":113.438096},"id":"Q71455","coordinates":[8150,6932]},{"type":"Point","properties":{" name":"Macheng","scalerank":6,"subregion":"Hubei","latitude":31.179995,"longitude":115.030022},"id":"Q1016939","coordinates":[8194,6978]},{"type":"Point","properties":{" name":"Huangshi","scalerank":6,"subregion":"Hubei","latitude":30.220002,"longitude":115.099992},"id":"Q71204","coordinates":[8196,6923]},{"type":"Point","properties":{" name":"Zhuzhou","scalerank":6,"subregion":"Hunan","latitude":27.831938,"longitude":113.148088},"id":"Q198266","coordinates":[8142,6786]},{"type":"Point","properties":{" name":"Yongzhou","scalerank":6,"subregion":"Hunan","latitude":26.23232,"longitude":111.618052},"id":"Q266014","coordinates":[8099,6704]},{"type":"Point","properties":{" name":"Yiyang","scalerank":6,"subregion":"Hunan","latitude":28.602356,"longitude":112.328086},"id":"Q416669","coordinates":[8119,6830]},{"type":"Point","properties":{" name":"Changde","scalerank":6,"subregion":"Hunan","latitude":29.031943,"longitude":111.6781},"id":"Q416544","coordinates":[8101,6855]},{"type":"Point","properties":{" name":"Shaoyang","scalerank":6,"subregion":"Hunan","latitude":26.999992,"longitude":111.200075},"id":"Q194531","coordinates":[8088,6738]},{"type":"Point","properties":{" name":"Leshan","scalerank":6,"subregion":"Sichuan","latitude":29.569042,"longitude":103.731402},"id":"Q426868","coordinates":[7881,6886]},{"type":"Point","properties":{" name":"Panzhihua","scalerank":6,"subregion":"Sichuan","latitude":26.549993,"longitude":101.730007},"id":"Q425415","coordinates":[7825,6712]},{"type":"Point","properties":{" name":"Fulin","scalerank":6,"subregion":"Sichuan","latitude":29.350003,"longitude":102.716717},"id":"Q10954379","coordinates":[7852,6873]},{"type":"Point","properties":{" name":"Guangyuan","scalerank":6,"subregion":"Sichuan","latitude":32.429996,"longitude":105.870013},"id":"Q426237","coordinates":[7940,7050]},{"type":"Point","properties":{" name":"Luzhou","scalerank":6,"subregion":"Sichuan","latitude":28.881926,"longitude":105.378071},"id":"Q425492","coordinates":[7926,6846]},{"type":"Point","properties":{" name":"Yibin","scalerank":6,"subregion":"Sichuan","latitude":28.771933,"longitude":104.568095},"id":"Q427265","coordinates":[7904,6840]},{"type":"Point","properties":{" name":"Zhaotang","scalerank":6,"subregion":"Yunnan","latitude":27.322331,"longitude":103.718069},"id":"Q197519","coordinates":[7880,6756]},{"type":"Point","properties":{" name":"Lijiang","scalerank":6,"subregion":"Yunnan","latitude":26.800004,"longitude":100.266582},"id":"Q205914","coordinates":[7784,6726]},{"type":"Point","properties":{" name":"Yuxi","scalerank":6,"subregion":"Yunnan","latitude":24.379996,"longitude":102.570008},"id":"Q496496","coordinates":[7848,6587]},{"type":"Point","properties":{" name":"Dali","scalerank":6,"subregion":"Yunnan","latitude":25.700019,"longitude":100.179973},"id":"Q855228","coordinates":[7784,6657]},{"type":"Point","properties":{" name":"Qinhuangdao","scalerank":6,"subregion":"Hebei","latitude":39.932311,"longitude":119.618081},"id":"Q58560","coordinates":[8322,7482]},{"type":"Point","properties":{" name":"Langfang","scalerank":6,"subregion":"Hebei","latitude":39.52231,"longitude":116.678053},"id":"Q58710","coordinates":[8240,7459]},{"type":"Point","properties":{" name":"Zhangjiakou","scalerank":6,"subregion":"Hebei","latitude":40.831946,"longitude":114.928031},"id":"Q58650","coordinates":[8190,7533]},{"type":"Point","properties":{" name":"Tangshan","scalerank":6,"subregion":"Hebei","latitude":39.626283,"longitude":118.192431},"id":"Q58422","coordinates":[8282,7465]},{"type":"Point","properties":{" name":"Anyang","scalerank":6,"subregion":"Henan","latitude":36.081926,"longitude":114.348066},"id":"Q324293","coordinates":[8176,7261]},{"type":"Point","properties":{" name":"Jiaozuo","scalerank":6,"subregion":"Henan","latitude":35.251951,"longitude":113.218058},"id":"Q404429","coordinates":[8145,7210]},{"type":"Point","properties":{" name":"Kaifeng","scalerank":6,"subregion":"Henan","latitude":34.851949,"longitude":114.348066},"id":"Q208471","coordinates":[8176,7186]},{"type":"Point","properties":{" name":"Shangqiu","scalerank":6,"subregion":"Henan","latitude":34.452361,"longitude":115.64809},"id":"Q404817","coordinates":[8212,7165]},{"type":"Point","properties":{" name":"Pingdingshan","scalerank":6,"subregion":"Henan","latitude":33.732353,"longitude":113.298053},"id":"Q404116","coordinates":[8146,7125]},{"type":"Point","properties":{" name":"Xinyang","scalerank":6,"subregion":"Henan","latitude":32.132322,"longitude":114.068032},"id":"Q404873","coordinates":[8168,7033]},{"type":"Point","properties":{" name":"Xinxiang","scalerank":6,"subregion":"Henan","latitude":35.322386,"longitude":113.868044},"id":"Q404362","coordinates":[8163,7216]},{"type":"Point","properties":{" name":"Luoyang","scalerank":6,"subregion":"Henan","latitude":34.681934,"longitude":112.468129},"id":"Q187136","coordinates":[8123,7178]},{"type":"Point","properties":{" name":"Liaoyang","scalerank":6,"subregion":"Liaoning","latitude":41.281944,"longitude":123.17807},"id":"Q75203","coordinates":[8421,7560]},{"type":"Point","properties":{" name":"Dandong","scalerank":6,"subregion":"Liaoning","latitude":40.145554,"longitude":124.391639},"id":"Q75110","coordinates":[8454,7495]},{"type":"Point","properties":{" name":"Yingkow","scalerank":6,"subregion":"Liaoning","latitude":40.672292,"longitude":122.278073},"id":"Q75150","coordinates":[8396,7525]},{"type":"Point","properties":{" name":"Jinzhou","scalerank":6,"subregion":"Liaoning","latitude":41.122316,"longitude":121.098094},"id":"Q28996","coordinates":[8363,7551]},{"type":"Point","properties":{" name":"Fuxin","scalerank":6,"subregion":"Liaoning","latitude":42.012417,"longitude":121.658059},"id":"Q34750","coordinates":[8379,7602]},{"type":"Point","properties":{" name":"Benxi","scalerank":6,"subregion":"Liaoning","latitude":41.332329,"longitude":123.748061},"id":"Q75091","coordinates":[8437,7563]},{"type":"Point","properties":{" name":"Fushun","scalerank":6,"subregion":"Liaoning","latitude":41.867335,"longitude":123.868054},"id":"Q75026","coordinates":[8440,7594]},{"type":"Point","properties":{" name":"Jining","scalerank":6,"subregion":"Shandong","latitude":35.402355,"longitude":116.548087},"id":"Q372791","coordinates":[8237,7222]},{"type":"Point","properties":{" name":"Weifang","scalerank":6,"subregion":"Shandong","latitude":36.722352,"longitude":119.098164},"id":"Q217698","coordinates":[8309,7296]},{"type":"Point","properties":{" name":"Taian","scalerank":6,"subregion":"Shandong","latitude":36.201944,"longitude":117.11813},"id":"Q217681","coordinates":[8252,7268]},{"type":"Point","properties":{" name":"Heze","scalerank":6,"subregion":"Shandong","latitude":35.231926,"longitude":115.448103},"id":"Q332753","coordinates":[8206,7212]},{"type":"Point","properties":{" name":"Laiyang","scalerank":6,"subregion":"Shandong","latitude":36.968401,"longitude":120.708435},"id":"Q371640","coordinates":[8352,7312]},{"type":"Point","properties":{" name":"Xinyu","scalerank":6,"subregion":"Jiangxi","latitude":27.801966,"longitude":114.928031},"id":"Q362959","coordinates":[8192,6784]},{"type":"Point","properties":{" name":"Ganzhou","scalerank":6,"subregion":"Jiangxi","latitude":25.91998,"longitude":114.950027},"id":"Q363166","coordinates":[8192,6675]},{"type":"Point","properties":{" name":"Jiujiang","scalerank":6,"subregion":"Jiangxi","latitude":29.72998,"longitude":115.980042},"id":"Q216077","coordinates":[8221,6895]},{"type":"Point","properties":{" name":"Changzhou","scalerank":6,"subregion":"Jiangsu","latitude":31.78193,"longitude":119.968033},"id":"Q57970","coordinates":[8332,7013]},{"type":"Point","properties":{" name":"Zhenjiang","scalerank":6,"subregion":"Jiangsu","latitude":32.221929,"longitude":119.428066},"id":"Q57958","coordinates":[8317,7036]},{"type":"Point","properties":{" name":"Nantong","scalerank":6,"subregion":"Jiangsu","latitude":32.032328,"longitude":120.823072},"id":"Q57947","coordinates":[8358,7025]},{"type":"Point","properties":{" name":"Jiaxing","scalerank":6,"subregion":"Zhejiang","latitude":30.772353,"longitude":120.748037},"id":"Q58178","coordinates":[8353,6955]},{"type":"Point","properties":{" name":"Huzhou","scalerank":6,"subregion":"Zhejiang","latitude":30.872321,"longitude":120.098051},"id":"Q42664","coordinates":[8335,6961]},{"type":"Point","properties":{" name":"Shaoxing","scalerank":6,"subregion":"Zhejiang","latitude":30.002323,"longitude":120.5681},"id":"Q42666","coordinates":[8348,6911]},{"type":"Point","properties":{" name":"Jinhua","scalerank":6,"subregion":"Zhejiang","latitude":29.120043,"longitude":119.649999},"id":"Q58210","coordinates":[8323,6860]},{"type":"Point","properties":{" name":"Liaoyuan","scalerank":6,"subregion":"Jilin","latitude":42.899977,"longitude":125.129974},"id":"Q92311","coordinates":[8475,7653]},{"type":"Point","properties":{" name":"Tumen","scalerank":6,"subregion":"Jilin","latitude":42.969999,"longitude":129.820076},"id":"Q713323","coordinates":[8605,7657]},{"type":"Point","properties":{" name":"Siping","scalerank":6,"subregion":"Jilin","latitude":43.170012,"longitude":124.330023},"id":"Q92297","coordinates":[8453,7669]},{"type":"Point","properties":{" name":"Baicheng","scalerank":6,"subregion":"Jilin","latitude":45.620018,"longitude":122.820038},"id":"Q92381","coordinates":[8411,7810]},{"type":"Point","properties":{" name":"Wuhai","scalerank":6,"subregion":"Nei Mongol","latitude":39.664697,"longitude":106.812229},"id":"Q570768","coordinates":[7966,7467]},{"type":"Point","properties":{" name":"Erenhot","scalerank":6,"subregion":"Nei Mongol","latitude":43.661559,"longitude":111.965455},"id":"Q1001036","coordinates":[8109,7697]},{"type":"Point","properties":{" name":"Jining","scalerank":6,"subregion":"Nei Mongol","latitude":41.029988,"longitude":113.080012},"id":"Q11060772","coordinates":[8140,7546]},{"type":"Point","properties":{" name":"Arxan","scalerank":6,"subregion":"Nei Mongol","latitude":47.183307,"longitude":119.96662},"id":"Q717743","coordinates":[8332,7900]},{"type":"Point","properties":{" name":"Manzhouli","scalerank":6,"subregion":"Nei Mongol","latitude":49.599982,"longitude":117.429979},"id":"Q890671","coordinates":[8261,8039]},{"type":"Point","properties":{" name":"Xilinhot","scalerank":6,"subregion":"Nei Mongol","latitude":43.944332,"longitude":116.044327},"id":"Q1009416","coordinates":[8223,7713]},{"type":"Point","properties":{" name":"Heihe","scalerank":6,"subregion":"Heilongjiang","latitude":50.250019,"longitude":127.446009},"id":"Q349983","coordinates":[8539,8077]},{"type":"Point","properties":{" name":"Qitaihe","scalerank":6,"subregion":"Heilongjiang","latitude":45.799981,"longitude":130.850039},"id":"Q349979","coordinates":[8638,7818]},{"type":"Point","properties":{" name":"Yichun","scalerank":6,"subregion":"Heilongjiang","latitude":47.701888,"longitude":128.898031},"id":"Q349976","coordinates":[8580,7930]},{"type":"Point","properties":{" name":"Hegang","scalerank":6,"subregion":"Heilongjiang","latitude":47.400012,"longitude":130.370016},"id":"Q349982","coordinates":[8618,7909]},{"type":"Point","properties":{" name":"Nenjiang","scalerank":6,"subregion":"Heilongjiang","latitude":49.179981,"longitude":125.23002},"id":"Q6991629","coordinates":[8478,8015]},{"type":"Point","properties":{" name":"Nehe","scalerank":6,"subregion":"Heilongjiang","latitude":48.489998,"longitude":124.880015},"id":"Q1332600","coordinates":[8468,7975]},{"type":"Point","properties":{" name":"Mudangiang","scalerank":6,"subregion":"Heilongjiang","latitude":44.576963,"longitude":129.588066},"id":"Q217646","coordinates":[8599,7750]},{"type":"Point","properties":{" name":"Xuanzhou","scalerank":6,"subregion":"Anhui","latitude":30.954446,"longitude":118.753332},"id":"Q360942","coordinates":[8298,6965]},{"type":"Point","properties":{" name":"Zhuhai","scalerank":6,"subregion":"Guangdong","latitude":22.27889,"longitude":113.565832},"id":"Q59095","coordinates":[8154,6466]},{"type":"Point","properties":{" name":"Xianyang","scalerank":6,"subregion":"Shaanxi","latitude":34.347502,"longitude":108.712776},"id":"Q497341","coordinates":[8019,7161]},{"type":"Point","properties":{" name":"Xiangyang","scalerank":6,"subregion":"Hubei","latitude":32.021941,"longitude":112.128099},"id":"Q71284","coordinates":[8114,7027]},{"type":"Point","properties":{" name":"Suining","scalerank":6,"subregion":"Sichuan","latitude":30.535279,"longitude":105.531387},"id":"Q426644","coordinates":[7931,6941]},{"type":"Point","properties":{" name":"Lingyuan","scalerank":6,"subregion":"Liaoning","latitude":41.241946,"longitude":119.399165},"id":"Q1333417","coordinates":[8316,7558]},{"type":"Point","properties":{" name":"Weihai","scalerank":6,"subregion":"Shandong","latitude":37.499971,"longitude":122.099978},"id":"Q373023","coordinates":[8391,7342]},{"type":"Point","properties":{" name":"Yichun","scalerank":6,"subregion":"Jiangxi","latitude":27.835279,"longitude":114.398054},"id":"Q363326","coordinates":[8177,6786]},{"type":"Point","properties":{" name":"Yancheng","scalerank":6,"subregion":"Jiangsu","latitude":33.387502,"longitude":120.123332},"id":"Q57866","coordinates":[8337,7103]},{"type":"Point","properties":{" name":"Fuyang","scalerank":6,"subregion":"Zhejiang","latitude":30.055279,"longitude":119.949999},"id":"Q1011103","coordinates":[8331,6914]},{"type":"Point","properties":{" name":"Xiamen","scalerank":4,"subregion":"Fujian","latitude":24.451938,"longitude":118.078071},"id":"Q68744","coordinates":[8279,6591]},{"type":"Point","properties":{" name":"Nanchong","scalerank":4,"subregion":"Sichuan","latitude":30.782378,"longitude":106.128051},"id":"Q426996","coordinates":[7947,6955]},{"type":"Point","properties":{" name":"Neijiang","scalerank":4,"subregion":"Sichuan","latitude":29.582323,"longitude":105.048066},"id":"Q426756","coordinates":[7917,6886]},{"type":"Point","properties":{" name":"Nanyang","scalerank":4,"subregion":"Henan","latitude":33.002346,"longitude":112.528074},"id":"Q404763","coordinates":[8125,7083]},{"type":"Point","properties":{" name":"Jinxi","scalerank":4,"subregion":"Liaoning","latitude":40.752287,"longitude":120.828033},"coordinates":[8356,7530]},{"type":"Point","properties":{" name":"Yantai","scalerank":4,"subregion":"Shandong","latitude":37.532354,"longitude":121.398075},"id":"Q210493","coordinates":[8371,7344]},{"type":"Point","properties":{" name":"Zaozhuang","scalerank":4,"subregion":"Shandong","latitude":34.881947,"longitude":117.568077},"id":"Q147187","coordinates":[8265,7192]},{"type":"Point","properties":{" name":"Suzhou","scalerank":4,"subregion":"Jiangsu","latitude":31.302424,"longitude":120.618071},"id":"Q42622","coordinates":[8350,6985]},{"type":"Point","properties":{" name":"Xuzhou","scalerank":4,"subregion":"Jiangsu","latitude":34.281958,"longitude":117.178074},"id":"Q57719","coordinates":[8254,7157]},{"type":"Point","properties":{" name":"Wuxi","scalerank":4,"subregion":"Jiangsu","latitude":31.581942,"longitude":120.298039},"id":"Q42651","coordinates":[8341,7001]},{"type":"Point","properties":{" name":"Jilin","scalerank":4,"subregion":"Jilin","latitude":43.851917,"longitude":126.548097},"id":"Q92277","coordinates":[8514,7708]},{"type":"Point","properties":{" name":"Zhangye","scalerank":4,"subregion":"Gansu","latitude":38.929987,"longitude":100.450034},"id":"Q197402","coordinates":[7790,7425]},{"type":"Point","properties":{" name":"Wuwei","scalerank":4,"subregion":"Gansu","latitude":37.928007,"longitude":102.641011},"id":"Q249007","coordinates":[7850,7367]},{"type":"Point","properties":{" name":"Dunhuang","scalerank":4,"subregion":"Gansu","latitude":40.142678,"longitude":94.662015},"id":"Q319114","coordinates":[7629,7494]},{"type":"Point","properties":{" name":"Tianshui","scalerank":4,"subregion":"Gansu","latitude":34.601964,"longitude":105.918038},"id":"Q533157","coordinates":[7941,7175]},{"type":"Point","properties":{" name":"Dulan","scalerank":4,"subregion":"Gansu","latitude":36.16659,"longitude":98.266601},"coordinates":[7729,7266]},{"type":"Point","properties":{" name":"Golmud","scalerank":4,"subregion":"Gansu","latitude":36.416626,"longitude":94.883345},"id":"Q858250","coordinates":[7635,7280]},{"type":"Point","properties":{" name":"Yulin","scalerank":4,"subregion":"Guangxi","latitude":22.63192,"longitude":110.148064},"id":"Q571918","coordinates":[8059,6486]},{"type":"Point","properties":{" name":"Bose","scalerank":4,"subregion":"Guangxi","latitude":23.899716,"longitude":106.613327},"id":"Q92381","coordinates":[7961,6559]},{"type":"Point","properties":{" name":"Wuzhou","scalerank":4,"subregion":"Guangxi","latitude":23.480026,"longitude":111.320016},"id":"Q571652","coordinates":[8091,6535]},{"type":"Point","properties":{" name":"Liupanshui","scalerank":4,"subregion":"Guizhou","latitude":26.596381,"longitude":104.831386},"id":"Q485918","coordinates":[7911,6714]},{"type":"Point","properties":{" name":"Quanzhou","scalerank":4,"subregion":"Fujian","latitude":24.901962,"longitude":118.578041},"id":"Q68695","coordinates":[8293,6617]},{"type":"Point","properties":{" name":"Hefei","scalerank":4,"subregion":"Anhui","latitude":31.851977,"longitude":117.278068},"id":"Q185684","coordinates":[8257,7017]},{"type":"Point","properties":{" name":"Suzhou","scalerank":4,"subregion":"Anhui","latitude":33.638057,"longitude":116.976943},"id":"Q360643","coordinates":[8249,7120]},{"type":"Point","properties":{" name":"Zhanjiang","scalerank":4,"subregion":"Guangdong","latitude":21.20193,"longitude":110.378076},"id":"Q59144","coordinates":[8065,6404]},{"type":"Point","properties":{" name":"Shaoguan","scalerank":4,"subregion":"Guangdong","latitude":24.799971,"longitude":113.579982},"id":"Q59107","coordinates":[8154,6611]},{"type":"Point","properties":{" name":"Xigaze","scalerank":4,"subregion":"Xizang","latitude":29.250009,"longitude":88.88335},"id":"Q1211183","coordinates":[7468,6867]},{"type":"Point","properties":{" name":"Shache","scalerank":4,"subregion":"Xinjiang Uygur","latitude":38.426142,"longitude":77.250003},"id":"Q857618","coordinates":[7145,7396]},{"type":"Point","properties":{" name":"Yining","scalerank":4,"subregion":"Xinjiang Uygur","latitude":43.900019,"longitude":81.350011},"id":"Q866021","coordinates":[7259,7711]},{"type":"Point","properties":{" name":"Altay","scalerank":4,"subregion":"Xinjiang Uygur","latitude":47.866599,"longitude":88.116626},"id":"Q434924","coordinates":[7447,7939]},{"type":"Point","properties":{" name":"Shizuishan","scalerank":4,"subregion":"Ningxia Hui","latitude":39.233276,"longitude":106.769028},"id":"Q604385","coordinates":[7965,7442]},{"type":"Point","properties":{" name":"Yulin","scalerank":4,"subregion":"Shaanxi","latitude":38.283308,"longitude":109.733291},"id":"Q515712","coordinates":[8047,7387]},{"type":"Point","properties":{" name":"Ankang","scalerank":4,"subregion":"Shaanxi","latitude":32.679981,"longitude":109.020002},"id":"Q515846","coordinates":[8028,7065]},{"type":"Point","properties":{" name":"Houma","scalerank":4,"subregion":"Shanxi","latitude":35.619982,"longitude":111.209997},"id":"Q975264","coordinates":[8088,7234]},{"type":"Point","properties":{" name":"Yueyang","scalerank":4,"subregion":"Hunan","latitude":29.381999,"longitude":113.098065},"id":"Q151958","coordinates":[8141,6875]},{"type":"Point","properties":{" name":"Hengyang","scalerank":4,"subregion":"Hunan","latitude":26.881971,"longitude":112.58807},"id":"Q144663","coordinates":[8127,6731]},{"type":"Point","properties":{" name":"Mianyang","scalerank":4,"subregion":"Sichuan","latitude":31.471923,"longitude":104.768031},"id":"Q426130","coordinates":[7907,6995]},{"type":"Point","properties":{" name":"Xichang","scalerank":4,"subregion":"Sichuan","latitude":27.880015,"longitude":102.299998},"id":"Q224603","coordinates":[7841,6788]},{"type":"Point","properties":{" name":"Baoshan","scalerank":4,"subregion":"Yunnan","latitude":25.119977,"longitude":99.15001},"id":"Q496576","coordinates":[7753,6629]},{"type":"Point","properties":{" name":"Gejiu","scalerank":4,"subregion":"Yunnan","latitude":23.37998,"longitude":103.150076},"id":"Q1016730","coordinates":[7864,6529]},{"type":"Point","properties":{" name":"Shijiazhuang","scalerank":4,"subregion":"Hebei","latitude":38.051961,"longitude":114.478033},"id":"Q58401","coordinates":[8179,7374]},{"type":"Point","properties":{" name":"Handan","scalerank":4,"subregion":"Hebei","latitude":36.581921,"longitude":114.478033},"id":"Q58570","coordinates":[8179,7289]},{"type":"Point","properties":{" name":"Anshan","scalerank":4,"subregion":"Liaoning","latitude":41.116967,"longitude":122.938085},"id":"Q74957","coordinates":[8414,7551]},{"type":"Point","properties":{" name":"Dalian","scalerank":4,"subregion":"Liaoning","latitude":38.924784,"longitude":121.627885},"id":"Q74881","coordinates":[8378,7424]},{"type":"Point","properties":{" name":"Qingdao","scalerank":4,"subregion":"Shandong","latitude":36.091925,"longitude":120.328063},"id":"Q170322","coordinates":[8342,7261]},{"type":"Point","properties":{" name":"Linyi","scalerank":4,"subregion":"Shandong","latitude":35.081935,"longitude":118.32803},"id":"Q373346","coordinates":[8286,7203]},{"type":"Point","properties":{" name":"Huaiyin","scalerank":4,"subregion":"Jiangsu","latitude":33.581949,"longitude":119.028039},"id":"Q57818","coordinates":[8307,7117]},{"type":"Point","properties":{" name":"Wenzhou","scalerank":4,"subregion":"Zhejiang","latitude":28.021927,"longitude":120.648147},"id":"Q42635","coordinates":[8351,6796]},{"type":"Point","properties":{" name":"Ningbo","scalerank":4,"subregion":"Zhejiang","latitude":29.881917,"longitude":121.548092},"id":"Q42780","coordinates":[8376,6904]},{"type":"Point","properties":{" name":"Tongliao","scalerank":4,"subregion":"Nei Mongol","latitude":43.621905,"longitude":122.268048},"id":"Q570884","coordinates":[8396,7695]},{"type":"Point","properties":{" name":"Hohhot","scalerank":4,"subregion":"Nei Mongol","latitude":40.821921,"longitude":111.65805},"id":"Q535534","coordinates":[8101,7534]},{"type":"Point","properties":{" name":"Chifeng","scalerank":4,"subregion":"Nei Mongol","latitude":42.271961,"longitude":118.948044},"id":"Q570829","coordinates":[8303,7617]},{"type":"Point","properties":{" name":"Ulan Hot","scalerank":4,"subregion":"Nei Mongol","latitude":46.080016,"longitude":122.080031},"id":"Q1000383","coordinates":[8390,7836]},{"type":"Point","properties":{" name":"Hailar","scalerank":4,"subregion":"Nei Mongol","latitude":49.19998,"longitude":119.700022},"id":"Q986724","coordinates":[8324,8016]},{"type":"Point","properties":{" name":"Jiamusi","scalerank":4,"subregion":"Heilongjiang","latitude":46.831967,"longitude":130.348072},"id":"Q29003","coordinates":[8620,7880]},{"type":"Point","properties":{" name":"Bei'an","scalerank":4,"subregion":"Heilongjiang","latitude":48.239005,"longitude":126.482037},"id":"Q814616","coordinates":[8514,7961]},{"type":"Point","properties":{" name":"Daqing","scalerank":4,"subregion":"Heilongjiang","latitude":46.581905,"longitude":124.998062},"id":"Q304848","coordinates":[8471,7865]},{"type":"Point","properties":{" name":"Jixi","scalerank":4,"subregion":"Heilongjiang","latitude":45.301906,"longitude":130.968085},"id":"Q28979","coordinates":[8637,7792]},{"type":"Point","properties":{" name":"Jiayuguan","scalerank":3,"subregion":"Gansu","latitude":39.82001,"longitude":98.299984},"id":"Q532560","coordinates":[7730,7476]},{"type":"Point","properties":{" name":"Xining","scalerank":3,"subregion":"Gansu","latitude":36.621945,"longitude":101.768059},"id":"Q69060","coordinates":[7826,7292]},{"type":"Point","properties":{" name":"Guilin","scalerank":3,"subregion":"Guangxi","latitude":25.281939,"longitude":110.278082},"id":"Q189633","coordinates":[8062,6639]},{"type":"Point","properties":{" name":"Huainan","scalerank":3,"subregion":"Anhui","latitude":32.63193,"longitude":116.978035},"id":"Q360178","coordinates":[8249,7062]},{"type":"Point","properties":{" name":"Shantou","scalerank":3,"subregion":"Guangdong","latitude":23.371952,"longitude":116.66808},"id":"Q59100","coordinates":[8240,6529]},{"type":"Point","properties":{" name":"Lhasa","scalerank":3,"subregion":"Xizang","latitude":29.645024,"longitude":91.10001},"id":"Q5869","coordinates":[7530,6890]},{"type":"Point","properties":{" name":"Hami","scalerank":3,"subregion":"Xinjiang Uygur","latitude":42.826984,"longitude":93.515005},"id":"Q650585","coordinates":[7597,7649]},{"type":"Point","properties":{" name":"Hotan","scalerank":3,"subregion":"Xinjiang Uygur","latitude":37.099711,"longitude":79.926945},"id":"Q235389","coordinates":[7219,7319]},{"type":"Point","properties":{" name":"Kashgar","scalerank":3,"subregion":"Xinjiang Uygur","latitude":39.476336,"longitude":75.969926},"id":"Q170521","coordinates":[7110,7456]},{"type":"Point","properties":{" name":"Yinchuan","scalerank":3,"subregion":"Ningxia Hui","latitude":38.46992,"longitude":106.271092},"id":"Q211243","coordinates":[7951,7398]},{"type":"Point","properties":{" name":"Pingxiang","scalerank":3,"subregion":"Jiangxi","latitude":27.621951,"longitude":113.848097},"id":"Q362865","coordinates":[8162,6773]},{"type":"Point","properties":{" name":"Qiqihar","scalerank":3,"subregion":"Heilongjiang","latitude":47.346923,"longitude":123.988046},"id":"Q205922","coordinates":[8443,7909]},{"type":"Point","properties":{" name":"Shenzhen","scalerank":2,"subregion":"Guangdong","latitude":22.554316,"longitude":114.120177},"id":"Q15174","coordinates":[8168,6481]},{"type":"Point","properties":{" name":"Zibo","scalerank":2,"subregion":"Shandong","latitude":36.801934,"longitude":118.048047},"id":"Q198370","coordinates":[8277,7303]},{"type":"Point","properties":{" name":"Lanzhou","scalerank":2,"subregion":"Gansu","latitude":36.057974,"longitude":103.790054},"id":"Q183584","coordinates":[7882,7259]},{"type":"Point","properties":{" name":"Nanning","scalerank":2,"subregion":"Guangxi","latitude":22.821934,"longitude":108.318099},"id":"Q179608","coordinates":[8008,6497]},{"type":"Point","properties":{" name":"Guiyang","scalerank":2,"subregion":"Guizhou","latitude":26.581989,"longitude":106.718093},"id":"Q192271","coordinates":[7964,6714]},{"type":"Point","properties":{" name":"Chongqing","scalerank":2,"subregion":"Chongqing","latitude":29.566923,"longitude":106.593036},"id":"Q11725","coordinates":[7960,6885]},{"type":"Point","properties":{" name":"Fuzhou","scalerank":2,"subregion":"Fujian","latitude":26.081942,"longitude":119.2981},"id":"Q68481","coordinates":[8313,6685]},{"type":"Point","properties":{" name":"Guangzhou","scalerank":2,"subregion":"Guangdong","latitude":23.146927,"longitude":113.323064},"id":"Q16572","coordinates":[8145,6514]},{"type":"Point","properties":{" name":"Dongguan","scalerank":2,"subregion":"Guangdong","latitude":23.050835,"longitude":113.742776},"id":"Q59218","coordinates":[8159,6509]},{"type":"Point","properties":{" name":"Xian","scalerank":2,"subregion":"Shaanxi","latitude":34.276971,"longitude":108.89305},"id":"Q5826","coordinates":[8024,7157]},{"type":"Point","properties":{" name":"Taiyuan","scalerank":2,"subregion":"Shanxi","latitude":37.876958,"longitude":112.543112},"id":"Q72778","coordinates":[8125,7364]},{"type":"Point","properties":{" name":"Wuhan","scalerank":2,"subregion":"Hubei","latitude":30.581977,"longitude":114.268071},"id":"Q11746","coordinates":[8173,6944]},{"type":"Point","properties":{" name":"Changsha","scalerank":2,"subregion":"Hunan","latitude":28.201916,"longitude":112.968047},"id":"Q174091","coordinates":[8137,6807]},{"type":"Point","properties":{" name":"Kunming","scalerank":2,"subregion":"Yunnan","latitude":25.071926,"longitude":102.678029},"id":"Q182852","coordinates":[7852,6625]},{"type":"Point","properties":{" name":"Zhengzhou","scalerank":2,"subregion":"Henan","latitude":34.756942,"longitude":113.663147},"id":"Q30340","coordinates":[8156,7184]},{"type":"Point","properties":{" name":"Shenyeng","scalerank":2,"subregion":"Liaoning","latitude":41.806925,"longitude":123.448028},"id":"Q11720","coordinates":[8428,7590]},{"type":"Point","properties":{" name":"Jinan","scalerank":2,"subregion":"Shandong","latitude":36.676928,"longitude":116.993073},"id":"Q170247","coordinates":[8249,7295]},{"type":"Point","properties":{" name":"Tianjin","scalerank":2,"subregion":"Tianjin","latitude":39.131972,"longitude":117.198073},"id":"Q11736","coordinates":[8255,7433]},{"type":"Point","properties":{" name":"Nanchang","scalerank":2,"subregion":"Jiangxi","latitude":28.681938,"longitude":115.87805},"id":"Q171943","coordinates":[8218,6834]},{"type":"Point","properties":{" name":"Nanjing","scalerank":2,"subregion":"Jiangsu","latitude":32.051965,"longitude":118.778029},"id":"Q16666","coordinates":[8299,7029]},{"type":"Point","properties":{" name":"Hangzhou","scalerank":2,"subregion":"Zhejiang","latitude":30.25192,"longitude":120.168073},"id":"Q4970","coordinates":[8337,6925]},{"type":"Point","properties":{" name":"Changchun","scalerank":2,"subregion":"Jilin","latitude":43.866954,"longitude":125.338042},"id":"Q92161","coordinates":[8481,7709]},{"type":"Point","properties":{" name":"Baotou","scalerank":2,"subregion":"Nei Mongol","latitude":40.654153,"longitude":109.820074},"id":"Q569907","coordinates":[8050,7524]},{"type":"Point","properties":{" name":"Harbin","scalerank":2,"subregion":"Heilongjiang","latitude":45.75193,"longitude":126.648039},"id":"Q42956","coordinates":[8517,7817]},{"type":"Point","properties":{" name":"Ürümqi","scalerank":1,"subregion":"Xinjiang Uygur","latitude":43.806958,"longitude":87.57306},"id":"Q16959","coordinates":[7432,7705]},{"type":"Point","properties":{" name":"Chengdu","scalerank":1,"subregion":"Sichuan","latitude":30.671946,"longitude":104.068074},"id":"Q30002","coordinates":[7890,6949]},{"type":"Point","properties":{" name":"Beijing","scalerank":0,"subregion":"Beijing","latitude":39.930838,"longitude":116.38634},"id":"Q956","coordinates":[8232,7481]},{"type":"Point","properties":{" name":"Shanghai","scalerank":0,"subregion":"Shanghai","latitude":31.218398,"longitude":121.434559},"id":"Q8686","coordinates":[8372,6981]}]},"land":{"type":"GeometryCollection","name":"CHN_land","crs":{"type":"name","properties":{"name":"urn:ogc:def:crs:OGC:1.3:CRS84"}},"geometries":[{"type":"MultiPolygon","properties":{"scalerank":0},"arcs":[[[410]],[[411]],[[412]],[[413]],[[414,32,415,416,417,418,419,38,420,421,41,422,43,423,424,425,47,426,427,428,429,430,53,431,432,56,433,434,435,436,437,438,439,440,65,441,442,371,443,444,374,445,383,446,385,447,366,448,317,449,319,450,451,452,323,453,454,326,455,456,457,330,458,332,459,460,335,461,462,463,339,464,465,466,467,468,469,346,470,348,471,350,472,473,474,354,475,356,476,358,477,360,478,479,480,481,482,483,484,485,486,487,301,488,489,304,490,306,491,308,492,493,494,495,496,281,497,498,499,500,501,502,241,503,243,504,505,246,506,507,249,508,509,510,511,512,513,514,515,516,259,517,261,518,519,520,521,522,523,524,190,525,192,526,527,195,528,529,530,531,532,201,533,534,535,205,536,537,538,539,540,541,542,543,544,215,545,217,546,547,548,549,550,551,552,225,553,554,555,556,557,558,559,560,561,562,563,145,564,565,148,566,567,568,569,570,571,572,573,574,575,576,577,578,579,95,580,581,98,582,583,101,584,585,586,105,587,107,588,109,589,111,590,113,591,592,593,594,595,596,120,597,598,599,124,600,601,127,602,603,604,605,74,606,607,608,609,610,611,612,613,614],[615]],[[616]],[[617]],[[618]],[[619]],[[620]],[[621]],[[622]],[[623]],[[624]],[[625]],[[626]],[[627]],[[628]],[[629]],[[630]],[[631]],[[632]],[[633]],[[634]],[[635]],[[636]],[[637]],[[638]],[[639]],[[640]],[[641]],[[642]],[[643]],[[644]],[[645]],[[646]],[[647]],[[648]],[[649]],[[650]],[[651]],[[652]],[[653]],[[654]],[[655]],[[656]],[[657]],[[658]],[[659]],[[660]],[[661]],[[662]],[[663]],[[664]],[[665]],[[666]],[[667]],[[668]],[[669]],[[670]],[[671]],[[672]],[[673]],[[674]],[[675]],[[676]],[[677]],[[678]],[[679]],[[680]],[[681]],[[682]],[[683]],[[684]],[[685]],[[686]],[[687]],[[688]],[[689]],[[690]],[[691]],[[692]],[[693]],[[694]],[[695]],[[696]],[[697]]]},{"type":"MultiPolygon","properties":{"scalerank":6},"arcs":[[[698]],[[699]],[[700]],[[701]],[[702]],[[703]],[[704]],[[705]]]},{"type":"MultiPolygon","properties":{"scalerank":5},"arcs":[[[706]],[[707]],[[708]],[[709]],[[710]],[[711]],[[712]],[[713]],[[714]],[[715]],[[716]],[[717]],[[718]],[[719]],[[720]],[[721]],[[722]],[[723]],[[724]],[[725]],[[726]],[[727]],[[728]],[[729]],[[730]],[[731]],[[732]],[[733]],[[734]],[[735]],[[736]],[[737]],[[738]],[[739]],[[740]],[[741]],[[742]],[[743]],[[744]],[[745]],[[746]],[[747]],[[748]],[[749]],[[750]],[[751]],[[752]],[[753]],[[754]],[[755]],[[756]],[[757]],[[758]],[[759]],[[760]],[[761]],[[762]],[[763]],[[764]],[[765]],[[766]],[[767]],[[768]],[[769]],[[770]],[[771]],[[772]],[[773]],[[774]],[[775]],[[776]],[[777]],[[778]],[[779]],[[780]],[[781]],[[782]],[[783]],[[784]],[[785]],[[786]],[[787]],[[788]],[[789]],[[790]],[[791]],[[792]],[[793]],[[794]],[[795]],[[796]],[[797]],[[798]],[[799]],[[800]],[[801]],[[802]],[[803]],[[804]],[[805]],[[806]],[[807]],[[808]],[[809]],[[810]],[[811]],[[812]],[[813]],[[814]],[[815]],[[816]],[[817]],[[818,277,819,820]],[[821]],[[822]],[[823]],[[824]],[[825]],[[826]],[[827]],[[828]],[[829]],[[830]],[[831]],[[832]],[[833]],[[834]],[[835]],[[836]],[[837]],[[838]],[[839]],[[840]],[[841]],[[842]],[[843]],[[844]],[[845]],[[846]],[[847]],[[848]],[[849]],[[850]],[[851]],[[852]],[[853]],[[854]],[[855]],[[856]],[[857]],[[858]],[[859]],[[860]],[[861]],[[862]],[[863]],[[864]],[[865]],[[866]],[[867]],[[868]],[[869]],[[870]],[[871]],[[872]],[[873]],[[874]],[[875]],[[876]],[[877]],[[878]],[[879]],[[880]],[[881]],[[882]],[[883]],[[884]],[[885]],[[886]],[[887]],[[888]],[[889]],[[890]],[[891]],[[892]],[[893]],[[894]],[[895]],[[896]],[[897]],[[898]],[[899]],[[900]],[[901]],[[902]],[[903]],[[904]],[[905]],[[906]],[[907]],[[908]],[[909]],[[910]],[[911]],[[912]],[[913]],[[914]],[[915]],[[916]],[[917]],[[918]],[[919]],[[920]],[[921]],[[922]],[[923]],[[924]],[[925]]]},{"type":"MultiPolygon","properties":{"scalerank":6},"arcs":[[[926]],[[927]],[[928]],[[929]],[[930]],[[931]]]},{"type":"MultiPolygon","properties":{"scalerank":5},"arcs":[[[932]],[[933]],[[934]],[[935]],[[936]],[[937]],[[938]],[[939]],[[940]],[[941]],[[942]],[[943]],[[944]],[[945]],[[946]],[[947]],[[948]],[[949]],[[950]],[[951]]]},{"type":"MultiPolygon","properties":{"scalerank":3},"arcs":[[[952]],[[953]],[[954]],[[955]],[[956]],[[957]],[[958]],[[959]],[[960]],[[961]],[[962]],[[963]],[[964]],[[965]],[[966]],[[967]],[[968]],[[969]],[[970]],[[971]],[[972]],[[973]],[[974]],[[975]],[[976]],[[977]],[[978]],[[979]],[[980]],[[981]],[[982]],[[983]],[[984]],[[985]],[[986]],[[987]],[[988]],[[989]],[[990]],[[991]],[[992]],[[993]],[[994]],[[995]],[[996]],[[997]],[[998]],[[999]],[[1000]],[[1001]],[[1002]],[[1003]],[[1004]],[[1005]],[[1006]],[[1007]],[[1008]],[[1009]],[[1010]],[[1011]],[[1012]],[[1013]],[[1014]],[[1015]],[[1016]],[[1017]],[[1018]],[[1019]],[[1020]],[[1021]],[[1022]],[[1023]],[[1024]],[[1025]],[[1026]],[[1027]],[[1028]],[[1029]],[[1030]],[[1031]],[[1032]],[[1033]],[[1034]],[[1035]],[[1036]],[[1037]],[[1038]],[[1039]],[[1040]],[[1041]],[[1042]],[[1043]],[[1044]],[[1045]],[[1046]],[[1047]],[[1048]],[[1049]],[[1050]],[[1051]],[[1052]],[[1053]],[[1054]],[[1055]],[[1056]],[[1057]],[[1058]],[[1059]],[[1060]],[[1061]],[[1062]],[[1063]],[[1064,1065,1066,287,1067,289]],[[1068]],[[1069]],[[1070]],[[1071]],[[1072]],[[1073]],[[1074]],[[1075]],[[1076]],[[1077]],[[1078]],[[1079]],[[1080]],[[1081]],[[1082]],[[1083]],[[1084]],[[1085]],[[1086]],[[1087]],[[1088]],[[1089]],[[1090]],[[1091]],[[1092]],[[1093]],[[1094]],[[1095]],[[1096]],[[1097]],[[1098]],[[1099]],[[1100]],[[1101]],[[1102]],[[1103]],[[1104]],[[1105]],[[1106]],[[1107]],[[1108]],[[1109]],[[1110]],[[1111]],[[1112]],[[1113]],[[1114]],[[1115]],[[1116]],[[1117]],[[1118]],[[1119]],[[1120]],[[1121]],[[1122]],[[1123]],[[1124]],[[1125]],[[1126]],[[1127]],[[1128]],[[1129]],[[1130]],[[1131]],[[1132]],[[1133]],[[1134]],[[1135]],[[1136]],[[1137]],[[1138]],[[1139]],[[1140]],[[1141]],[[1142]],[[1143]],[[1144]],[[1145]],[[1146]],[[1147]],[[1148]],[[1149]],[[1150]],[[1151]],[[1152]],[[1153]],[[1154]],[[1155]],[[1156]],[[1157]],[[1158]],[[1159]],[[1160]],[[1161]],[[1162]],[[1163]],[[1164]],[[1165]],[[1166]],[[1167]],[[1168]],[[1169]],[[1170]],[[1171]],[[1172]],[[1173]],[[1174]],[[1175]],[[1176]],[[1177]],[[1178]],[[1179]],[[1180]],[[1181]],[[1182]],[[1183]],[[1184]],[[1185]],[[1186]],[[1187]],[[1188]],[[1189]],[[1190]],[[1191]],[[1192]],[[1193]],[[1194]],[[1195]],[[1196]],[[1197]],[[1198]],[[1199]]]},{"type":"MultiPolygon","properties":{"scalerank":0},"arcs":[[[1200]],[[1201,161,1202,1203,1204,165,1205,1206,168,1207,170,1208,172,1209,174,1210,1211,1212,178,1213,1214,1215,182,1216,1217,185,1218]],[[1219]],[[1220]],[[1221]],[[1222]],[[1223]],[[1224]],[[1225]],[[1226]],[[1227]],[[1228]],[[1229]],[[1230]],[[1231]],[[1232]],[[1233]],[[1234]],[[1235]],[[1236]],[[1237]],[[1238]],[[1239]],[[1240]],[[1241]],[[1242]],[[1243]],[[1244]],[[1245]],[[1246]],[[1247]],[[1248]],[[1249]],[[1250]],[[1251]],[[1252]],[[1253]],[[1254]],[[1255]],[[1256]],[[1257]],[[1258]],[[1259]],[[1260]],[[1261]],[[1262]],[[1263]],[[1264]],[[1265]],[[1266]],[[1267]],[[1268]],[[1269]],[[1270]],[[1271]],[[1272]],[[1273]],[[1274]],[[1275]],[[1276]],[[1277]],[[1278]],[[1279]]]},{"type":"MultiPolygon","properties":{"scalerank":1},"arcs":[[[1280]],[[1281]],[[1282]],[[1283]],[[1284]],[[1285]],[[1286]],[[1287]],[[1288]],[[1289]],[[1290]],[[1291]],[[1292]],[[1293]],[[1294]],[[1295]],[[1296]],[[1297]],[[1298]],[[1299]],[[1300]],[[1301]],[[1302]],[[1303]],[[1304]],[[1305]]]},{"type":"MultiPolygon","properties":{"scalerank":5},"arcs":[[[1306]],[[1307]],[[1308]],[[1309]],[[1310]],[[1311]],[[1312]],[[1313]],[[1314]],[[1315]],[[1316]],[[1317]],[[1318]],[[1319]],[[1320]],[[1321]],[[1322]],[[1323]],[[1324]],[[1325]],[[1326]],[[1327]],[[1328]],[[1329]],[[1330]],[[1331]],[[1332]]]}]}},"arcs":[[[7193,7160],[-1,2],[-4,3],[-1,3],[-4,4],[-7,2],[-2,5],[-2,11],[-2,5],[0,7],[-3,8],[-1,4],[0,4],[2,6],[-2,3],[-3,-4],[-3,4],[-3,-2],[-5,1],[-2,-1],[-5,4],[-4,0],[-2,3],[-4,0],[-1,3],[-2,1],[-3,3],[-3,3],[0,6],[-4,0],[-3,-3],[-4,0],[-1,1],[0,7],[-2,2],[-2,1],[-2,2],[-1,4],[3,3],[1,4],[-1,4],[0,7],[0,3],[-3,9],[-2,4],[-4,3],[-3,1],[-2,-3],[-2,2],[0,7],[-2,3],[-4,2],[-3,2],[-3,0],[-2,-2],[0,-2],[-3,5],[-2,0],[-2,3],[-3,-2],[-2,3],[-3,4],[3,2],[0,3],[4,0],[3,4],[2,-5],[3,1],[1,2],[4,2],[0,4],[2,2],[-3,6],[-3,2],[-1,3],[-1,3],[3,7],[-3,4],[1,9],[-3,5],[-1,12],[2,5],[0,5],[-2,2],[-2,1],[-1,2],[-5,3],[-4,4],[-2,-1],[-3,1],[-3,-4],[0,-5],[-3,1],[-4,4],[-1,7],[0,4],[-2,3],[2,4],[2,1],[0,3],[-4,5],[0,4],[-2,5],[1,6],[0,6],[5,2],[3,7],[-1,7],[-2,2],[0,3],[5,15],[5,2],[2,0],[3,0],[6,8],[3,5],[4,0],[1,2],[-2,3],[1,6],[1,-1],[5,-3],[2,1],[2,-1],[8,10],[2,1],[1,-4],[1,-3],[1,-4],[-1,-5],[2,-4],[1,1],[3,-1],[2,1],[1,3],[4,2],[2,-2],[2,5],[3,-6],[3,4],[1,3],[2,6],[2,3],[0,6],[1,4],[3,4],[0,5],[2,4],[4,1],[3,-1],[4,-1],[2,1],[4,-2],[6,1],[3,3],[2,1],[6,-2],[3,4],[1,4],[2,3],[2,3],[0,6],[4,4],[3,1],[2,4],[3,2],[3,3],[2,1],[3,3],[3,1],[3,4],[3,0],[6,5],[3,1],[3,7],[3,1],[7,0],[2,3],[-2,6],[2,3],[-2,12],[0,2],[-2,8],[3,10],[7,4],[1,4],[-3,1],[-1,5],[6,5],[2,1],[3,-1],[0,3],[-1,7],[-3,2],[2,7],[-6,26],[-2,5],[-1,4],[-1,3],[1,9],[-1,9],[0,4],[1,6],[0,4],[3,2],[0,2],[-7,5],[-7,-2],[-3,4],[0,3],[5,6],[9,2],[1,3],[3,0],[5,2],[4,-1],[6,3],[2,2],[11,5],[4,3],[2,0],[2,-9],[4,-2],[6,4],[3,0],[5,-6],[2,0],[1,3],[2,10],[-1,5],[-3,2],[-5,2],[-1,3],[2,10],[4,10],[1,13],[1,4],[3,8],[2,9],[2,14],[4,12],[1,15],[4,1],[2,-3],[4,-1],[4,-5],[11,-5],[5,-1],[2,2],[7,0],[3,-1],[4,0],[2,-2],[0,-7],[5,2],[7,8],[1,2],[8,1],[2,8],[3,1],[0,4],[0,7],[-2,4],[-1,4],[1,5],[-2,17],[1,7],[1,6],[3,13],[2,2],[6,2],[5,-1],[4,4],[3,0],[4,2],[1,5],[4,5],[0,5],[1,3],[-2,5],[0,4],[5,7],[2,-1],[4,2],[6,-3],[2,0],[4,2],[5,3],[3,0],[0,-8],[1,-3],[-3,-3],[-1,-3],[2,-4],[7,-4],[0,-3],[-3,-5],[6,-6],[2,0],[3,-2],[2,-3],[3,0],[1,-3],[1,-8],[3,-2],[3,-4],[4,0],[3,-6],[5,-1],[3,3],[6,0],[3,-8],[2,-1],[0,-3],[4,0],[2,3],[2,0],[2,-7],[3,-4],[4,-2],[-1,-2],[2,-5],[2,-2],[0,-5],[1,-2],[-1,-4],[7,-17],[3,-2],[3,-6],[0,-3],[2,-5],[0,-2],[0,-6],[1,-2],[-3,-12],[-1,-3],[2,-8],[1,-3],[0,-5],[-8,-15],[0,-2],[-2,-13],[3,-3],[1,-9],[2,-1],[0,-3],[1,-2],[2,2],[5,-1],[3,-4],[3,-1],[3,1],[2,-3],[3,-1],[3,0],[5,0],[2,1],[3,-1],[2,-3],[6,0],[2,-1],[8,2],[3,0],[2,-1],[4,-1],[2,1],[2,-2],[3,0],[2,-1],[3,-1],[5,-4],[5,-9],[3,-3],[6,-1],[2,-3],[2,-5],[2,0],[5,-4],[3,-6],[9,-5],[10,2],[-2,-8],[0,-8],[5,-2],[2,-6],[3,-14],[4,-12],[1,-8],[1,-4],[11,-16],[1,-4],[1,-8]],[[7676,7643],[-8,-8],[-1,-5],[-1,-21],[1,-8],[-5,-8],[-2,-1],[-8,1],[-12,-4],[-14,-11],[-15,-28],[-7,-16],[-3,-8],[-2,-6],[-2,-2],[-6,-5],[-7,1],[-3,-1],[0,-2],[-1,-18],[0,-2],[-4,-10],[0,-6],[5,-20],[0,-18]],[[7581,7437],[-4,-1],[-13,-4],[-2,-4],[-4,-3],[-7,-3],[-7,-3],[-3,-1],[-6,-4],[-2,0],[-6,-3],[-3,0],[-4,-1],[-3,0],[0,-3],[-4,-5],[-5,-4],[-3,0],[-2,-2],[2,-6],[6,-19],[1,-4],[-1,-5],[0,-4],[4,-2],[3,-4],[4,-3],[4,-6],[3,-1],[2,-4],[0,-6],[3,-7],[2,-5],[0,-3],[-1,-3],[-3,0],[-3,-4],[-3,-1],[-2,1],[-2,-2],[-3,-5],[-1,-7],[1,-3],[3,-5],[5,-3],[2,-11],[2,-10],[-1,-4],[-3,-1],[-2,-2],[-3,0],[-5,5],[-10,1],[-3,0],[-2,5],[-2,2],[-2,-8],[-2,-2],[-6,1]],[[7490,7261],[-12,10],[-3,0],[-5,1],[-3,5],[-4,0],[-5,3],[-2,2],[-5,0],[-3,-1],[-4,0],[-2,-3],[-10,-3],[-2,0],[-4,2],[-5,-4],[-5,-1],[-6,-1],[-2,-2],[-3,-1],[-4,1],[-2,-3],[-3,-2],[-2,-1],[-1,-6],[-1,-2],[-1,-6],[-3,-5],[-2,-2],[-4,1],[-2,-1],[-2,-5],[-2,-1],[-1,4],[-4,2],[-3,-2],[-3,2],[-7,-4],[-4,-5],[-6,-2],[-9,-10],[-3,-1],[-4,2],[-3,-2],[-8,-1],[-4,2],[-2,0],[-3,2],[-4,-1],[-4,5],[0,6],[-1,4],[-4,1],[-2,-2],[-8,2],[-3,-3],[-1,-5],[-6,-6],[-2,-7],[-2,-2],[-6,-3],[-3,0],[-2,1],[-2,3],[-3,1],[-4,0],[-4,4],[-1,-5],[-1,-1],[-4,3],[-2,0],[-3,2],[-5,2],[-5,6],[-1,0],[0,-5],[-3,-10],[-4,-10],[1,-4],[-1,-2],[-4,-3],[1,-7],[1,-3],[0,-4],[-2,-9],[-2,-5],[-2,-1],[-4,2],[-2,1],[-5,-2],[-4,0],[-4,-3],[-2,-3]],[[7490,7261],[-4,-2],[-2,-4],[1,-6],[3,-2],[5,-1],[0,-3],[-2,-8],[0,-5],[0,-2],[1,-4],[-3,-3],[-4,-3],[-1,-7],[3,-8],[0,-6],[1,-2],[5,-1],[1,-5],[-1,-3],[-1,-3],[1,-10],[1,-9],[1,-1],[-2,-11],[-1,-2],[-2,-1],[-1,-3],[1,-6],[2,-4],[4,-5],[0,-5],[2,-1],[1,-6],[4,-3],[2,-4],[0,-6],[1,-3],[2,-3],[3,-1],[1,-1],[6,-6],[4,-1],[4,6],[2,0],[3,1],[1,5],[5,0],[0,-4],[3,-8],[2,-3],[5,-6],[3,-1],[3,-5],[1,-2],[3,3],[3,-1],[0,-3],[1,-5],[4,2],[3,0],[5,-2],[2,1],[3,-1],[5,0],[0,-4],[6,0],[3,-5],[3,-1],[2,-3],[2,3],[4,1],[2,-1],[2,-4],[1,1],[2,-2],[3,0],[2,3],[4,1],[1,4],[2,-1],[5,4],[1,0],[2,-4],[1,-4],[3,-2],[2,-4],[1,-5],[3,-4],[5,-1],[2,-4],[2,-1],[1,-4],[-2,-8],[1,-8],[3,-4],[3,1],[3,-1],[2,-3],[2,1],[5,0],[2,-1],[2,-8],[1,3],[0,4],[0,3],[-2,3],[1,5],[3,2],[1,-1],[2,-4],[2,-4],[5,-1],[2,-3],[2,2],[-1,7],[1,4],[-1,4],[4,1],[3,2],[3,-1],[2,3],[2,1],[0,7],[1,4],[2,0],[1,7],[-2,2],[1,4],[5,-1],[2,-2],[3,6]],[[7714,7057],[8,-5],[2,-3],[3,-3],[1,-6],[2,-7],[2,-3],[2,-5],[-1,-6],[1,-5],[3,-7],[1,-5],[8,-14],[-3,-7],[-3,5],[-2,-3],[1,-4],[2,-4],[0,-3],[3,-5],[-1,-5],[3,-7],[2,-2],[-1,-4],[0,-5],[0,-5],[1,-2],[1,-18],[1,-5],[1,-8],[-2,-6],[0,-10],[1,-5],[1,-14],[1,-5]],[[7752,6866],[-3,-2],[-1,-2],[1,-5],[0,-3],[-2,-2],[0,-4],[1,-4],[-2,-2],[-2,4],[-1,7],[-3,-2],[-1,-5],[1,-7],[-2,-5],[0,-5],[1,-5],[0,-4],[-2,-6],[-2,-4],[-2,0],[-3,6],[-1,-7],[-1,-2],[-3,-3]],[[7725,6804],[-2,3],[-2,1],[0,3],[-2,5],[-3,-1],[-2,2],[-1,6],[-2,0],[-3,3],[-2,-9],[0,-5],[-2,0],[-1,-4],[-3,3],[-3,5],[-1,1],[-2,-2],[-2,0],[-6,5],[-4,1],[-6,-4],[-2,2],[1,4],[5,9],[0,3],[3,1],[-1,6],[-2,4],[-1,7],[-3,2],[-3,-5],[-2,-1],[0,10],[1,2],[3,2],[1,4],[-1,2],[-2,-2],[-1,1],[-2,6],[-5,-1],[-3,-2],[-2,2],[-1,-1],[0,-3],[-1,-4],[-3,2],[-3,-2],[1,-3],[-1,-5],[-4,-2],[-4,1],[-1,2],[-4,3],[-5,2],[-2,-1],[0,3],[-2,4],[-2,2],[-1,-1],[-2,-4],[-4,-1],[-1,-3],[-2,-1],[0,-3],[2,-4],[-3,-5],[-2,0],[-1,-2],[-4,-3],[0,-3],[-2,-6],[-1,1],[-3,-2],[-1,1],[-3,-1],[-5,0],[-4,-4],[0,-5],[-3,-5],[1,-2],[-1,-3],[-6,-4],[-2,-1],[-2,-4],[-2,1],[-3,-6],[2,-7],[-1,-4],[-3,-4],[-5,1],[-1,-3],[-2,-1],[-2,4],[-3,-3],[-1,-2],[-3,0],[-1,-3],[-2,1],[-1,4],[-3,0],[-1,3],[-2,0],[1,3],[-1,2],[-5,3],[-4,4],[-3,0],[-2,-5],[-4,0],[-1,3],[-5,1],[-2,2],[-3,-1],[-3,0],[1,3],[1,2],[2,5],[-3,1],[-1,2],[-3,0],[-2,-2],[0,5],[-3,-1],[-3,1],[-3,-2],[-3,-1],[-2,-4],[-1,-2],[-5,-3],[-2,-4],[-2,-4],[-2,-7],[-3,-4],[-1,-3],[-2,-8],[-2,0],[-2,-6],[-1,-4],[1,-6],[-3,-1],[-3,5],[-1,8],[2,6],[1,11],[-1,5],[0,4],[-2,3],[-2,1],[-1,2],[-3,-4],[-2,0],[-2,-3],[-7,-2],[-1,-2],[1,-3],[-2,2],[-2,-1],[-4,2],[-1,-4],[-3,-2],[-3,0],[-1,2],[-4,-2],[0,3],[-3,-2],[-4,0],[-2,5],[-3,2],[-2,1],[-2,3],[-1,0],[-2,4],[-1,1],[-1,-1],[-3,1],[0,-7],[-3,-4],[-4,4],[-2,1],[-2,9],[-2,-4],[1,-9],[-1,-2],[-2,0],[-1,5],[-1,3],[-2,7],[-3,3],[-2,6],[-2,-3],[-1,1],[-4,1],[-2,-2],[-2,1],[-5,3],[0,6],[1,5],[1,4],[-3,3],[-4,-6],[-3,1],[-1,2],[-3,1],[1,3],[-3,2],[-4,2],[-1,4],[-2,4],[-1,1],[-2,2],[-1,1],[1,5],[-2,2],[-1,5],[1,3],[-2,3],[-3,1],[-1,2],[-4,-4],[-2,0],[-2,-4],[-2,0],[-2,2],[0,5],[-2,1],[-2,7],[-1,4],[-2,-1],[0,5],[-3,4],[-3,0],[-2,2],[-2,1],[-2,-1],[-4,7],[0,2],[-2,1],[-2,5],[-2,1],[-2,4],[-5,3],[-2,0],[0,4],[0,3],[-1,2],[0,6],[-4,0],[-1,2],[-2,1],[-2,-1],[-5,3],[-3,-4],[-3,2],[0,-8],[-1,-4],[-2,-2],[0,-3],[-2,-4],[-3,1],[-1,3],[-2,7],[0,3],[-6,4],[-1,4],[-5,4],[-1,0],[-5,5],[-2,1],[-3,6],[2,3],[-2,4],[-3,0],[-1,3],[-3,3],[-2,4],[-3,1],[-6,-2],[-1,4],[-2,1],[-1,4],[-2,3],[-2,10],[-3,6],[-1,2],[-3,-7],[-1,-4],[-1,0],[-3,1],[-2,2],[1,7],[-2,3],[4,6],[-3,3],[-1,6],[0,3],[2,9],[-3,4],[-4,10],[-1,1],[0,3],[-1,6],[0,2],[-1,6],[1,2],[5,1],[3,3],[1,-10],[4,-6],[1,0],[4,2],[1,5],[5,3],[1,4],[3,-4],[5,12],[-6,14],[-1,8],[1,2],[1,6],[-1,1],[-4,1],[-5,0],[-3,3],[-4,7],[-1,5],[0,11],[-1,7],[-1,7],[0,5],[5,5],[2,3],[0,4],[0,3]],[[8372,8253],[5,-4],[3,-7],[2,-2],[1,-4],[-4,-6],[-5,-8],[-9,-10],[1,-2],[3,-2],[5,-5],[6,-3],[3,-7],[3,-1],[3,2],[2,4],[2,7],[4,-2],[5,-9],[2,-1],[4,-1],[2,-3],[-4,-4],[0,-2],[3,-14],[0,-3],[-1,-6],[3,-8],[0,-3],[4,-7],[3,-4],[3,0],[2,-3],[5,0],[4,-4],[2,0],[4,2],[0,3],[2,2],[4,-1],[4,2],[5,-3],[5,4],[4,-1],[4,2],[4,4],[0,3],[3,2],[0,4],[2,1],[6,-2],[4,-4],[2,-7],[2,-3],[2,-5],[4,-2],[1,-4],[3,-2],[2,-7],[-2,-5],[-5,-8],[0,-11],[-5,-7],[-3,-3],[-1,-5],[-1,-1],[-1,-6],[-4,-5],[-1,-3],[2,-2],[-3,-4],[1,-6],[-1,-10],[-2,-2],[3,-5],[-1,-2],[2,-4],[-1,-13],[-2,-4],[-8,2],[-2,-7],[-3,-12],[-2,-6],[0,-5],[-2,-5],[0,-6],[-1,-6],[1,-3],[0,-4],[-1,-7],[-3,3],[0,5],[-2,4],[-1,9],[-2,3],[-4,-5],[-10,-15],[-4,-8],[-3,-3],[-5,-3],[-2,-8],[-4,-3],[-8,-7],[-6,-6],[-2,-7],[-3,-5],[3,-5],[2,-6],[2,-3],[4,-3],[6,-11],[2,-2],[3,-2],[4,4],[1,4],[3,-2],[0,-3],[4,1],[0,-4],[-2,-4],[-4,-6],[-3,0],[-6,2],[-2,-1],[0,-12],[4,-11]],[[8420,7844],[-2,-6],[-8,-1],[0,-10],[0,-7],[-2,-5],[-2,1],[-4,6],[-1,4],[-2,3],[-3,-7],[-1,-1],[-7,10],[-4,1],[-2,0],[1,-5],[-2,-7],[-2,-3],[0,-2],[3,-2],[4,1],[2,-3],[-1,-4],[2,-5],[3,-2],[2,-5],[1,-4],[-2,-5],[-4,-3],[-1,-2],[1,-11],[0,-5],[0,-8],[2,-5],[5,-11],[-1,-10],[4,-2],[9,7],[3,3],[4,3],[2,4],[2,-1],[0,-5],[2,-2],[2,-10],[3,-3],[-1,-6],[2,-9],[2,-7],[1,-4],[0,-3],[-1,-3],[-3,-3],[0,-5],[7,-5],[2,-1]],[[8435,7679],[-2,-15],[-7,-4],[-2,0],[-3,-4],[-2,-7],[-2,-2],[-2,0],[-2,-3],[-5,0],[-7,6],[-2,1],[-1,-4],[2,-4],[-1,-4],[-3,-1],[-3,3],[-4,2],[-2,-2],[-1,-2],[-1,-6],[-5,-5],[-2,0],[-3,4],[-4,-2],[-10,-14],[-3,3],[-5,-4],[-3,-4],[-3,-1],[-1,-6],[-4,-5],[-2,-4],[-4,-6],[-1,-4],[-2,1],[0,7],[-2,7],[-1,1],[-1,4],[-2,3],[1,5],[-4,2],[-2,1],[-2,7],[-1,1],[-2,-4],[-3,-2],[-2,-6],[3,-5],[0,-5],[-1,-3],[0,-5],[-1,-5],[0,-7],[2,-3],[1,-8],[-1,-6],[-4,-5]],[[8311,7560],[-2,2],[-8,1],[-2,3],[-2,-2],[-7,0],[-3,-2],[-1,8],[-1,0],[1,7],[-2,1],[-3,7],[2,5],[2,-3],[1,7],[-1,2],[0,3],[-1,7],[-3,-3],[-2,9],[-2,2],[1,4],[0,5],[-3,4],[-4,7],[-1,1],[-4,-2],[-1,3],[-3,-3],[-1,-5],[-5,1],[-5,-1],[-5,-4],[-2,-5],[2,-5],[-1,-6],[1,-3],[-1,-2],[-5,-5],[-2,-1],[-2,3],[-2,-2],[-2,4],[-3,-3],[-2,-4],[-2,-1],[-3,-4],[-2,7],[-3,0],[-9,-9],[-5,-3],[-1,-1],[1,-4],[-2,0],[-1,-2],[-4,1],[-5,0],[-1,12],[2,1],[-1,6],[-2,8],[1,3],[-2,3],[-1,-3],[-5,1],[-3,-4],[-1,-7],[-3,-3],[-2,-3],[-1,-5],[-1,-10],[-1,-2],[-3,-2],[-3,-6],[-1,-7],[2,-3],[0,-5],[-2,0],[0,-3],[0,-5],[3,-6],[2,-6],[2,-4]],[[8170,7529],[-2,-3],[-1,-3],[1,-5],[-1,-4],[-4,-1],[-2,-2],[-4,0],[-5,-5],[-5,-1],[-1,0],[-2,5],[-4,0],[-3,-3],[-3,-8],[-3,-3],[-4,4],[-6,3],[-3,-4],[-3,-9],[-2,-3],[-3,-10],[-1,-4],[-1,-5],[-2,-3],[-2,-2],[-3,2],[-5,1],[-2,-1],[0,-6],[-2,-5],[-4,-1],[-2,-2]],[[8086,7451],[-2,2],[2,8],[-3,0],[-5,-6],[-3,-7],[-1,-4],[-2,0],[-3,6],[-1,0],[-4,-3],[-2,2],[-1,4],[-3,0],[2,-8],[-6,-6],[-4,-5],[0,-2],[-4,-3],[-1,-6],[-2,-3],[-1,-4],[-3,-1],[-3,-8],[-5,-5],[0,-2],[-3,-5],[-1,-5],[-1,-7],[2,-6],[-1,-7],[-1,-3],[-2,0],[-1,3],[-2,-2],[0,-10],[-1,-5],[-3,-1],[-4,0],[-5,-2],[-2,0],[-6,0],[-1,1],[0,4],[-3,5],[-5,1],[-1,2]],[[7990,7363],[-7,4],[-1,3],[-2,5],[-4,4],[-3,-1],[-6,2],[-4,3],[-3,2],[-3,3],[5,10],[1,10],[7,16],[1,7],[-2,2],[-3,7],[0,6],[0,3],[-5,0],[-4,-4],[-4,1],[-2,-2],[1,-6],[-2,-2],[-3,0],[-2,-9],[-1,-5],[-3,-9],[-2,-9],[0,-13],[0,-2],[0,-5],[-1,-1],[-1,-4],[2,-8],[-1,-11],[-4,-4],[-3,-1],[-5,2],[-3,-2],[-5,-3],[-2,-5],[-2,-2],[-8,-2],[-3,1],[-3,-2],[-2,-5]],[[7898,7337],[-3,-1],[-4,4],[-7,10],[-5,8],[-7,4],[-1,9],[0,6],[4,2],[0,1],[-1,10],[-1,4],[0,2],[9,9],[3,3],[3,7],[1,6],[4,5],[1,8],[-4,12],[0,6],[-1,2],[-8,-1],[-8,-4],[-5,-3],[-6,-7],[-3,-3],[-3,0],[-7,3],[-3,3],[-3,0],[-10,-6],[-4,-2],[-1,-2],[5,-9],[0,-3],[-5,-9],[-5,0],[-2,0],[-5,3],[-2,1],[0,4],[-2,2],[-1,4],[0,4],[-1,1],[-2,-2],[-2,1],[-4,6],[-1,3],[-1,13],[-1,1],[-7,0],[-1,1],[-1,4],[-3,1],[-1,2],[-1,5],[-3,4],[-4,2],[-5,4],[-3,3],[-2,1],[-7,0],[3,7],[3,4],[7,8],[2,4],[1,7],[4,7],[2,6],[-1,7],[-3,7],[-2,2],[-6,1],[-3,-1],[-5,-3],[-9,-1],[-10,-6],[-5,-9],[-3,-2],[-8,-1],[0,1],[3,19],[-1,3],[-3,2],[-5,8],[-2,2],[-3,5],[-4,8],[-1,6],[1,3],[4,7],[-18,67]],[[7699,7647],[18,-4],[23,-4],[22,-5],[5,2],[9,4],[1,0],[23,-5],[11,-3],[5,1],[6,-2],[3,-3],[4,-11],[5,-5],[28,-10],[18,-14],[0,-1],[22,7],[0,-12],[3,-1],[8,0],[2,-3],[1,0],[5,9],[3,0],[3,4],[13,10],[25,17],[12,3],[24,6],[3,1],[4,-2],[6,0],[7,-2],[6,3],[7,-1],[6,1],[6,6],[6,5],[5,0],[2,3],[7,5],[1,4],[5,6],[2,6],[3,6],[4,8],[4,4],[7,4],[2,3],[3,0],[2,2],[4,8],[3,0],[2,2],[1,5],[-3,9],[-2,3],[-4,4],[-3,7],[-1,7],[-2,3],[0,4],[4,10],[0,6],[5,15],[3,4],[4,3],[3,-1],[8,0],[2,-1],[4,-8],[4,-3],[10,-4],[10,-1],[2,-1],[3,0],[7,9],[4,2],[3,6],[7,9],[2,3],[2,7],[5,3],[6,-3],[5,1],[6,0],[8,3],[11,13],[2,0],[2,2],[2,5],[-1,6],[4,12],[5,7],[2,4],[3,2],[3,3],[4,-1],[10,-1],[1,2],[0,4],[1,3],[0,4],[5,1],[2,-3],[2,-2],[2,1],[3,4],[3,2],[2,2],[5,3],[2,0],[3,-1],[3,-1],[2,1],[3,-1],[3,4],[2,-2],[2,1],[2,-4],[8,-3],[3,1],[5,-1],[2,-1],[4,3],[2,4],[-1,2],[1,5],[-2,6],[-2,3],[0,6],[-2,4],[-3,4],[-2,1],[-1,3],[-4,6],[-1,4],[-4,2],[-1,2],[-1,6],[-9,6],[-1,2],[-5,10],[-2,1],[-5,1],[-3,2],[-6,-2],[-4,0],[-2,-1],[-6,-11],[-3,-4],[-2,-4],[-1,0],[-7,9],[-6,4],[-3,0],[-7,-2],[-7,1],[-4,-3],[-3,-6],[-4,0],[-7,10],[-1,3],[-1,11],[1,2],[6,4],[1,3],[-1,11],[1,4],[6,13],[0,6],[6,18],[12,37],[11,-9],[5,-3],[6,0],[8,-6],[3,0],[1,2],[8,7],[6,9],[2,1],[1,3],[4,4],[2,-1],[5,2],[5,0],[4,2],[3,4],[1,15],[-3,0],[-3,2],[2,4],[2,9],[4,5],[2,3],[0,9],[5,7],[2,4],[1,5],[-1,1],[1,5],[3,3],[2,6],[0,3],[2,4],[2,6],[1,0],[4,6],[5,6],[4,2],[2,4],[0,5],[2,3],[0,7],[-3,4],[-1,2],[2,6],[1,6],[-9,5],[-7,-3],[-3,1],[-1,9],[7,6],[5,8],[6,7],[1,4],[5,5],[5,1],[4,-1],[4,3],[2,-1]],[[7676,7643],[23,4]],[[7898,7337],[3,2],[6,-2],[1,-4],[-3,-5],[3,-2],[1,2],[3,-2],[2,-7],[2,-3],[2,-1],[3,-3],[1,-3],[2,-6],[1,-2],[-3,-2],[0,-3],[1,-8],[3,-8],[1,-2],[1,-7],[0,-9],[-2,-3],[-1,-3],[0,-4],[3,-10],[4,-3],[4,1],[-1,-4],[4,-9],[3,2],[3,-3],[2,-3],[3,-2],[2,-7],[2,-1],[3,4],[0,9],[-2,4],[2,0],[-1,4],[0,5],[1,1],[3,0],[5,-1],[2,2],[2,3],[-2,5],[2,2],[1,9],[-4,8],[-2,0],[-4,4],[-3,-1],[0,3],[1,3],[-1,4],[-1,5],[1,2],[1,9],[2,1],[2,6],[-2,6],[1,3],[0,4],[1,7],[1,1],[3,-1],[1,-2],[3,-2],[3,0],[4,0],[2,-3]],[[7979,7317],[1,-9],[5,-1],[2,-3],[4,-1],[1,-2],[4,-2],[2,-5],[2,0],[0,-4],[4,-1],[2,0],[3,-2],[2,-5],[3,0],[2,-1],[3,-4],[-2,-8],[2,-6],[-1,-7],[-5,-7],[1,-6],[-1,-4],[1,-6],[2,-3],[0,-9],[-2,-6],[-1,-1],[-4,0],[-2,-1],[-3,2],[-5,-4],[-2,3],[-5,3],[0,-4],[-2,-2],[3,-8],[1,-3],[0,-3],[-3,-1],[-4,0],[-2,-2],[-5,1],[-3,-3],[-3,5],[-1,4],[-4,2],[-4,1],[-6,-1],[-2,-3],[1,-6],[1,-4],[-2,-7],[-2,-3],[-3,-6],[2,-3],[3,0],[4,-4],[1,-4],[1,-5],[-1,-3],[-3,2],[1,-8],[-2,-2],[-1,-4],[-1,-6],[-1,-2],[2,-2],[-1,-4],[1,-5],[2,-3],[0,-3],[-2,-4],[-2,5],[-3,-1],[-4,-2],[-2,3],[-3,-1],[-1,-3],[-3,-3],[-1,-5],[-2,-1],[1,-6],[2,-3],[2,0],[0,-5],[0,-7],[0,-3],[-3,-2],[-2,-2],[-2,-1],[-4,1]],[[7930,7078],[-2,0],[-1,-2],[0,-3],[1,-3],[-1,-3],[-4,-4],[-1,1],[-2,-3],[-2,-1],[-1,2],[-4,-1],[-2,1],[-5,1],[-2,2],[-5,7],[-3,2],[0,2],[1,4],[2,1],[0,6],[-2,4],[-1,8],[0,5],[-3,7],[-1,8],[-1,3],[-5,1],[-5,-1],[-2,2],[-4,0],[1,6],[-6,-3],[-2,0],[-3,4],[1,3],[-2,5],[1,8],[-1,3],[-4,3],[-2,5],[-4,-1],[-2,-4],[-3,-3],[1,-4],[-5,-2],[-2,-5],[-2,1],[-4,-3],[5,-12],[0,-4],[0,-3],[4,-4],[0,-4],[-3,-3],[-3,-2],[-1,-3],[-3,-2],[-1,-4],[-2,0],[-4,-6],[-1,9],[1,3],[1,5],[-1,8],[-1,3],[-2,-4]],[[7826,7114],[-2,-2],[-2,1],[-1,6],[-2,5],[-3,-4],[-3,0],[-2,2],[-2,-1],[0,6],[-1,5],[-3,2],[-2,3],[-1,5],[-3,8],[0,3],[1,5],[3,5],[3,-3],[6,-2],[2,-2],[8,-4],[1,-3],[2,-2],[1,-2],[3,4],[2,-1],[2,3],[2,5],[2,2],[1,3],[-1,8],[-2,2],[-2,1],[-2,3],[-1,4],[-3,-2],[-1,4],[4,5],[0,3],[3,6],[3,2],[2,3],[2,2],[3,8],[-2,4],[0,8],[3,1],[3,6],[5,0],[1,5],[-2,8],[1,5],[4,1],[4,-2],[0,7],[0,2],[-2,4],[0,2],[3,7],[-4,6],[-2,1],[-1,10],[-2,6],[-2,3],[0,4],[1,1],[0,3],[-3,6],[-3,3],[1,8],[2,1],[0,3],[-4,7],[-2,1],[-3,4],[-3,2],[-3,4],[1,4],[-2,4],[0,6],[-1,1],[-3,-8],[-1,-3],[-1,-1],[-2,4],[-1,1],[-10,11],[-7,9],[-11,8],[-1,1],[-2,8],[-1,2],[-4,1],[-3,5],[-3,5],[-1,0],[-1,-5],[2,-5],[-2,-2],[-2,2],[-6,3],[-6,9],[-2,5],[-11,16],[0,4],[-4,2],[-1,3],[-4,2],[-5,-7],[-4,0],[-2,3],[-2,1],[-1,-5],[-6,-8],[-1,2],[-9,9],[-1,1],[-8,8],[-7,3],[-3,0],[-1,-5],[0,-7],[0,-7],[0,-7],[-1,-6],[1,-4],[-1,-12],[-3,0],[-9,6],[0,5],[-3,2],[-2,2],[-4,1],[-4,2],[-1,4],[-3,2],[-3,5],[-2,0],[-4,9],[-3,1],[-4,8],[-3,-1],[-4,-1],[-2,1],[-2,2],[-6,2],[-2,4],[-4,1],[-10,0],[-6,-2],[-5,1],[-3,-1],[-3,-1],[-3,-3],[-4,-1],[-4,0],[-2,-3],[-3,0]],[[7752,6866],[0,-8],[1,-7],[-1,-6],[0,-9],[2,-6],[0,-7],[0,-3],[3,-9],[3,-5],[1,4],[-1,4],[0,12],[3,3],[1,5],[3,8],[2,2],[1,-6],[2,-4],[1,-4],[2,-2],[2,-7],[2,-4],[2,-2],[1,-6],[-4,-3],[0,-2],[1,-5],[2,-6],[2,-4],[2,-2],[0,-4],[2,-2],[1,4],[2,1],[2,-1],[2,4],[1,-1],[6,-18],[0,-4],[2,-3],[2,-6],[0,-8],[5,0],[-1,-9],[0,-1],[5,-9],[1,-5],[4,-1],[0,-3],[-3,-8],[1,-2],[3,-2],[3,-9],[-2,-2],[0,-6],[3,1],[2,-3],[0,-4],[2,-4],[2,4],[6,-1],[1,3],[3,5],[3,2],[1,3],[3,1],[1,3],[2,-2],[-1,-5