{"type":"Topology","objects":{"subunits":{"type":"GeometryCollection","name":"FRA_subunits","crs":{"type":"name","properties":{"name":"urn:ogc:def:crs:OGC:1.3:CRS84"}},"geometries":[{"type":"MultiPolygon","properties":{"name":"Nord","fips":"FRB4","postal":null,"scalerank":3,"country":"FRA","latitude":50.403,"longitude":3.22709,"type":"Metropolitan département"},"id":"FR-59","arcs":[[[0,1,2,3]],[[4]]]},{"type":"Polygon","properties":{"name":"Ardennes","fips":"FRA4","postal":null,"scalerank":3,"country":"FRA","latitude":49.5403,"longitude":4.62417,"type":"Metropolitan département"},"id":"FR-08","arcs":[[5,6,7,8]]},{"type":"Polygon","properties":{"name":"Aisne","fips":"FRB6","postal":null,"scalerank":3,"country":"FRA","latitude":49.5667,"longitude":3.51554,"type":"Metropolitan département"},"id":"FR-02","arcs":[[9,-8,10,11,12,13,-1]]},{"type":"Polygon","properties":{"name":"Meuse","fips":"FRB2","postal":null,"scalerank":3,"country":"FRA","latitude":48.9505,"longitude":5.50884,"type":"Metropolitan département"},"id":"FR-55","arcs":[[14,15,16,17,18,-6]]},{"type":"Polygon","properties":{"name":"Meurthe-et-Moselle","fips":"FRB2","postal":null,"scalerank":3,"country":"FRA","latitude":48.7055,"longitude":6.27603,"type":"Metropolitan département"},"id":"FR-54","arcs":[[19,20,21,-16]]},{"type":"Polygon","properties":{"name":"Moselle","fips":"FRB2","postal":null,"scalerank":3,"country":"FRA","latitude":49.0845,"longitude":6.51862,"type":"Metropolitan département"},"id":"FR-57","arcs":[[22,-21,23]]},{"type":"Polygon","properties":{"name":"Alpes-Maritimes","fips":"FRB8","postal":null,"scalerank":3,"country":"FRA","latitude":43.8699,"longitude":7.18651,"type":"Metropolitan département"},"id":"FR-06","arcs":[[24,25,26]]},{"type":"Polygon","properties":{"name":"Alpes-de-Haute-Provence","fips":"FRB8","postal":null,"scalerank":3,"country":"FRA","latitude":44.0454,"longitude":6.24822,"type":"Metropolitan département"},"id":"FR-04","arcs":[[27,-26,28,29,30,31]]},{"type":"Polygon","properties":{"name":"Hautes-Alpes","fips":"FRB8","postal":null,"scalerank":3,"country":"FRA","latitude":44.6732,"longitude":6.37648,"type":"Metropolitan département"},"id":"FR-05","arcs":[[-32,32,33,34,35]]},{"type":"Polygon","properties":{"name":"Savoie","fips":"FRB9","postal":null,"scalerank":3,"country":"FRA","latitude":45.4832,"longitude":6.47098,"type":"Metropolitan département"},"id":"FR-73","arcs":[[-35,36,37,38,39]]},{"type":"Polygon","properties":{"name":"Haute-Savoie","fips":"FRB9","postal":null,"scalerank":3,"country":"FRA","latitude":46.0502,"longitude":6.51823,"type":"Metropolitan département"},"id":"FR-74","arcs":[[-39,40,41]]},{"type":"Polygon","properties":{"name":"Pyrénées-Atlantiques","fips":"FR97","postal":null,"scalerank":3,"country":"FRA","latitude":43.259,"longitude":-0.74999,"type":"Metropolitan département"},"id":"FR-64","arcs":[[42,43,44,45],[46],[47]]},{"type":"Polygon","properties":{"name":"Haute-Garonne","fips":"FRB3","postal":null,"scalerank":3,"country":"FRA","latitude":43.5457,"longitude":1.41673,"type":"Metropolitan département"},"id":"FR-31","arcs":[[48,49,50,51,52,53,54]]},{"type":"MultiPolygon","properties":{"name":"Hautes-Pyrénées","fips":"FRB3","postal":null,"scalerank":3,"country":"FRA","latitude":43.0599,"longitude":0.13923,"type":"Metropolitan département"},"id":"FR-65","arcs":[[[55,-45,56,-49]],[[-47]],[[-48]]]},{"type":"Polygon","properties":{"name":"Ariège","fips":"FRB3","postal":null,"scalerank":3,"country":"FRA","latitude":42.9046,"longitude":1.53654,"type":"Metropolitan département"},"id":"FR-09","arcs":[[-54,57,58,59]]},{"type":"Polygon","properties":{"name":"Pyrénées-Orientales","fips":"FRA9","postal":null,"scalerank":3,"country":"FRA","latitude":42.5738,"longitude":2.54908,"type":"Metropolitan département"},"id":"FR-66","arcs":[[-59,60,61]]},{"type":"Polygon","properties":{"name":"Bas-Rhin","fips":"FR96","postal":null,"scalerank":3,"country":"FRA","latitude":48.6179,"longitude":7.56628,"type":"Metropolitan département"},"id":"FR-67","arcs":[[62,63,64,-23]]},{"type":"Polygon","properties":{"name":"Haute-Rhin","fips":"FR96","postal":null,"scalerank":3,"country":"FRA","latitude":47.886,"longitude":7.25359,"type":"Metropolitan département"},"id":"FR-68","arcs":[[65,66,67,-64]]},{"type":"Polygon","properties":{"name":"Territoire de Belfort","fips":"FRA6","postal":null,"scalerank":3,"country":"FRA","latitude":47.6568,"longitude":6.93675,"type":"Metropolitan département"},"id":"FR-90","arcs":[[68,69,70,71,-67]]},{"type":"Polygon","properties":{"name":"Doubs","fips":"FRA6","postal":null,"scalerank":3,"country":"FRA","latitude":47.1584,"longitude":6.31895,"type":"Metropolitan département"},"id":"FR-25","arcs":[[72,73,74,-70]]},{"type":"Polygon","properties":{"name":"Ain","fips":"FRB9","postal":null,"scalerank":3,"country":"FRA","latitude":46.084,"longitude":5.37744,"type":"Metropolitan département"},"id":"FR-01","arcs":[[-41,-38,75,76,77,78,79]]},{"type":"Polygon","properties":{"name":"Jura","fips":"FRA6","postal":null,"scalerank":3,"country":"FRA","latitude":46.732,"longitude":5.72845,"type":"Metropolitan département"},"id":"FR-39","arcs":[[80,-79,81,82,83,-74]]},{"type":"MultiPolygon","properties":{"name":"Var","fips":"FRB8","postal":null,"scalerank":3,"country":"FRA","latitude":43.4095,"longitude":6.27103,"type":"Metropolitan département"},"id":"FR-83","arcs":[[[84,85,-29,-25]]]},{"type":"Polygon","properties":{"name":"Bouches-du-Rhône","fips":"FRB8","postal":null,"scalerank":3,"country":"FRA","latitude":43.5324,"longitude":5.40444,"type":"Metropolitan département"},"id":"FR-13","arcs":[[86,87,88,-86]]},{"type":"Polygon","properties":{"name":"Gard","fips":"FRA9","postal":null,"scalerank":3,"country":"FRA","latitude":43.9914,"longitude":4.18939,"type":"Metropolitan département"},"id":"FR-30","arcs":[[89,90,91,92,93,94,-88]]},{"type":"Polygon","properties":{"name":"Hérault","fips":"FRA9","postal":null,"scalerank":3,"country":"FRA","latitude":43.5524,"longitude":3.27316,"type":"Metropolitan département"},"id":"FR-34","arcs":[[95,96,97,98,-91]]},{"type":"Polygon","properties":{"name":"Aude","fips":"FRA9","postal":null,"scalerank":3,"country":"FRA","latitude":43.1004,"longitude":2.48157,"type":"Metropolitan département"},"id":"FR-11","arcs":[[99,-61,-58,-53,100,-97]]},{"type":"Polygon","properties":{"name":"Landes","fips":"FR97","postal":null,"scalerank":3,"country":"FRA","latitude":43.9644,"longitude":-0.792307,"type":"Metropolitan département"},"id":"FR-40","arcs":[[101,102,103,104,-43]]},{"type":"Polygon","properties":{"name":"Gironde","fips":"FR97","postal":null,"scalerank":3,"country":"FRA","latitude":44.7339,"longitude":-0.515546,"type":"Metropolitan département"},"id":"FR-33","arcs":[[105,106,107,108,-103]]},{"type":"MultiPolygon","properties":{"name":"Charente-Maritime","fips":"FRB7","postal":null,"scalerank":3,"country":"FRA","latitude":45.8441,"longitude":-0.714301,"type":"Metropolitan département"},"id":"FR-17","arcs":[[[109,110,111,112,113,-107]],[[114]],[[115]]]},{"type":"MultiPolygon","properties":{"name":"Vendée","fips":"FRA5","postal":null,"scalerank":3,"country":"FRA","latitude":46.6893,"longitude":-1.31827,"type":"Metropolitan département"},"id":"FR-85","arcs":[[[116,117,118,119,-111]],[[120]],[[121]]]},{"type":"Polygon","properties":{"name":"Loire-Atlantique","fips":"FRA5","postal":null,"scalerank":3,"country":"FRA","latitude":47.3637,"longitude":-1.6025,"type":"Metropolitan département"},"id":"FR-44","arcs":[[122,123,124,125,-118]]},{"type":"MultiPolygon","properties":{"name":"Morbihan","fips":"FRA2","postal":null,"scalerank":3,"country":"FRA","latitude":47.8699,"longitude":-2.89359,"type":"Metropolitan département"},"id":"FR-56","arcs":[[[126,127,128,129,-124]],[[130]]]},{"type":"MultiPolygon","properties":{"name":"Finistère","fips":"FRA2","postal":null,"scalerank":3,"country":"FRA","latitude":48.3309,"longitude":-3.92644,"type":"Metropolitan département"},"id":"FR-29","arcs":[[[131,132,-128]],[[133]]]},{"type":"Polygon","properties":{"name":"Côtes-d'Armor","fips":"FRA2","postal":null,"scalerank":3,"country":"FRA","latitude":48.4383,"longitude":-2.93239,"type":"Metropolitan département"},"id":"FR-22","arcs":[[134,135,-129,-133]]},{"type":"Polygon","properties":{"name":"Ille-et-Vilaine","fips":"FRA2","postal":null,"scalerank":3,"country":"FRA","latitude":48.1428,"longitude":-1.65623,"type":"Metropolitan département"},"id":"FR-35","arcs":[[136,137,138,139,-125,-130,-136]]},{"type":"Polygon","properties":{"name":"Manche","fips":"FR99","postal":null,"scalerank":3,"country":"FRA","latitude":49.1637,"longitude":-1.34727,"type":"Metropolitan département"},"id":"FR-50","arcs":[[140,141,142,143,-138]]},{"type":"Polygon","properties":{"name":"Calvados","fips":"FR99","postal":null,"scalerank":3,"country":"FRA","latitude":49.0601,"longitude":-0.288724,"type":"Metropolitan département"},"id":"FR-14","arcs":[[144,145,146,-142]]},{"type":"Polygon","properties":{"name":"Eure","fips":"FRA7","postal":null,"scalerank":3,"country":"FRA","latitude":49.0414,"longitude":0.92951,"type":"Metropolitan département"},"id":"FR-27","arcs":[[147,148,149,150,151,152,153,-146]]},{"type":"Polygon","properties":{"name":"Seine-Maritime","fips":"FRA7","postal":null,"scalerank":3,"country":"FRA","latitude":49.5936,"longitude":1.1513,"type":"Metropolitan département"},"id":"FR-76","arcs":[[154,155,156,-149]]},{"type":"Polygon","properties":{"name":"Somme","fips":"FRB6","postal":null,"scalerank":3,"country":"FRA","latitude":49.8757,"longitude":2.36029,"type":"Metropolitan département"},"id":"FR-80","arcs":[[157,158,-2,-14,159,-156]]},{"type":"Polygon","properties":{"name":"Pas-de-Calais","fips":"FRB4","postal":null,"scalerank":3,"country":"FRA","latitude":50.4661,"longitude":2.3614,"type":"Metropolitan département"},"id":"FR-62","arcs":[[160,-3,-159],[-5]]},{"type":"MultiPolygon","properties":{"name":"Haute-Corse","fips":"FR14","postal":null,"scalerank":3,"country":"FRA","latitude":42.3996,"longitude":9.2309,"type":"Metropolitan département"},"id":"FR-2B","arcs":[[[161,162]]]},{"type":"Polygon","properties":{"name":"Corse-du-Sud","fips":"FR14","postal":null,"scalerank":3,"country":"FRA","latitude":41.8449,"longitude":9.02252,"type":"Metropolitan département"},"id":"FR-2A","arcs":[[163,-163]]},{"type":"Polygon","properties":{"name":"Gers","fips":"FRB3","postal":null,"scalerank":3,"country":"FRA","latitude":43.6809,"longitude":0.537496,"type":"Metropolitan département"},"id":"FR-32","arcs":[[-57,-44,-105,164,165,-50]]},{"type":"Polygon","properties":{"name":"Haute-Vienne","fips":"FRB1","postal":null,"scalerank":3,"country":"FRA","latitude":45.8465,"longitude":1.21857,"type":"Metropolitan département"},"id":"FR-87","arcs":[[166,167,168,169,170,171]]},{"type":"Polygon","properties":{"name":"Corrèze","fips":"FRB1","postal":null,"scalerank":3,"country":"FRA","latitude":45.355,"longitude":1.90105,"type":"Metropolitan département"},"id":"FR-19","arcs":[[-167,172,173,174,175,176]]},{"type":"Polygon","properties":{"name":"Tarn-et-Garonne","fips":"FRB3","postal":null,"scalerank":3,"country":"FRA","latitude":44.0657,"longitude":1.23277,"type":"Metropolitan département"},"id":"FR-82","arcs":[[177,-51,-166,178,179,180]]},{"type":"Polygon","properties":{"name":"Tarn","fips":"FRB3","postal":null,"scalerank":3,"country":"FRA","latitude":43.8024,"longitude":2.13731,"type":"Metropolitan département"},"id":"FR-81","arcs":[[-178,181,-98,-101,-52]]},{"type":"Polygon","properties":{"name":"Isère","fips":"FRB9","postal":null,"scalerank":3,"country":"FRA","latitude":45.2478,"longitude":5.4175,"type":"Metropolitan département"},"id":"FR-38","arcs":[[182,183,184,-76,-37,-34,185]]},{"type":"Polygon","properties":{"name":"Drôme","fips":"FRB9","postal":null,"scalerank":3,"country":"FRA","latitude":44.7407,"longitude":5.13443,"type":"Metropolitan département"},"id":"FR-26","arcs":[[-186,-33,-31,186,187],[188]]},{"type":"Polygon","properties":{"name":"Aveyron","fips":"FRB3","postal":null,"scalerank":3,"country":"FRA","latitude":44.2884,"longitude":2.66383,"type":"Metropolitan département"},"id":"FR-12","arcs":[[189,190,-92,-99,-182,-181,191]]},{"type":"Polygon","properties":{"name":"Lot","fips":"FRB3","postal":null,"scalerank":3,"country":"FRA","latitude":44.6327,"longitude":1.61079,"type":"Metropolitan département"},"id":"FR-46","arcs":[[-192,-180,192,193,-176,194]]},{"type":"Polygon","properties":{"name":"Indre-et-Loire","fips":"FRA3","postal":null,"scalerank":3,"country":"FRA","latitude":47.2903,"longitude":0.713649,"type":"Metropolitan département"},"id":"FR-37","arcs":[[195,196,197,198,199]]},{"type":"Polygon","properties":{"name":"Indre","fips":"FRA3","postal":null,"scalerank":3,"country":"FRA","latitude":46.8003,"longitude":1.61636,"type":"Metropolitan département"},"id":"FR-36","arcs":[[-196,200,201,202,-171,203]]},{"type":"Polygon","properties":{"name":"Loir-et-Cher","fips":"FRA3","postal":null,"scalerank":3,"country":"FRA","latitude":47.5484,"longitude":1.59234,"type":"Metropolitan département"},"id":"FR-41","arcs":[[-201,-200,204,205,206,207]]},{"type":"Polygon","properties":{"name":"Creuse","fips":"FRB1","postal":null,"scalerank":3,"country":"FRA","latitude":46.0705,"longitude":2.04281,"type":"Metropolitan département"},"id":"FR-23","arcs":[[-173,-172,-203,208,209,210]]},{"type":"Polygon","properties":{"name":"Mayenne","fips":"FRA5","postal":null,"scalerank":3,"country":"FRA","latitude":48.1562,"longitude":-0.635312,"type":"Metropolitan département"},"id":"FR-53","arcs":[[211,-139,-144,212,213]]},{"type":"Polygon","properties":{"name":"Sarthe","fips":"FRA5","postal":null,"scalerank":3,"country":"FRA","latitude":47.9682,"longitude":0.170679,"type":"Metropolitan département"},"id":"FR-72","arcs":[[-214,214,215,-205,-199,216]]},{"type":"MultiPolygon","properties":{"name":"Vaucluse","fips":"FRB8","postal":null,"scalerank":3,"country":"FRA","latitude":43.9981,"longitude":5.21543,"type":"Metropolitan département"},"id":"FR-84","arcs":[[[-89,-95,217,-187,-30]],[[-189]]]},{"type":"Polygon","properties":{"name":"Haute-Marne","fips":"FRA4","postal":null,"scalerank":3,"country":"FRA","latitude":48.1552,"longitude":5.24076,"type":"Metropolitan département"},"id":"FR-52","arcs":[[-18,218,219,220,221,222]]},{"type":"Polygon","properties":{"name":"Marne","fips":"FRA4","postal":null,"scalerank":3,"country":"FRA","latitude":49.022,"longitude":4.26395,"type":"Metropolitan département"},"id":"FR-51","arcs":[[-223,223,224,-11,-7,-19]]},{"type":"Polygon","properties":{"name":"Dordogne","fips":"FR97","postal":null,"scalerank":3,"country":"FRA","latitude":45.1592,"longitude":0.780505,"type":"Metropolitan département"},"id":"FR-24","arcs":[[-108,-114,225,-168,-177,-194,226]]},{"type":"Polygon","properties":{"name":"Rhône","fips":"FRB9","postal":null,"scalerank":3,"country":"FRA","latitude":45.841,"longitude":4.64841,"type":"Metropolitan département"},"id":"FR-69","arcs":[[-77,-185,227,228]]},{"type":"Polygon","properties":{"name":"Vosges","fips":"FRB2","postal":null,"scalerank":3,"country":"FRA","latitude":48.2445,"longitude":6.67053,"type":"Metropolitan département"},"id":"FR-88","arcs":[[-22,-65,-68,-72,229,-219,-17]]},{"type":"Polygon","properties":{"name":"Ardèche","fips":"FRB9","postal":null,"scalerank":3,"country":"FRA","latitude":44.8014,"longitude":4.4999,"type":"Metropolitan département"},"id":"FR-07","arcs":[[-188,-218,-94,230,231,232,-183]]},{"type":"Polygon","properties":{"name":"Loire","fips":"FRB9","postal":null,"scalerank":3,"country":"FRA","latitude":45.706,"longitude":4.16239,"type":"Metropolitan département"},"id":"FR-42","arcs":[[-184,-233,233,234,235,236,-228]]},{"type":"Polygon","properties":{"name":"Puy-de-Dôme","fips":"FR98","postal":null,"scalerank":3,"country":"FRA","latitude":45.8135,"longitude":3.26844,"type":"Metropolitan département"},"id":"FR-63","arcs":[[-235,237,238,-174,-211,239]]},{"type":"Polygon","properties":{"name":"Allier","fips":"FR98","postal":null,"scalerank":3,"country":"FRA","latitude":46.408,"longitude":3.18698,"type":"Metropolitan département"},"id":"FR-03","arcs":[[-240,-210,240,241,242,-236]]},{"type":"Polygon","properties":{"name":"Loiret","fips":"FRA3","postal":null,"scalerank":3,"country":"FRA","latitude":47.9007,"longitude":2.19238,"type":"Metropolitan département"},"id":"FR-45","arcs":[[-207,243,244,245,246,247,248]]},{"type":"Polygon","properties":{"name":"Maine-et-Loire","fips":"FRA5","postal":null,"scalerank":3,"country":"FRA","latitude":47.3771,"longitude":-0.527847,"type":"Metropolitan département"},"id":"FR-49","arcs":[[-126,-140,-212,-217,-198,249,250,-119]]},{"type":"Polygon","properties":{"name":"Aube","fips":"FRA4","postal":null,"scalerank":3,"country":"FRA","latitude":48.3125,"longitude":4.16252,"type":"Metropolitan département"},"id":"FR-10","arcs":[[-224,-222,251,252,253]]},{"type":"Polygon","properties":{"name":"Paris","fips":"FRA8","postal":null,"scalerank":3,"country":"FRA","latitude":48.8594,"longitude":2.34347,"type":"Metropolitan département"},"id":"FR-75","arcs":[[254,255,256]]},{"type":"Polygon","properties":{"name":"Hauts-de-Seine","fips":"FRA8","postal":null,"scalerank":3,"country":"FRA","latitude":48.8557,"longitude":2.19706,"type":"Metropolitan département"},"id":"FR-92","arcs":[[-257,257,258,259,260,261]]},{"type":"Polygon","properties":{"name":"Seine-Saint-Denis","fips":"FRA8","postal":null,"scalerank":3,"country":"FRA","latitude":48.9289,"longitude":2.51916,"type":"Metropolitan département"},"id":"FR-93","arcs":[[-262,262,263,264,-255]]},{"type":"Polygon","properties":{"name":"Val-d'Oise","fips":"FRA8","postal":null,"scalerank":3,"country":"FRA","latitude":49.0754,"longitude":2.23366,"type":"Metropolitan département"},"id":"FR-95","arcs":[[-261,265,-151,266,267,-263]]},{"type":"Polygon","properties":{"name":"Yvelines","fips":"FRA8","postal":null,"scalerank":3,"country":"FRA","latitude":48.8191,"longitude":1.90058,"type":"Metropolitan département"},"id":"FR-78","arcs":[[-266,-260,268,269,-152]]},{"type":"Polygon","properties":{"name":"Charente","fips":"FRB7","postal":null,"scalerank":3,"country":"FRA","latitude":45.6998,"longitude":0.154828,"type":"Metropolitan département"},"id":"FR-16","arcs":[[-113,270,271,-169,-226]]},{"type":"Polygon","properties":{"name":"Cher","fips":"FRA3","postal":null,"scalerank":3,"country":"FRA","latitude":47.1356,"longitude":2.51907,"type":"Metropolitan département"},"id":"FR-18","arcs":[[-202,-208,-249,272,-241,-209]]},{"type":"Polygon","properties":{"name":"Eure-et-Loir","fips":"FRA3","postal":null,"scalerank":3,"country":"FRA","latitude":48.3564,"longitude":1.36704,"type":"Metropolitan département"},"id":"FR-28","arcs":[[-206,-216,273,-153,-270,274,-244]]},{"type":"Polygon","properties":{"name":"Haute-Loire","fips":"FR98","postal":null,"scalerank":3,"country":"FRA","latitude":45.1254,"longitude":3.72362,"type":"Metropolitan département"},"id":"FR-43","arcs":[[-238,-234,-232,275,276]]},{"type":"Polygon","properties":{"name":"Cantal","fips":"FR98","postal":null,"scalerank":3,"country":"FRA","latitude":45.1592,"longitude":2.74821,"type":"Metropolitan département"},"id":"FR-15","arcs":[[-277,277,-190,-195,-175,-239]]},{"type":"Polygon","properties":{"name":"Lot-et-Garonne","fips":"FR97","postal":null,"scalerank":3,"country":"FRA","latitude":44.3829,"longitude":0.449742,"type":"Metropolitan département"},"id":"FR-47","arcs":[[-104,-109,-227,-193,-179,-165]]},{"type":"Polygon","properties":{"name":"Lozère","fips":"FRA9","postal":null,"scalerank":3,"country":"FRA","latitude":44.4909,"longitude":3.54811,"type":"Metropolitan département"},"id":"FR-48","arcs":[[-93,-191,-278,-276,-231]]},{"type":"Polygon","properties":{"name":"Nièvre","fips":"FRA1","postal":null,"scalerank":3,"country":"FRA","latitude":47.1505,"longitude":3.56837,"type":"Metropolitan département"},"id":"FR-58","arcs":[[278,279,-242,-273,-248,280]]},{"type":"Polygon","properties":{"name":"Côte-d'Or","fips":"FRA1","postal":null,"scalerank":3,"country":"FRA","latitude":47.4003,"longitude":4.76991,"type":"Metropolitan département"},"id":"FR-21","arcs":[[-279,281,-252,-221,282,-83,283]]},{"type":"Polygon","properties":{"name":"Oise","fips":"FRB6","postal":null,"scalerank":3,"country":"FRA","latitude":49.3967,"longitude":2.64323,"type":"Metropolitan département"},"id":"FR-60","arcs":[[-13,284,-267,-150,-157,-160]]},{"type":"Polygon","properties":{"name":"Orne","fips":"FR99","postal":null,"scalerank":3,"country":"FRA","latitude":48.6533,"longitude":0.0632139,"type":"Metropolitan département"},"id":"FR-61","arcs":[[-143,-147,-154,-274,-215,-213]]},{"type":"Polygon","properties":{"name":"Haute-Saône","fips":"FRA6","postal":null,"scalerank":3,"country":"FRA","latitude":47.6973,"longitude":6.16722,"type":"Metropolitan département"},"id":"FR-70","arcs":[[-84,-283,-220,-230,-71,-75]]},{"type":"Polygon","properties":{"name":"Saône-et-Loire","fips":"FRA1","postal":null,"scalerank":3,"country":"FRA","latitude":46.6789,"longitude":4.5138,"type":"Metropolitan département"},"id":"FR-71","arcs":[[-280,-284,-82,-78,-229,-237,-243]]},{"type":"Polygon","properties":{"name":"Deux-Sèvres","fips":"FRB7","postal":null,"scalerank":3,"country":"FRA","latitude":46.5681,"longitude":-0.300826,"type":"Metropolitan département"},"id":"FR-79","arcs":[[-112,-120,-251,285,-271]]},{"type":"Polygon","properties":{"name":"Vienne","fips":"FRB7","postal":null,"scalerank":3,"country":"FRA","latitude":46.5338,"longitude":0.412746,"type":"Metropolitan département"},"id":"FR-86","arcs":[[-272,-286,-250,-197,-204,-170]]},{"type":"Polygon","properties":{"name":"Yonne","fips":"FRA1","postal":null,"scalerank":3,"country":"FRA","latitude":47.7715,"longitude":3.64262,"type":"Metropolitan département"},"id":"FR-89","arcs":[[-281,-247,286,-253,-282]]},{"type":"Polygon","properties":{"name":"Essonne","fips":"FRA8","postal":null,"scalerank":3,"country":"FRA","latitude":48.5629,"longitude":2.29588,"type":"Metropolitan département"},"id":"FR-91","arcs":[[-269,-259,287,288,-245,-275]]},{"type":"Polygon","properties":{"name":"Seien-et-Marne","fips":"FRA8","postal":null,"scalerank":3,"country":"FRA","latitude":48.5515,"longitude":2.84201,"type":"Metropolitan département"},"id":"FR-77","arcs":[[-289,289,-264,-268,-285,-12,-225,-254,-287,-246]]},{"type":"Polygon","properties":{"name":"Val-de-Marne","fips":"FRA8","postal":null,"scalerank":3,"country":"FRA","latitude":48.7752,"longitude":2.5155,"type":"Metropolitan département"},"id":"FR-94","arcs":[[-265,-290,-288,-258,-256]]}]},"places":{"type":"GeometryCollection","name":"FRA_places","crs":{"type":"name","properties":{"name":"urn:ogc:def:crs:OGC:1.3:CRS84"}},"geometries":[{"type":"Point","properties":{"name":"Annecy","scalerank":8,"subregion":"Rhône-Alpes","latitude":45.899975,"longitude":6.11667},"id":"Q50189","coordinates":[76566,46638]},{"type":"Point","properties":{"name":"Roanne","scalerank":8,"subregion":"Rhône-Alpes","latitude":46.033326,"longitude":4.066666},"id":"Q3581","coordinates":[62613,48010]},{"type":"Point","properties":{"name":"St.-Brieuc","scalerank":8,"subregion":"Bretagne","latitude":48.516663,"longitude":-2.783303},"id":"Q29234","coordinates":[15991,73554]},{"type":"Point","properties":{"name":"Poitier","scalerank":8,"subregion":"Poitou-Charentes","latitude":46.583292,"longitude":0.333277},"id":"Q6616","coordinates":[37203,53667]},{"type":"Point","properties":{"name":"Angers","scalerank":8,"subregion":"Pays de la Loire","latitude":47.480008,"longitude":-0.53003},"id":"Q38380","coordinates":[31327,62891]},{"type":"Point","properties":{"name":"Biarritz","scalerank":8,"subregion":"Aquitaine","latitude":43.473275,"longitude":-1.561595},"id":"Q132790","coordinates":[24306,21677]},{"type":"Point","properties":{"name":"Aix-en-Provence","scalerank":8,"subregion":"Provence-Alpes-Côte-d'Azur","latitude":43.519991,"longitude":5.449993},"id":"Q47465","coordinates":[72028,22157]},{"type":"Point","properties":{"name":"Perpignan","scalerank":8,"subregion":"Languedoc-Roussillon","latitude":42.699989,"longitude":2.899967},"id":"Q6730","coordinates":[54672,13723]},{"type":"Point","properties":{"name":"Tarbes","scalerank":8,"subregion":"Midi-Pyrénées","latitude":43.23329,"longitude":0.083344},"id":"Q184023","coordinates":[35502,19208]},{"type":"Point","properties":{"name":"Clermont-Ferrand","scalerank":8,"subregion":"Auvergne","latitude":45.779982,"longitude":3.080008},"id":"Q42168","coordinates":[55898,45404]},{"type":"Point","properties":{"name":"Melun","scalerank":8,"subregion":"Île-de-France","latitude":48.533302,"longitude":2.666648},"id":"Q41139","coordinates":[53084,73725]},{"type":"Point","properties":{"name":"Arras","scalerank":8,"subregion":"Nord-Pas-de-Calais","latitude":50.283325,"longitude":2.783334},"id":"Q131329","coordinates":[53879,91727]},{"type":"Point","properties":{"name":"Besançon","scalerank":8,"subregion":"Franche-Comté","latitude":47.229997,"longitude":6.030009},"id":"Q37776","coordinates":[75976,60319]},{"type":"Point","properties":{"name":"Saint-Étienne","scalerank":7,"subregion":"Rhône-Alpes","latitude":45.430391,"longitude":4.380032},"id":"Q42716","coordinates":[64746,41808]},{"type":"Point","properties":{"name":"Grenoble","scalerank":7,"subregion":"Rhône-Alpes","latitude":45.180381,"longitude":5.720002},"id":"Q1289","coordinates":[73866,39237]},{"type":"Point","properties":{"name":"Cherbourg","scalerank":7,"subregion":"Basse-Normandie","latitude":49.650392,"longitude":-1.649987},"id":"Q160199","coordinates":[23705,85216]},{"type":"Point","properties":{"name":"Caen","scalerank":7,"subregion":"Basse-Normandie","latitude":49.183754,"longitude":-0.349989},"id":"Q41185","coordinates":[32553,80416]},{"type":"Point","properties":{"name":"Lorient","scalerank":7,"subregion":"Bretagne","latitude":47.750405,"longitude":-3.366575},"id":"Q71724","coordinates":[12021,65672]},{"type":"Point","properties":{"name":"Brest","scalerank":7,"subregion":"Bretagne","latitude":48.390443,"longitude":-4.495008},"id":"Q12193","coordinates":[4341,72256]},{"type":"Point","properties":{"name":"Le Mans","scalerank":7,"subregion":"Pays de la Loire","latitude":48.000415,"longitude":0.099983},"id":"Q1476","coordinates":[36314,68285]},{"type":"Point","properties":{"name":"Nantes","scalerank":7,"subregion":"Pays de la Loire","latitude":47.210386,"longitude":-1.590017},"id":"Q12191","coordinates":[24113,60118]},{"type":"Point","properties":{"name":"Agen","scalerank":7,"subregion":"Aquitaine","latitude":44.200414,"longitude":0.633336},"id":"Q6625","coordinates":[39245,29156]},{"type":"Point","properties":{"name":"Ajaccio","scalerank":7,"subregion":"Corse","latitude":41.927065,"longitude":8.728294},"id":"Q40104","coordinates":[94341,5772]},{"type":"Point","properties":{"name":"Bastia","scalerank":7,"subregion":"Corse","latitude":42.703167,"longitude":9.450007},"id":"Q134698","coordinates":[99253,13755]},{"type":"Point","properties":{"name":"Toulon","scalerank":7,"subregion":"Provence-Alpes-Côte-d'Azur","latitude":43.134187,"longitude":5.918822},"id":"Q44160","coordinates":[75219,18189]},{"type":"Point","properties":{"name":"Béziers","scalerank":7,"subregion":"Languedoc-Roussillon","latitude":43.350492,"longitude":3.209974},"id":"Q174019","coordinates":[56782,20414]},{"type":"Point","properties":{"name":"Montpellier","scalerank":7,"subregion":"Languedoc-Roussillon","latitude":43.610399,"longitude":3.869986},"id":"Q6441","coordinates":[61275,23087]},{"type":"Point","properties":{"name":"Nîmes","scalerank":7,"subregion":"Languedoc-Roussillon","latitude":43.830385,"longitude":4.350008},"id":"Q42807","coordinates":[64542,25350]},{"type":"Point","properties":{"name":"Vichy","scalerank":7,"subregion":"Auvergne","latitude":46.117145,"longitude":3.41668},"id":"Q93351","coordinates":[58189,48872]},{"type":"Point","properties":{"name":"Nevers","scalerank":7,"subregion":"Bourgogne","latitude":46.983733,"longitude":3.16667},"id":"Q166997","coordinates":[56488,57786]},{"type":"Point","properties":{"name":"Auxerre","scalerank":7,"subregion":"Bourgogne","latitude":47.800427,"longitude":3.566593},"id":"Q167600","coordinates":[59210,66187]},{"type":"Point","properties":{"name":"Dijon","scalerank":7,"subregion":"Bourgogne","latitude":47.330404,"longitude":5.030018},"id":"Q7003","coordinates":[69170,61352]},{"type":"Point","properties":{"name":"Bourges","scalerank":7,"subregion":"Centre","latitude":47.083727,"longitude":2.399998},"id":"Q132404","coordinates":[51270,58815]},{"type":"Point","properties":{"name":"Tours","scalerank":7,"subregion":"Centre","latitude":47.380375,"longitude":0.699947},"id":"Q288","coordinates":[39699,61866]},{"type":"Point","properties":{"name":"Orléans","scalerank":7,"subregion":"Centre","latitude":47.900421,"longitude":1.900028},"id":"Q6548","coordinates":[47867,67216]},{"type":"Point","properties":{"name":"Dieppe","scalerank":7,"subregion":"Haute-Normandie","latitude":49.933734,"longitude":1.083334},"id":"Q183557","coordinates":[42308,88131]},{"type":"Point","properties":{"name":"Rouen","scalerank":7,"subregion":"Haute-Normandie","latitude":49.430405,"longitude":1.079975},"id":"Q30974","coordinates":[42285,82953]},{"type":"Point","properties":{"name":"Versailles","scalerank":7,"subregion":"Île-de-France","latitude":48.80047,"longitude":2.133348},"id":"Q621","coordinates":[49455,76474]},{"type":"Point","properties":{"name":"Brive","scalerank":7,"subregion":"Limousin","latitude":45.150408,"longitude":1.533333},"id":"Q6393","coordinates":[45371,38928]},{"type":"Point","properties":{"name":"Troyes","scalerank":7,"subregion":"Champagne-Ardenne","latitude":48.340394,"longitude":4.083358},"id":"Q5489","coordinates":[62727,71741]},{"type":"Point","properties":{"name":"Reims","scalerank":7,"subregion":"Champagne-Ardenne","latitude":49.25039,"longitude":4.029976},"id":"Q41876","coordinates":[62364,81102]},{"type":"Point","properties":{"name":"Calais","scalerank":7,"subregion":"Nord-Pas-de-Calais","latitude":50.950416,"longitude":1.833314},"id":"Q6454","coordinates":[47413,98588]},{"type":"Point","properties":{"name":"Amiens","scalerank":7,"subregion":"Picardie","latitude":49.900377,"longitude":2.300004},"id":"Q41604","coordinates":[50589,87788]},{"type":"Point","properties":{"name":"Mulhouse","scalerank":7,"subregion":"Alsace","latitude":47.750405,"longitude":7.34998},"id":"Q79815","coordinates":[84960,65672]},{"type":"Point","properties":{"name":"Nancy","scalerank":7,"subregion":"Lorraine","latitude":48.683681,"longitude":6.200024},"id":"Q40898","coordinates":[77133,75272]},{"type":"Point","properties":{"name":"Metz","scalerank":7,"subregion":"Lorraine","latitude":49.120347,"longitude":6.180026},"id":"Q22690","coordinates":[76997,79764]},{"type":"Point","properties":{"name":"Rennes","scalerank":6,"subregion":"Bretagne","latitude":48.100021,"longitude":-1.670012},"id":"Q647","coordinates":[23568,69269]},{"type":"Point","properties":{"name":"Nice","scalerank":6,"subregion":"Provence-Alpes-Côte-d'Azur","latitude":43.716964,"longitude":7.263078},"id":"Q33959","coordinates":[84369,24183]},{"type":"Point","properties":{"name":"Toulouse","scalerank":6,"subregion":"Midi-Pyrénées","latitude":43.621905,"longitude":1.447981},"id":"Q7880","coordinates":[44790,23206]},{"type":"Point","properties":{"name":"Limoges","scalerank":6,"subregion":"Limousin","latitude":45.829979,"longitude":1.249991},"id":"Q45656","coordinates":[43442,45918]},{"type":"Point","properties":{"name":"Lille","scalerank":6,"subregion":"Nord-Pas-de-Calais","latitude":50.651915,"longitude":3.078062},"id":"Q648","coordinates":[55885,95518]},{"type":"Point","properties":{"name":"Strasbourg","scalerank":6,"subregion":"Alsace","latitude":48.579966,"longitude":7.750007},"id":"Q6602","coordinates":[87683,74205]},{"type":"Point","properties":{"name":"La Rochelle","scalerank":6,"subregion":"Poitou-Charentes","latitude":46.166651,"longitude":-1.149992},"id":"Q82185","coordinates":[27108,49382]},{"type":"Point","properties":{"name":"Bordeaux","scalerank":4,"subregion":"Aquitaine","latitude":44.851959,"longitude":-0.596959},"id":"Q1479","coordinates":[30872,35858]},{"type":"Point","properties":{"name":"Marseille","scalerank":4,"subregion":"Provence-Alpes-Côte-d'Azur","latitude":43.291925,"longitude":5.373064},"id":"Q23482","coordinates":[71505,19811]},{"type":"Point","properties":{"name":"Le Havre","scalerank":4,"subregion":"Haute-Normandie","latitude":49.504974,"longitude":0.10497},"id":"Q42810","coordinates":[35649,83720]},{"type":"Point","properties":{"name":"Lyon","scalerank":3,"subregion":"Rhône-Alpes","latitude":45.771954,"longitude":4.828085},"id":"Q456","coordinates":[67796,45322]},{"type":"Point","properties":{"name":"Paris","scalerank":0,"subregion":"Île-de-France","latitude":48.868639,"longitude":2.33139},"id":"Q90","coordinates":[50950,77066]}]}},"arcs":[[[63056,88555],[-917,176],[-238,520],[-516,-223],[-220,227],[-1162,167],[-365,-219],[-509,118],[-722,-351],[-1985,34]],[[56422,89004],[-468,323]],[[55954,89327],[257,1368],[295,426],[-235,379],[-783,63],[277,632],[-399,540],[365,462],[-475,774],[-1099,241],[-243,312],[154,567],[399,214],[-454,383],[-468,-432],[-1668,70],[-802,422],[-122,648],[272,345],[-1165,359],[-237,748],[-845,1398]],[[48978,99246],[1778,468],[408,-46],[935,331],[239,-888],[350,-412],[-214,-511],[88,-715],[694,-341],[646,-879],[771,-208],[486,563],[897,270],[292,-157],[569,-1167],[281,-1321],[494,-350],[812,269],[247,-332],[742,-106],[246,-319],[118,-1298],[239,-217],[304,462],[672,21],[379,-205],[863,132],[698,-833],[534,-53],[-316,-404],[-214,-869],[372,-10],[201,-690],[-495,-361],[-38,-515]],[[55491,90058],[-112,298],[401,245],[66,-443],[-355,-100]],[[71628,84788],[-606,-609],[-1370,144],[-201,-648],[290,-811],[-489,-922],[51,-538],[-482,-454]],[[68821,80950],[-261,194],[-709,-189],[-770,168],[-589,-180],[-581,534],[-935,-49],[-1479,1157],[-961,131]],[[62536,82716],[-84,824],[205,822],[-181,600],[484,237],[772,809],[-144,523],[259,785],[-218,1027]],[[63629,88343],[420,59],[1072,-287],[1508,585],[172,976],[726,714],[567,-140],[-569,-1702],[383,-438],[-52,-861],[143,-632],[626,101],[898,-449],[753,-719],[454,87],[274,-296],[-11,-507],[635,-46]],[[63056,88555],[573,-212]],[[62536,82716],[-59,-417],[-1148,146],[-191,-362],[-997,-219],[-363,-223],[202,-1000],[422,-271],[-267,-339],[-454,4],[-329,-1130],[533,-288],[-1049,-1195],[-230,-438]],[[58606,76984],[-403,28],[-424,740],[-248,-50],[-980,869],[-239,913],[-416,134]],[[55896,79618],[347,513],[-191,333],[-853,29],[-82,341],[310,615],[-307,328],[713,357],[204,701],[440,84],[-255,550],[34,843],[-169,760],[73,714]],[[56160,85786],[-160,654],[-260,93],[185,850],[742,1178],[-245,443]],[[71628,84788],[589,-1168]],[[72217,83620],[-80,-376],[299,-509],[910,274],[506,-550],[260,-957],[-229,-801],[253,-180],[3,-872],[337,30],[217,-581],[-156,-666],[169,-490],[-577,-377],[121,-343],[-110,-967],[-247,-506],[231,-1057],[-239,-409],[289,-935]],[[74174,73348],[-327,-347],[-1783,-449]],[[72064,72552],[-752,835],[-1074,427],[-1028,783],[-298,770]],[[68912,75367],[-64,588],[-446,387],[30,934],[551,529],[213,850],[-319,361],[-215,1210],[159,724]],[[72217,83620],[476,290],[372,-100],[288,310],[766,47],[732,-578],[432,-102]],[[75283,83487],[-4,-1154],[520,-792],[107,-626],[-226,-325],[198,-501],[-548,-699],[220,-437],[456,-220],[118,-401],[622,-479],[983,-34],[240,-229],[-167,-513],[498,-812],[420,91],[904,-382],[224,-372],[735,-490],[1099,-493],[695,-94],[804,-901]],[[83181,73624],[-231,-51],[-1138,-1019],[-546,-240],[-976,278],[-392,475],[-711,-563],[-1162,-85],[-319,324],[-186,-351],[-745,42],[-205,-478],[-956,-39],[-650,536],[141,728],[-246,195],[-685,-28]],[[86968,78899],[-491,-952],[-628,157],[-945,-160],[-343,308],[-922,332],[-525,561],[-282,-908],[-385,-430],[37,-323],[752,-475],[45,-617],[688,634],[679,-810],[63,-356],[-330,-575],[242,-301],[-204,-735],[-527,-521],[-711,-104]],[[75283,83487],[221,-421],[699,73],[495,482],[771,-51],[517,-346],[527,90],[625,-308],[543,-758],[-165,-245],[610,-688],[417,-1011],[736,-278],[166,655],[1198,-286],[75,-645],[441,232],[474,-279],[770,-90],[837,662],[579,-190],[304,-698],[845,-488]],[[82123,21750],[-370,385],[146,941],[-321,-30],[-530,501],[-175,855],[-572,148],[-198,373]],[[80103,24923],[466,228],[79,659],[564,336],[973,-108],[-572,599],[-269,527],[-416,314],[-83,644],[-343,548],[244,955],[464,745],[541,373]],[[81751,30743],[801,-1202],[254,53],[1483,-853],[881,-382],[1870,547],[-93,-334],[340,-606],[-415,-938],[-503,-508],[-539,-808],[167,-754],[-442,-503],[-441,25],[-286,-611],[-499,54],[-364,-486],[-355,107],[-173,-504],[87,-533],[-344,151],[-349,-333],[-419,110],[-289,-685]],[[82158,33863],[50,-335],[-676,-802],[-51,-458],[538,-685],[-277,-226],[9,-614]],[[80103,24923],[-132,182],[-1291,-131],[-496,-590],[-754,665],[-700,-654],[-888,-636],[-470,703],[-585,-191],[-522,337],[-169,-269]],[[74096,24339],[-619,823],[-364,236],[-440,-179],[282,1069],[-529,494],[199,939],[-239,26],[25,601]],[[72411,28348],[573,580],[577,-222],[25,350]],[[73586,29056],[859,206],[651,-111],[-528,788],[83,247],[538,-329],[-39,705],[321,601],[801,742],[418,46],[688,-899],[230,386],[-75,469],[725,688],[458,-578],[546,-301],[800,32],[365,908],[735,605],[996,602]],[[73586,29056],[-5,784],[-321,593],[-453,56],[-715,415],[-212,560],[438,-11],[-137,675],[780,-183],[485,434],[-341,433],[339,881],[919,138],[130,588]],[[74493,34419],[224,387],[868,279],[4,322],[1060,481],[1551,31],[88,556],[-302,901],[-668,74],[103,1016],[164,199]],[[77585,38665],[617,-175],[696,-558],[413,519],[745,201]],[[80056,38652],[-182,-207],[405,-763],[417,-163],[30,-871],[342,-423],[598,-329],[454,62],[506,-407],[-59,-291],[386,-1120],[-492,75],[-303,-352]],[[77585,38665],[-657,282],[-265,1121],[399,707],[-14,490],[-423,591],[-547,88],[-416,408],[-467,-70],[-30,-846],[-1052,464],[-1060,2225]],[[73053,44125],[408,15],[748,820],[476,2077]],[[74685,47037],[184,-165],[204,-1027],[492,-186],[229,-541],[909,71],[721,-745],[596,177],[256,686],[413,401],[569,999],[340,-218],[-138,-430],[414,-483],[320,-40],[419,-671],[494,385]],[[81107,45250],[403,-846],[819,-432],[-58,-561],[190,-772],[1211,-1031],[-464,-895],[108,-666],[-396,-454],[-623,-54],[-780,-820],[-733,281],[-728,-348]],[[74685,47037],[-103,1610],[316,-20],[594,382]],[[75492,49009],[472,180],[542,-96],[1180,1044],[-457,775],[595,813],[655,141],[580,416],[890,75],[1014,-274],[132,-523],[-216,-339],[526,-782],[-241,-491],[-122,-894],[542,-125],[-21,-751],[437,-11],[461,-547],[267,-721],[-360,-571],[-1146,-446],[-115,-632]],[[24630,22349],[499,-407],[844,99],[978,436],[129,-628],[497,338],[390,-217],[272,447],[408,-118],[843,346],[576,-205],[1042,-45],[612,481],[261,-379],[1345,350]],[[33326,22847],[862,-126]],[[34188,22721],[425,-541],[211,-649],[-223,-390],[395,8],[97,-852],[-345,-296],[2,-642],[-364,-776],[-754,-830],[44,-466],[-715,-606],[-176,-892],[73,-721]],[[32858,15068],[-120,121],[-689,-534],[-748,179],[-334,-125],[-445,555],[-556,285],[-202,709],[-707,-35],[-802,144],[-320,305],[-827,195],[-1350,899],[-237,-657],[-353,67],[-360,474],[423,550],[151,1112],[-1058,419],[-545,-292],[-237,498],[-500,-135],[-337,516],[19,461],[906,141],[437,441],[563,988]],[[34276,20180],[0,0]],[[34132,19355],[255,253],[-226,341],[-29,-594]],[[38113,13624],[-63,1398],[132,439],[496,-19],[646,923],[-266,768],[-509,-289],[217,724],[-825,589],[1182,1648],[-59,202]],[[39064,20007],[385,134],[855,923],[837,-66],[461,-446],[311,139],[67,1008],[248,635],[416,-7],[406,641],[-851,732],[-772,1207]],[[41427,24907],[1436,291],[553,-424],[764,483],[-400,303],[504,341],[538,-12],[701,366]],[[45523,26255],[168,-1070],[432,-225],[256,-846],[323,-543],[-280,-274],[1028,-647],[757,-884],[524,271],[178,-228],[-146,-654]],[[48763,21155],[-939,-297],[-299,306],[-263,-818],[-584,-285],[-155,-509]],[[46523,19552],[-376,-193],[-899,502],[-172,-721],[-334,-141],[-457,859],[-464,27],[67,-404],[391,-448],[-928,-323],[-81,-283],[445,-349],[-322,-356],[-719,671],[-563,-176],[-393,-434],[-30,-1074],[-719,-322],[-368,-770],[161,-734]],[[40762,14883],[-897,334],[-463,-70],[-156,-964],[69,-620],[-1202,61]],[[38113,13624],[-529,-54],[-239,333],[-536,-502],[-252,428],[-471,166],[-1416,-425],[-545,326],[-289,808],[-502,-94],[-476,458]],[[34188,22721],[707,349],[207,-753],[674,-315],[139,-952],[352,-419],[661,85],[396,-330],[1740,-379]],[[46523,19552],[75,-792],[417,-386],[1021,-365],[241,-490],[199,-1116],[-327,-262],[243,-734],[-614,-200],[-146,-292],[321,-610],[539,-259],[434,132],[695,-543],[56,-284]],[[49677,13351],[-1091,-80],[-459,-867],[-1206,-43]],[[46921,12361],[-266,434],[-774,86],[-444,321],[-519,-81],[-255,-474],[-464,939],[-286,274],[-1258,27],[-450,619],[-1001,85],[-442,292]],[[49677,13351],[160,-120],[512,584],[533,101],[-83,1066],[300,255],[2239,-135],[545,573],[486,247],[1299,-789]],[[55668,15133],[-59,-1583],[97,-1320],[582,-308],[297,-961],[-785,5],[-245,346],[-653,47],[-1130,-624],[-526,-35],[-341,-342],[149,-348],[-776,136],[-156,-271],[-411,151],[-288,443],[-988,462],[-956,-127],[-580,-657],[-599,153],[-247,716],[-1500,678],[368,667]],[[86968,78899],[876,122],[1077,-137],[1079,-572],[748,-212],[-665,-1412],[-902,-659],[-75,-369],[-726,-645],[-287,-449],[22,-983],[-252,-219],[-268,-1077],[101,-392],[-337,-454],[-176,-749],[-644,-1204]],[[86539,69488],[-762,399],[-27,485],[-1107,542],[-81,345],[-563,102]],[[83999,71361],[-673,399],[121,1459],[-266,405]],[[86539,69488],[-42,-696],[294,-525],[-633,-2258],[-29,-1159],[438,-883],[-703,-436],[-105,-620],[-605,-528],[-910,-133],[-520,266],[-178,454]],[[83546,62970],[44,456],[-469,606],[-289,51],[88,1231],[-1140,776],[-94,288]],[[81686,66378],[374,249],[-61,334],[306,945],[331,439],[533,1185],[-81,279],[911,1552]],[[83546,62970],[-963,103],[-66,-468],[-353,-261]],[[82164,62344],[-136,1104],[-763,295]],[[81265,63743],[-315,1553],[30,402],[482,733]],[[81462,66431],[224,-53]],[[82164,62344],[-494,-747],[935,143],[275,-284],[-584,-514],[-16,-466],[-1905,-1881],[-74,-422],[-454,-358],[-1062,-436],[28,-889],[-120,-997],[-1109,-827],[-1006,-997],[133,-266]],[[76711,53403],[-573,604],[285,333],[-44,492],[799,719],[-848,825],[-390,119],[-426,1215],[-1458,500],[456,1118],[-227,578],[-563,773]],[[73722,60679],[223,-6],[1331,809],[1003,128],[865,759],[404,-8],[318,656],[795,262],[880,-281],[287,493],[1437,252]],[[73053,44125],[-364,658],[-659,755],[-136,527],[-417,368],[-884,-970],[-930,416]],[[69663,45879],[-1263,-152],[-53,646],[-606,333],[-499,618],[15,955],[333,1155]],[[67590,49434],[141,880],[369,826],[441,1687],[861,-92],[779,131],[901,-515]],[[71082,52351],[63,-483],[375,-493],[639,-413],[277,-613],[939,857],[563,-749],[1023,44],[1213,1460]],[[76174,51961],[526,-597],[-318,-1162],[-892,-354],[166,-424],[-164,-415]],[[76711,53403],[-502,-890],[-35,-552]],[[71082,52351],[770,448],[-372,311],[-39,407],[404,646],[-270,1505],[-231,240],[741,567],[-872,482],[-542,803]],[[70671,57760],[409,331],[-26,438],[516,262],[702,1129],[245,1009]],[[72517,60929],[426,-261],[779,11]],[[82123,21750],[-497,-664],[-878,-82],[-90,-589],[-821,-685],[686,-191],[-124,-657],[-476,-290],[-476,91],[-233,-321],[-866,-154],[-21,-465],[-647,286],[-799,-268],[-69,-458],[-294,373],[-1567,371],[414,-509],[-569,-268],[-509,352],[247,206],[-286,326],[-543,165],[-164,345]],[[73541,18664],[134,569],[470,442],[-476,353],[-57,886],[655,113],[-446,685],[80,768],[-293,334],[172,614],[568,182],[153,287],[-405,442]],[[73541,18664],[-407,-205],[-508,483],[-1299,87],[151,561],[-206,657],[-304,218],[-381,-282],[-1180,0],[-403,551],[351,416],[794,64],[333,779],[-564,-187],[-233,485],[-521,263],[-135,-421],[360,-679],[-235,-356],[-675,238],[-648,-598],[-89,-367],[-1050,13],[-678,242],[90,606],[-453,265],[-705,-83],[-1385,125]],[[63561,21539],[284,423],[1366,888],[-128,385],[476,839],[718,-106],[282,1017],[-37,779],[897,640]],[[67419,26404],[1332,-680],[808,-822],[718,-388],[979,-96],[524,-459],[1150,-299],[1166,679]],[[63561,21539],[-497,279],[-188,667]],[[62876,22485],[-37,344],[376,166],[145,917],[-237,489],[-794,592],[-301,30],[-179,753],[-837,-3],[-217,198],[164,466],[-694,356],[-368,-585],[-397,-25],[-437,-462],[-459,221],[-116,-348],[-346,448],[-461,65]],[[57681,26107],[101,357],[589,640],[-333,508],[-733,370],[612,844]],[[57917,28826],[961,-564],[670,35],[180,618],[324,33],[685,-454],[577,-48],[304,361],[286,984],[-460,1318],[438,242],[237,453]],[[62119,31804],[379,-558],[-37,-746],[587,7],[821,-514],[830,596],[383,-494],[246,456],[376,9],[933,-567]],[[66637,29993],[432,-941],[56,-1073],[329,-17],[489,-737],[-524,-821]],[[62876,22485],[-778,-10],[-352,-189],[-1357,-1231],[-801,-390],[-741,-965],[-870,29],[-961,-663]],[[57016,19066],[-373,274],[-1215,375],[-45,382],[-563,31],[-447,632],[-112,-699],[-571,-599],[-462,670],[-338,-283],[-564,755],[84,554]],[[52410,21158],[607,390],[26,625],[-250,380],[120,768],[913,-156],[749,359],[332,420]],[[54907,23944],[793,80],[14,1118],[929,31],[376,606],[662,328]],[[57016,19066],[-887,-1164],[-510,-1682],[49,-1087]],[[48763,21155],[398,-313],[864,-81],[302,597],[719,-180],[1364,-20]],[[24630,22349],[253,426],[890,4517],[439,2911],[206,1708]],[[26418,31911],[724,260],[446,373],[539,-261],[-51,-699],[1134,-138],[1341,263],[232,-500],[628,-626],[542,-209],[367,-396],[29,-735],[959,-112],[244,684],[426,-390]],[[33978,29425],[77,-762],[339,17],[1463,-379],[-512,-950],[170,-592]],[[35515,26759],[-82,-563],[-559,117],[-102,485],[-518,-440],[-459,26],[-384,-406],[272,-511],[-165,-553],[88,-505],[-489,-1190],[209,-372]],[[26418,31911],[-40,904],[481,1125],[965,41],[-140,494],[-681,630],[-465,-739],[-182,-817],[415,5075],[283,1628],[122,2170],[372,812],[177,-432],[980,-788],[1015,-1279],[314,-1853],[258,-714],[585,-533],[526,49],[-809,449],[-210,594],[-258,1968]],[[30126,40695],[598,1],[238,249],[262,-541],[519,-108],[318,-345],[190,-857],[376,0],[1125,-672],[954,195]],[[34706,38617],[443,0],[234,-583],[-413,-1206],[173,-365],[-295,-508],[298,-217],[976,-140],[446,421],[560,-113],[-398,-310],[229,-660]],[[36959,34936],[-476,-88],[-184,-411],[-201,255],[-412,-290],[407,-750],[-601,-827],[-599,-493],[142,-1465],[-681,-216],[344,-719],[-720,-507]],[[30126,40695],[-317,1048],[-604,931],[-964,745],[-50,237],[-1384,1030],[-362,-3],[116,849],[586,141],[592,-678],[477,-235],[-941,929],[-179,622],[533,373],[29,617],[-283,555],[347,-26],[-254,882],[-364,532],[-338,60],[140,724],[469,306],[-58,532]],[[27317,50866],[266,327],[751,202],[67,-435],[918,115],[466,-309]],[[29785,50766],[36,-577],[778,-933],[730,-226],[271,-307],[463,22],[345,-280],[760,-127],[1066,-982]],[[34234,47356],[-328,-443],[157,-974],[-517,-576],[-463,288],[-960,-214],[-50,-1677],[844,-573],[-171,-302],[525,-328],[-26,-701],[-425,-600],[306,-712],[355,89],[713,-273],[-44,-426],[537,-60],[250,-518]],[[34937,39356],[-231,-739]],[[26635,47090],[295,-464],[-225,-870],[-349,696],[-802,968],[-181,794],[1165,-632],[97,-492]],[[26213,49274],[-1030,562],[-487,-33],[-350,454],[392,104],[52,-385],[1242,-180],[181,-522]],[[27317,50866],[-395,156],[-245,-484],[-1068,773],[-534,-111],[-380,781],[-825,121],[-1219,746],[-358,1354],[-357,581],[-375,192],[-581,840],[-466,287],[-85,533],[198,605],[360,276],[399,802]],[[21386,58318],[776,-782],[715,-359],[349,-410],[1158,-254],[342,234],[-268,649],[-50,764],[535,-98],[58,-721],[550,170],[73,689],[669,539],[824,-482]],[[27117,58257],[774,-271],[605,-28]],[[28496,57958],[765,-835],[205,-663],[623,-543],[-28,-525],[608,-1485],[-49,-1891],[535,-546],[-589,-421],[-781,-283]],[[19027,55193],[312,-288],[-544,7],[232,281]],[[19960,57804],[377,-288],[-97,-421],[-244,466],[-357,25],[-329,709],[651,-91],[-1,-400]],[[21386,58318],[-268,583],[-1437,518],[517,261],[92,1151],[790,139],[597,-143],[1136,-693],[-848,843],[-711,265],[-940,-67],[-886,-687],[-633,412],[-524,-204],[83,416],[-818,784],[541,333],[579,82],[-472,299]],[[18184,62610],[862,116],[212,375],[629,74],[164,-269],[523,626],[146,929]],[[20720,64461],[443,414],[1072,308],[407,-108],[822,269],[635,586],[887,494],[1434,-443]],[[26420,65981],[21,-478],[467,-354],[145,-700],[1020,-450],[-341,-242],[-704,73],[223,-682],[1112,-136],[284,-1003],[-1395,-131],[-1402,-593],[573,-797],[369,18],[235,-641],[-465,-786],[474,-260],[81,-562]],[[18184,62610],[-276,761],[-1219,-231],[-928,-51],[-627,609],[1142,-73],[359,546],[-590,254],[-1120,-282],[0,-421],[-371,357],[-540,-196],[-260,234],[-134,-1244],[-65,1232],[-377,365],[70,484],[511,243],[-190,498],[-579,-990],[-912,562],[515,785],[-1115,-851],[-632,712]],[[10846,65913],[-96,324],[1103,809],[-18,705],[-1052,380],[-532,-70],[-707,1220],[152,433],[975,436]],[[10671,70150],[792,-15],[197,-345],[539,182],[331,-249],[879,121],[272,482],[726,-49],[198,-388],[476,87],[825,-405],[252,-354],[677,294],[-4,-856],[383,87],[447,528],[206,666],[561,26],[582,-504],[357,157]],[[19367,69615],[653,-835],[-451,-140],[-92,-344],[704,-214],[420,-408],[-24,-989],[329,-26],[-46,-516],[-370,-225],[345,-175],[-372,-443],[257,-839]],[[13736,61363],[324,-304],[-712,-3],[-472,196],[-59,767],[919,-656]],[[10846,65913],[-1136,238],[-991,42],[-567,894],[-692,-338],[-475,258],[-807,-799],[-999,49],[167,573],[-594,1159],[-672,521],[-1326,147],[303,275],[2190,498],[490,-77],[-85,907],[-1057,541],[-503,-678],[-153,820],[-492,39],[566,392],[961,-166],[1460,118],[-934,223],[376,422],[-933,-281],[-321,64],[645,715],[-460,-76],[-1309,-569],[-488,147],[-439,-213],[-193,775],[60,760],[358,791],[541,141],[537,491],[1069,140],[431,367],[250,-384],[1191,593],[1072,346],[131,-775],[291,244],[410,-531],[283,1066],[1168,-467]],[[10170,75315],[2,-627],[478,-886],[-195,-551],[199,-655],[-314,-320],[349,-261],[250,-770],[-268,-1095]],[[562,73165],[-257,-325],[-305,185],[562,140]],[[10170,75315],[463,1],[-68,466],[355,64],[-362,526],[451,528],[977,-200],[764,260],[203,252],[143,-575],[798,565],[334,-794],[744,-275],[-93,-351],[815,-779],[95,-606],[674,-389],[215,-532],[717,755],[1121,625],[655,569],[232,-211],[-329,-498],[540,211],[254,-702],[469,562],[629,140],[476,-1040],[231,-110]],[[21673,73777],[261,-357],[-283,-831],[130,-606],[-339,-860],[-569,153],[-641,-355],[-441,-881],[-424,-425]],[[21673,73777],[-546,1079],[291,460],[968,249],[38,-909],[785,-87],[906,273]],[[24115,74842],[415,-1143],[548,-668],[453,47],[789,670],[1270,-379]],[[27590,73369],[64,-1856],[-217,-523],[213,-957],[-1,-861],[203,-917],[-865,-418],[-512,-1556]],[[26475,66281],[-55,-300]],[[24115,74842],[607,-55],[873,248],[-924,422],[-310,468],[-125,1307],[178,1606],[-229,-176],[-193,921],[125,420],[-90,842],[-258,62],[-120,577],[-385,524],[-714,600],[22,498],[-465,881],[279,421],[-175,924],[-519,168],[71,474],[652,-89],[188,-254],[1460,-395],[584,105],[819,516],[817,-147],[295,-764],[-534,-679],[304,-668],[585,-802],[-43,-607],[430,-103]],[[27320,82087],[-27,-720],[775,-811],[581,140],[414,-1899],[-820,-751],[-400,59],[35,-548],[-749,-864],[694,-480],[600,81],[789,-316]],[[29212,75978],[708,-681],[-333,-1301],[-524,-595]],[[29063,73401],[-1473,-32]],[[27320,82087],[317,521],[897,-47],[805,-304],[1625,-173],[248,134],[925,-166],[1304,-645],[1263,411],[720,404],[616,575],[898,201]],[[36938,82998],[73,-1252],[457,-521],[-193,-398],[536,-959],[-304,-821],[363,-510],[-96,-565]],[[37774,77972],[-1017,238],[-706,-434],[-401,215],[-331,-467],[-1340,-793],[-1156,316],[-202,-291],[-483,433],[-1375,-392],[-483,127],[-168,-459],[-900,-487]],[[36938,82998],[796,178],[557,427]],[[38291,83603],[543,-509],[414,5],[206,-379],[958,125],[778,-603],[-405,-164],[95,-311],[884,-587],[404,445],[893,517],[494,-36],[569,967],[288,122],[998,-146],[940,-422],[278,127]],[[46628,82754],[445,-1644],[-394,198],[-187,-409]],[[46492,80899],[-532,-1523]],[[45960,79376],[-1129,-350],[17,-695],[247,-427]],[[45095,77904],[-273,-170],[-9,-537],[-537,-411],[-193,-444],[-647,-390],[-980,251],[-651,-548],[-930,-225],[-384,-349]],[[40491,75081],[-591,497],[85,641],[-558,285],[-410,725],[-1214,100],[-29,643]],[[38291,83603],[-483,-300],[-1125,-4],[-1038,304],[-168,500],[348,631],[273,906],[442,388],[1032,470],[921,596],[1035,441],[586,-8],[2802,884],[1364,1077]],[[44280,89488],[976,-669],[1119,-1154],[502,-1264]],[[46877,86401],[-471,-576],[337,-249],[-368,-415],[216,-1390],[333,-15],[-296,-1002]],[[44280,89488],[623,684],[151,544],[467,336],[673,-320],[73,341],[-840,598],[68,732],[296,243]],[[45791,92646],[582,-349],[946,163],[343,-355],[1270,-736],[383,-467],[869,72],[629,285],[919,-449],[-634,-601],[210,-432],[356,347],[1586,-510],[133,521],[292,-310],[88,-617],[385,308],[201,-492],[763,180],[170,396],[672,-273]],[[56160,85786],[-450,83],[-175,-288],[-966,235],[-589,-888],[-678,-8],[-308,-452],[-298,353],[-2525,883],[-1172,-137],[-641,317],[-790,-143],[-134,400],[-557,260]],[[45791,92646],[-271,330],[191,1748],[-137,1065],[289,1150],[-171,810],[496,209],[520,564],[1304,543],[966,181]],[[93267,10449],[547,427],[113,889],[333,538],[373,-40],[284,427],[637,338],[761,182],[604,779],[883,-34],[377,-492],[343,765],[-251,927],[371,919],[-125,639],[548,275],[214,-552],[208,-1351],[-231,-1271],[42,-1054],[515,-638],[0,-1755],[186,-814],[-47,-1868],[-1018,-1647],[-50,-951]],[[98884,5087],[-564,-272],[-582,221],[118,528],[-160,1242],[-356,-22],[-274,746],[-635,1131],[-286,50],[-723,565],[-129,553],[-1080,213],[-946,407]],[[98884,5087],[40,-1584],[-374,-894],[-371,71],[0,-358],[360,132],[-27,-362],[-520,-396],[42,-638],[-410,-211],[270,-210],[-185,-569],[-862,319],[169,320],[-819,498],[-444,63],[-561,562],[-419,179],[68,801],[482,123],[341,448],[-911,185],[-26,308],[-609,-135],[93,773],[516,204],[125,783],[-401,332],[-886,-329],[-191,701],[469,100],[199,483],[402,190],[-301,671],[-769,248],[51,422],[-301,697],[948,398],[-879,673],[74,364]],[[35515,26759],[489,18],[439,509],[494,-229],[1172,617],[858,170],[452,-363],[564,303]],[[39983,27784],[153,-385],[502,215],[10,-434],[-540,-648],[774,-264],[234,-1065],[311,-296]],[[47823,44542],[-141,-286],[-569,100],[-1517,-1217],[-399,-42],[-432,294],[-252,-583],[-679,-345],[-355,-489]],[[43479,41974],[-878,438],[124,488],[-422,107],[-503,696],[-1292,-196],[-394,193],[67,489],[-246,315],[-672,184]],[[39263,44688],[621,949],[320,-101],[244,1328],[453,122],[323,411],[-265,496],[-535,466],[-69,675]],[[40355,49034],[212,72],[-250,811],[687,567],[649,100],[414,725],[879,339]],[[42946,51648],[300,-186],[773,290],[543,-475]],[[44562,51277],[161,-392],[-361,-777],[131,-514],[617,-560],[385,-1394],[-164,-771],[622,-178],[-16,-562],[1011,22],[818,-819],[57,-790]],[[47823,44542],[590,78],[289,509],[1027,-278],[785,-524],[509,384],[483,-42],[376,284]],[[51882,44953],[236,-395],[-28,-549],[-377,-615],[364,-1083]],[[52077,42311],[-204,-847],[-663,168],[-296,-757],[-1042,-1193],[83,-660],[-264,-666],[-370,-373],[122,-677],[-496,-181]],[[48947,37125],[-1027,-69],[-737,-365],[-581,281],[-711,708],[-545,163],[-483,-307]],[[44863,37536],[-366,574],[-21,582],[-768,199],[-54,548],[-265,24],[275,536],[-216,614],[495,545],[-464,816]],[[48394,28850],[-842,-246],[-516,-513],[-625,286],[-233,-281],[311,-680],[-618,-712],[-296,18],[-52,-467]],[[39983,27784],[525,844],[513,6],[344,1332],[-396,345],[120,623],[445,-107],[646,164]],[[42180,30991],[437,51],[-80,-546],[908,-626],[207,-302],[569,-205],[743,655],[486,-514],[247,99],[-54,522],[546,-208],[775,553],[780,122]],[[47744,30592],[-89,-487],[692,-168],[-342,-422],[-14,-467],[403,-198]],[[48394,28850],[86,-219],[818,448],[305,-23],[814,-503],[1262,-977],[418,-680],[10,-423],[618,-1453],[863,-713],[522,265],[587,-178],[210,-450]],[[67682,40429],[-283,714]],[[67399,41143],[-67,810]],[[67332,41953],[645,726],[104,356],[-460,445],[1442,200],[604,800],[350,104],[-489,516],[135,779]],[[74493,34419],[-1072,122],[-723,712],[-494,-62],[-108,320],[226,1823],[-241,869],[-455,-341],[-1452,354],[87,707],[-204,1106],[-512,276],[-551,580],[-860,-409],[-452,-47]],[[72411,28348],[-769,489],[-97,336],[-1443,397],[-49,687],[-731,-115],[-1652,-485],[-448,794],[-587,5]],[[66635,30456],[132,1136],[180,386],[122,1015],[464,875],[-81,1409],[619,919],[163,666],[-283,741],[51,453],[-243,469],[-77,1904]],[[68265,30308],[569,2],[427,569],[-347,568],[-367,-69],[-339,-622],[57,-448]],[[49945,33496],[60,256],[587,222],[312,-174],[738,100],[562,701],[386,1083],[903,1032],[381,-756],[258,53],[588,-1134],[128,-678],[370,-479]],[[55218,33722],[586,-824],[131,-769],[338,-529],[-66,-689],[138,-699],[-147,-331],[675,-487],[178,-333],[689,29],[177,-264]],[[47744,30592],[138,224],[-465,1302],[642,332],[917,679],[533,-53],[436,420]],[[42180,30991],[-351,1736],[437,278]],[[42266,33005],[666,1013],[769,456],[453,919],[563,789],[-83,1033],[229,321]],[[48947,37125],[238,-1125],[441,-938],[-179,-780],[498,-786]],[[43964,59870],[197,-801],[-259,-58],[-549,-883],[-562,180],[-544,-210],[-467,-2165],[-176,-497],[-675,-49]],[[40929,55387],[-335,298],[-804,1241],[-283,678],[-594,363],[-145,-494],[-880,-211],[-855,192],[-9,938],[-728,132],[-55,482],[-680,200],[-172,328]],[[35389,59534],[223,1369],[528,933],[304,1284],[136,1035]],[[36580,64155],[883,-233],[90,451],[453,-24],[1098,553],[-20,141]],[[39084,65043],[328,159],[1375,-438],[89,-639],[779,226],[550,-662],[-107,-350],[457,-833],[-142,-1200],[442,-466],[514,-24],[595,-946]],[[43964,59870],[661,412],[687,-6],[539,606],[820,47],[780,-720]],[[47451,60209],[-92,-539],[-347,-373],[757,-277],[550,207],[581,-282],[-69,-424],[350,-572],[-96,-588],[343,-509],[-352,-554],[214,-760],[-281,-289],[536,-453],[278,-723],[-201,-638],[227,-853],[-355,-580]],[[49494,52002],[-1753,173],[-341,-183],[-474,306],[-112,-485],[-905,-198],[-166,272],[-521,17],[-660,-627]],[[42946,51648],[120,421],[-356,376],[48,370],[-327,349],[-426,1],[-836,830],[-17,986],[-223,406]],[[39084,65043],[25,347],[894,664],[238,1230],[415,489],[-7,748],[-288,279],[240,412]],[[40601,69212],[1269,358],[212,-544],[320,-86],[780,-1032],[774,-168],[986,433],[336,-82]],[[45278,68091],[329,-201],[-212,-411],[286,-623],[-309,-402],[98,-586],[348,-351],[203,295],[606,-400],[104,-501],[589,-337],[280,580],[746,-369],[1369,134],[355,-146],[105,-432]],[[50175,64341],[-724,-342],[56,-399],[396,-79],[370,-741],[-57,-596],[-631,164],[-219,-694],[193,-526],[-326,-396],[-1027,148],[-401,-716],[-354,45]],[[49494,52002],[781,-16]],[[50275,51986],[529,-934],[970,-593],[630,-1393]],[[52404,49066],[-20,-677],[215,-1018],[-638,-1042],[-688,-419],[297,-744],[312,-213]],[[32078,65789],[-562,176],[-848,-451],[-2243,601],[-190,-310],[-1049,146],[-711,330]],[[29063,73401],[361,-521],[376,-101],[611,323],[751,-45],[363,339],[1010,-97],[706,360],[105,354],[424,-166],[114,-568],[665,-600],[27,-524]],[[34576,72155],[-488,-104],[-197,-338],[102,-1114],[-592,-629],[10,-863],[-807,-594],[361,-726],[-503,-183],[-220,-831],[-328,-185],[424,-401],[-260,-398]],[[34576,72155],[815,33],[515,576],[939,352],[618,-263],[129,-1189],[649,-268],[104,-368],[1130,-239],[403,-547],[491,-89]],[[40369,70153],[777,-458],[-545,-483]],[[36580,64155],[-453,-145],[-760,221],[-733,422],[-670,-175],[-340,172],[-87,729],[-264,-168],[-1195,578]],[[66637,29993],[-2,463]],[[72064,72552],[-157,-843],[520,138],[516,-688],[365,-30],[511,-714],[-366,-1138],[876,-805],[69,-600],[637,-325]],[[75035,67547],[-481,-711],[-715,-520],[-103,-1233],[-777,-363],[-581,248],[-549,-112],[-312,-650]],[[71517,64206],[-676,-175],[-734,870],[-597,-158],[-315,450],[-424,-107],[-271,823],[394,282],[-147,425],[-1188,1592],[-645,258]],[[66914,68466],[86,838],[792,82],[237,893],[-291,1504],[-311,144],[-887,964],[181,819]],[[66721,73710],[699,34],[92,674],[463,125],[-116,327],[-436,-6],[637,507],[852,-4]],[[66721,73710],[-482,186],[-499,-216],[-1347,846],[-143,973],[-756,52],[-799,-167],[-1426,-1278],[-141,-458],[-683,149],[-219,292],[-546,-281],[-80,389],[-586,353]],[[59014,74550],[-480,261],[-109,880],[-358,265],[72,648],[467,380]],[[34937,39356],[493,292],[353,-66],[849,813],[47,753],[218,641],[930,570],[500,781],[128,767],[324,138],[484,643]],[[42266,33005],[-714,656],[-676,-353],[-380,237],[101,515],[-266,153],[-728,-189],[-670,257],[-1160,-549],[-284,126],[-530,1078]],[[67332,41953],[-720,481],[80,655],[-175,272],[-975,35],[-768,716],[-127,454],[213,524],[-358,112],[338,849],[-352,363],[-98,656],[-469,292],[283,542],[-286,449],[671,773],[512,92],[3,419],[-331,342]],[[64773,49979],[167,669],[1342,-275],[221,372],[449,-532],[109,-605],[529,-174]],[[81462,66431],[-1513,1205],[-253,-342],[-530,-35],[-852,498],[-882,-214],[-660,713],[-517,29],[-681,-653],[-108,399],[-431,-484]],[[62119,31804],[-194,799],[-444,891],[-191,1325]],[[61290,34819],[512,694],[517,439],[885,147],[422,860],[552,156],[36,483],[397,123],[-58,445],[220,614],[245,-197],[328,736],[-38,495]],[[65308,39814],[887,65],[254,850],[950,414]],[[65308,39814],[-704,381],[-51,618],[-335,609],[-199,-195],[-770,132],[-221,-309],[-847,-122],[-222,244],[-579,-101]],[[61380,41071],[568,1272],[-329,970],[-794,745],[-728,1442],[227,1057],[-346,668]],[[59978,47225],[688,241],[252,290],[-309,2316],[778,436]],[[61387,50508],[76,-648],[560,-361],[570,151],[871,-29],[663,-177],[646,535]],[[61380,41071],[-549,280],[-164,-296],[-622,120],[-558,-151],[-696,641],[-748,-160],[-351,216],[-974,-640],[-660,-54]],[[56058,41027],[-736,-677],[-319,211],[-327,653],[-454,245],[-887,-87],[-241,479],[-1017,460]],[[52404,49066],[758,30],[451,849],[486,-207],[23,416],[484,197],[229,-890],[634,-739],[504,94],[376,-459],[593,63],[672,-298],[721,284],[129,-705],[867,16],[647,-492]],[[50275,51986],[303,536],[689,512],[1456,285],[-250,1095],[292,56],[698,751],[343,-216],[1382,822],[368,-24]],[[55556,55803],[281,-532],[986,-535],[273,142],[764,-152],[444,201],[185,-558],[675,307],[442,596]],[[59606,55272],[225,-549],[579,-780],[-14,-625],[1619,-892],[143,-1402],[-771,-516]],[[45278,68091],[121,565],[422,-53],[212,301],[1524,222],[435,827],[395,350],[81,783]],[[48468,71086],[988,230],[504,412],[329,-345],[409,231],[508,-148]],[[51206,71466],[315,-657],[522,-444],[-109,-552],[-320,-193],[1594,-119],[705,384],[250,-293],[684,252]],[[54847,69844],[561,-145],[252,-673],[458,-522],[-186,-791],[-632,-503],[53,-1015],[-1123,-536],[13,-342],[529,-395],[372,-1130]],[[55144,63792],[-751,-240],[108,-244]],[[54501,63308],[-525,-238],[-439,283],[-369,-411],[-767,903],[-524,39],[-322,313],[-473,-122],[-907,266]],[[35389,59534],[-482,30],[-333,-620],[-381,-274]],[[34193,58670],[-492,319],[-1328,-129],[-1217,-279],[41,-369],[-567,-336],[-1396,-28],[-738,110]],[[66914,68466],[-601,-69],[-466,-514],[-1469,-198],[-256,-224]],[[64122,67461],[-477,495],[-104,-342],[-919,-10],[-206,-160],[-875,169],[-73,486],[-1232,1810],[-256,-207],[-668,399],[171,787],[-572,835],[-690,321],[-177,431]],[[58044,72475],[109,1192],[273,58],[588,825]],[[50362,77509],[748,1],[659,-432]],[[51769,77078],[-204,-446],[-758,13]],[[50807,76645],[-526,220],[81,644]],[[50807,76645],[-77,-704]],[[50730,75941],[-209,-180],[-432,462]],[[50089,76223],[-412,429],[-98,669]],[[49579,77321],[701,638],[437,136]],[[50717,78095],[-355,-586]],[[50717,78095],[833,-27],[762,559]],[[52312,78627],[266,-784],[-144,-777],[145,-520]],[[52579,76546],[-810,532]],[[49579,77321],[-105,573],[280,478],[-712,105],[-329,-539],[-316,686],[-659,-115],[-394,763],[-675,-267],[-709,371]],[[46492,80899],[268,-424],[1009,-223],[792,151],[538,290],[1067,-489],[661,136],[1690,-944]],[[52517,79396],[-205,-769]],[[50089,76223],[-700,-207],[-228,-599],[-401,-288],[-15,-933],[-546,-310],[-201,-1074]],[[47998,72812],[-806,240],[-360,969],[-771,832],[-405,628],[206,480],[-257,229],[18,746],[-528,968]],[[34234,47356],[273,134],[671,1004],[682,244],[418,-88]],[[36278,48650],[608,-343],[1058,-89],[10,441],[386,369],[360,-428],[637,4],[483,488],[535,-58]],[[54501,63308],[378,-696],[-376,-1191],[660,-722],[656,-2277],[49,-736],[-146,-625],[130,-441],[-296,-817]],[[40369,70153],[197,237],[-208,455],[-56,841],[724,251],[578,758],[-234,925],[-647,616],[-232,845]],[[47998,72812],[25,-323],[522,-958],[-77,-445]],[[61290,34819],[-915,672],[-521,151],[-48,396],[-437,-41],[-78,-333],[-584,-175],[-222,211],[-615,1210]],[[57870,36910],[-500,873],[233,608],[-381,391],[-327,1356],[-777,172],[-60,717]],[[57870,36910],[-854,-331],[-613,-538],[-367,121],[-379,-923],[-159,-872],[-280,-645]],[[62882,61443],[128,-920],[453,-54],[221,-459],[-97,-459]],[[63587,59551],[-1003,-377],[-35,-1034],[-382,-173],[305,-449],[-14,-507],[308,-272],[-280,-393],[-5,-598],[-340,-78],[-1280,-784],[-480,517],[-775,-131]],[[55144,63792],[881,115],[316,-549],[642,-337],[632,-116],[566,282],[495,-154],[26,680],[649,-974],[390,-87],[485,-465],[603,-264],[292,456],[249,-646],[454,264],[179,-681],[879,127]],[[62882,61443],[-258,877],[333,320],[8,505],[859,1554],[96,803],[488,272],[-118,835],[-343,25],[175,827]],[[71517,64206],[707,-95],[95,-695],[-484,-401],[682,-2086]],[[70671,57760],[-1170,-205],[-274,204],[-898,-192],[-1561,-591],[-530,496],[-316,647],[-762,185],[-318,397],[-1255,850]],[[55896,79618],[-689,-288],[-1317,75],[-267,-181],[-812,308],[-294,-136]],[[34193,58670],[186,-667],[282,-266],[184,-924],[263,-549],[-284,-75],[193,-1059],[-281,-776],[316,-636],[-320,-709],[103,-1106],[552,-1079],[571,387],[177,-366],[-460,-1235],[525,-315],[78,-645]],[[54847,69844],[148,508],[562,648],[-98,538],[182,423],[2129,129],[274,385]],[[50730,75941],[463,-279],[721,125],[524,-430]],[[52438,75357],[-324,-640],[-188,-1164],[203,-986],[-923,-1101]],[[52438,75357],[186,580],[-45,609]]],"transform":{"scale":[0.00014692529737297377,0.00009721725923978029],"translate":[-5.132801886999914,41.36591217700004]}}