{"type":"Topology","objects":{"subunits":{"type":"GeometryCollection","name":"MEX_subunits","crs":{"type":"name","properties":{"name":"urn:ogc:def:crs:OGC:1.3:CRS84"}},"geometries":[{"type":"MultiPolygon","properties":{"name":"Sonora","fips":"MX26","postal":"SO","scalerank":4,"country":"MEX","latitude":29.5293,"longitude":-110.485,"type":"Estado"},"id":"MX-SON","arcs":[[[0,1,2,3,4]],[[5]],[[6]],[[7]],[[8]],[[9,10]],[[11,12]]]},{"type":"MultiPolygon","properties":{"name":"Baja California","fips":"MX02","postal":"BC","scalerank":4,"country":"MEX","latitude":30.3399,"longitude":-115.209,"type":"Estado"},"id":"MX-BCN","arcs":[[[-5,13,14,15]],[[16]],[[17]],[[18]],[[19]],[[20,21]],[[22,23]],[[24]]]},{"type":"Polygon","properties":{"name":"Chihuahua","fips":"MX06","postal":"CH","scalerank":4,"country":"MEX","latitude":28.973,"longitude":-106.232,"type":"Estado"},"id":"MX-CHH","arcs":[[25,26,27,28,-2]]},{"type":"Polygon","properties":{"name":"Coahuila","fips":"MX07","postal":"CO","scalerank":4,"country":"MEX","latitude":27.4473,"longitude":-101.885,"type":"Estado"},"id":"MX-COA","arcs":[[29,30,31,32,-27]]},{"type":"MultiPolygon","properties":{"name":"Tamaulipas","fips":"MX28","postal":"TM","scalerank":4,"country":"MEX","latitude":24.0808,"longitude":-98.5197,"type":"Estado"},"id":"MX-TAM","arcs":[[[33,34,35,36]],[[37]]]},{"type":"Polygon","properties":{"name":"Nuevo León","fips":"MX19","postal":"NL","scalerank":4,"country":"MEX","latitude":25.6178,"longitude":-99.8307,"type":"Estado"},"id":"MX-NLE","arcs":[[38,-37,39,-31]]},{"type":"MultiPolygon","properties":{"name":"Quintana Roo","fips":"MX23","postal":"QR","scalerank":4,"country":"MEX","latitude":19.3861,"longitude":-88.344,"type":"Estado"},"id":"MX-ROO","arcs":[[[40,41,42]],[[43]],[[44]],[[45]],[[46]]]},{"type":"MultiPolygon","properties":{"name":"Campeche","fips":"MX04","postal":"CM","scalerank":4,"country":"MEX","latitude":18.6624,"longitude":-90.2807,"type":"Estado"},"id":"MX-CAM","arcs":[[[47,48,49,50,-41]],[[51]]]},{"type":"Polygon","properties":{"name":"Tabasco","fips":"MX27","postal":"TB","scalerank":4,"country":"MEX","latitude":18.1252,"longitude":-92.8274,"type":"Estado"},"id":"MX-TAB","arcs":[[52,53,54,55,-49]]},{"type":"MultiPolygon","properties":{"name":"Chiapas","fips":"MX05","postal":"CS","scalerank":4,"country":"MEX","latitude":16.527,"longitude":-92.581,"type":"Estado"},"id":"MX-CHP","arcs":[[[56,57,58,-54]],[[59,60]]]},{"type":"MultiPolygon","properties":{"name":"Colima","fips":"MX08","postal":"CL","scalerank":4,"country":"MEX","latitude":19.1325,"longitude":-103.915,"type":"Estado"},"id":"MX-COL","arcs":[[[61]],[[62]],[[63]],[[64,65,66]]]},{"type":"MultiPolygon","properties":{"name":"Nayarit","fips":"MX18","postal":"NA","scalerank":4,"country":"MEX","latitude":21.7934,"longitude":-104.824,"type":"Estado"},"id":"MX-NAY","arcs":[[[67]],[[68]],[[69]],[[70]],[[71,72,73,74,75]]]},{"type":"MultiPolygon","properties":{"name":"Baja California Sur","fips":"MX03","postal":"BS","scalerank":4,"country":"MEX","latitude":25.0656,"longitude":-111.452,"type":"Estado"},"id":"MX-BCS","arcs":[[[76]],[[77]],[[78]],[[79]],[[80]],[[81]],[[82]],[[83]],[[84,-15,85,-24,86,-22]],[[87]],[[88]],[[89]],[[90]],[[91]],[[92]],[[93]]]},{"type":"MultiPolygon","properties":{"name":"Sinaloa","fips":"MX25","postal":"SI","scalerank":4,"country":"MEX","latitude":25.6041,"longitude":-108.001,"type":"Estado"},"id":"MX-SIN","arcs":[[[94]],[[95,-13,96,-11,97,-3,-29,98,-73]]]},{"type":"Polygon","properties":{"name":"Yucatán","fips":"MX31","postal":"YU","scalerank":4,"country":"MEX","latitude":20.663,"longitude":-88.9836,"type":"Estado"},"id":"MX-YUC","arcs":[[99,-42,-51]]},{"type":"MultiPolygon","properties":{"name":"Veracruz","fips":"MX30","postal":"VE","scalerank":4,"country":"MEX","latitude":19.0926,"longitude":-96.5953,"type":"Estado"},"id":"MX-VER","arcs":[[[100,-55,-59,101,102,103,104,-35]],[[105]]]},{"type":"Polygon","properties":{"name":"Jalisco","fips":"MX14","postal":"JA","scalerank":4,"country":"MEX","latitude":20.3026,"longitude":-103.602,"type":"Estado"},"id":"MX-JAL","arcs":[[106,-76,107,108,109,110,111,-66]]},{"type":"Polygon","properties":{"name":"Michoacán","fips":"MX16","postal":"MI","scalerank":4,"country":"MEX","latitude":19.2458,"longitude":-101.936,"type":"Estado"},"id":"MX-MIC","arcs":[[112,-67,-112,113,114,115,116]]},{"type":"Polygon","properties":{"name":"Guerrero","fips":"MX12","postal":"GR","scalerank":4,"country":"MEX","latitude":17.7608,"longitude":-100.091,"type":"Estado"},"id":"MX-GRO","arcs":[[117,-117,118,119,120,121]]},{"type":"Polygon","properties":{"name":"Oaxaca","fips":"MX20","postal":"OA","scalerank":4,"country":"MEX","latitude":16.94,"longitude":-96.2087,"type":"Estado"},"id":"MX-OAX","arcs":[[122,-122,123,-102,-58,124,-61]]},{"type":"Polygon","properties":{"name":null,"fips":null,"postal":null,"scalerank":11,"country":"MEX","latitude":22.3858,"longitude":-89.6633,"type":null},"id":"MX-X01~","arcs":[[125]]},{"type":"Polygon","properties":{"name":"México","fips":"MX15","postal":"MX","scalerank":4,"country":"MEX","latitude":19.3275,"longitude":-99.7416,"type":"Estado"},"id":"MX-MEX","arcs":[[126,127,128,129,-119,-116,130,131,132]]},{"type":"Polygon","properties":{"name":"Puebla","fips":"MX21","postal":"PU","scalerank":4,"country":"MEX","latitude":18.549,"longitude":-97.8889,"type":"Estado"},"id":"MX-PUE","arcs":[[-127,133,134,-103,-124,-121,135]]},{"type":"Polygon","properties":{"name":"Morelos","fips":"MX17","postal":"MO","scalerank":4,"country":"MEX","latitude":18.742,"longitude":-99.0785,"type":"Estado"},"id":"MX-MOR","arcs":[[-136,-120,-130,136,-128]]},{"type":"Polygon","properties":{"name":"Querétaro","fips":"MX22","postal":"QT","scalerank":4,"country":"MEX","latitude":20.7392,"longitude":-99.9663,"type":"Estado"},"id":"MX-QUE","arcs":[[137,-131,-115,138,139]]},{"type":"Polygon","properties":{"name":"Hidalgo","fips":"MX13","postal":"HG","scalerank":4,"country":"MEX","latitude":20.5354,"longitude":-98.9221,"type":"Estado"},"id":"MX-HID","arcs":[[-138,140,-104,-135,141,-132]]},{"type":"Polygon","properties":{"name":"Guanajuato","fips":"MX11","postal":"GJ","scalerank":4,"country":"MEX","latitude":20.8141,"longitude":-100.904,"type":"Estado"},"id":"MX-GUA","arcs":[[-139,-114,-111,142]]},{"type":"Polygon","properties":{"name":"San Luis Potosí","fips":"MX24","postal":"SL","scalerank":4,"country":"MEX","latitude":22.4465,"longitude":-100.324,"type":"Estado"},"id":"MX-SLP","arcs":[[-40,-36,-105,-141,-140,-143,143]]},{"type":"Polygon","properties":{"name":"Zacatecas","fips":"MX32","postal":"ZA","scalerank":4,"country":"MEX","latitude":23.3785,"longitude":-102.579,"type":"Estado"},"id":"MX-ZAC","arcs":[[-144,-110,144,-108,-75,145,-32]]},{"type":"Polygon","properties":{"name":"Aguascalientes","fips":"MX01","postal":"AG","scalerank":4,"country":"MEX","latitude":22.0375,"longitude":-102.351,"type":"Estado"},"id":"MX-AGU","arcs":[[-109,-145]]},{"type":"Polygon","properties":{"name":"Durango","fips":"MX10","postal":"DG","scalerank":4,"country":"MEX","latitude":24.566,"longitude":-104.808,"type":"Estado"},"id":"MX-DUR","arcs":[[-99,-28,-33,-146,-74]]},{"type":"Polygon","properties":{"name":"Tlaxcala","fips":"MX29","postal":"TL","scalerank":4,"country":"MEX","latitude":19.3956,"longitude":-98.161,"type":"Estado"},"id":"MX-TLA","arcs":[[-142,-134,-133]]},{"type":"Polygon","properties":{"name":"Distrito Federal","fips":"MX09","postal":"DF","scalerank":4,"country":"MEX","latitude":19.3266,"longitude":-99.1369,"type":"Distrito Federal"},"id":"MX-DIF","arcs":[[-129,-137]]}]},"places":{"type":"GeometryCollection","name":"MEX_places","crs":{"type":"name","properties":{"name":"urn:ogc:def:crs:OGC:1.3:CRS84"}},"geometries":[{"type":"Point","properties":{"name":"Vicente Guerrero","scalerank":8,"subregion":"Baja California","latitude":30.764051,"longitude":-116.00926},"id":"Q7925156","coordinates":[7451,89272]},{"type":"Point","properties":{"name":"Loreto","scalerank":8,"subregion":"Baja California Sur","latitude":26.013333,"longitude":-111.351664},"id":"Q1020758","coordinates":[22158,63121]},{"type":"Point","properties":{"name":"Ciudad Constitución","scalerank":8,"subregion":"Baja California Sur","latitude":25.040008,"longitude":-111.659991},"id":"Q599087","coordinates":[21184,57763]},{"type":"Point","properties":{"name":"Allende","scalerank":8,"subregion":"Coahuila","latitude":28.329988,"longitude":-100.849979},"id":"Q2448272","coordinates":[55319,75873]},{"type":"Point","properties":{"name":"Nueva Rosita","scalerank":8,"subregion":"Coahuila","latitude":27.949959,"longitude":-101.219982},"id":"Q2014880","coordinates":[54151,73781]},{"type":"Point","properties":{"name":"Hidalgo del Parral","scalerank":8,"subregion":"Chihuahua","latitude":26.933355,"longitude":-105.666636},"id":"Q771214","coordinates":[40110,68185]},{"type":"Point","properties":{"name":"Ascensión","scalerank":8,"subregion":"Chihuahua","latitude":31.100026,"longitude":-107.979983},"id":"Q2450325","coordinates":[32805,91121]},{"type":"Point","properties":{"name":"Gómez Palacio","scalerank":8,"subregion":"Durango","latitude":25.570053,"longitude":-103.500024},"id":"Q1775128","coordinates":[46951,60681]},{"type":"Point","properties":{"name":"Canatlan","scalerank":8,"subregion":"Durango","latitude":24.519988,"longitude":-104.779997},"id":"Q5124140","coordinates":[42909,54901]},{"type":"Point","properties":{"name":"Villa Unión","scalerank":8,"subregion":"Sinaloa","latitude":23.199991,"longitude":-106.230038},"id":"Q9093922","coordinates":[38331,47635]},{"type":"Point","properties":{"name":"Altata","scalerank":8,"subregion":"Sinaloa","latitude":24.636045,"longitude":-107.916215},"id":"Q4736195","coordinates":[33006,55540]},{"type":"Point","properties":{"name":"Esperanza","scalerank":8,"subregion":"Sonora","latitude":27.580008,"longitude":-109.929993},"id":"Q27940770","coordinates":[26647,71745]},{"type":"Point","properties":{"name":"Magdalena","scalerank":8,"subregion":"Sonora","latitude":30.616618,"longitude":-111.049951},"id":"Q1572516","coordinates":[23370,88511]},{"type":"Point","properties":{"name":"Nacozari de García","scalerank":8,"subregion":"Sonora","latitude":30.420015,"longitude":-109.649984},"id":"Q123329","coordinates":[27531,87378]},{"type":"Point","properties":{"name":"Villanueva","scalerank":8,"subregion":"Zacatecas","latitude":22.350017,"longitude":-102.88001},"id":"Q2991562","coordinates":[48909,42956]},{"type":"Point","properties":{"name":"Montemorelos","scalerank":8,"subregion":"Nuevo León","latitude":25.189999,"longitude":-99.839989},"id":"Q765472","coordinates":[58509,58589]},{"type":"Point","properties":{"name":"Sabinas Hidalgo","scalerank":8,"subregion":"Nuevo León","latitude":26.510021,"longitude":-100.179968},"id":"Q2391830","coordinates":[57435,65855]},{"type":"Point","properties":{"name":"Cardenas","scalerank":8,"subregion":"San Luis Potosí","latitude":22.000012,"longitude":-99.669999},"id":"Q2991521","coordinates":[59045,41030]},{"type":"Point","properties":{"name":"Ciudad Valles","scalerank":8,"subregion":"San Luis Potosí","latitude":21.979988,"longitude":-99.020013},"id":"Q1002537","coordinates":[61098,40919]},{"type":"Point","properties":{"name":"Rio Verde","scalerank":8,"subregion":"San Luis Potosí","latitude":21.929991,"longitude":-99.980006},"id":"Q1925390","coordinates":[58066,40644]},{"type":"Point","properties":{"name":"Ciudad Mante","scalerank":8,"subregion":"Tamaulipas","latitude":22.733353,"longitude":-98.950017},"id":"Q736594","coordinates":[61319,45066]},{"type":"Point","properties":{"name":"Reynosa","scalerank":8,"subregion":"Tamaulipas","latitude":26.079996,"longitude":-98.300031},"id":"Q738303","coordinates":[63371,63488]},{"type":"Point","properties":{"name":"Ciudad Madero","scalerank":8,"subregion":"Tamaulipas","latitude":22.318908,"longitude":-97.836106},"id":"Q985365","coordinates":[64836,42785]},{"type":"Point","properties":{"name":"Autlan","scalerank":8,"subregion":"Jalisco","latitude":19.770019,"longitude":-104.369997},"id":"Q2589446","coordinates":[44204,28754]},{"type":"Point","properties":{"name":"Ciudad Hidalgo","scalerank":8,"subregion":"Michoacán","latitude":19.679973,"longitude":-100.569996},"id":"Q1962248","coordinates":[56203,28259]},{"type":"Point","properties":{"name":"Apatzingán","scalerank":8,"subregion":"Michoacán","latitude":19.079984,"longitude":-102.350017},"id":"Q94758","coordinates":[50583,24956]},{"type":"Point","properties":{"name":"Santiago Ixcuintla","scalerank":8,"subregion":"Nayarit","latitude":21.819998,"longitude":-105.220048},"id":"Q3849467","coordinates":[41520,40039]},{"type":"Point","properties":{"name":"Juchitan","scalerank":8,"subregion":"Oaxaca","latitude":16.429991,"longitude":-95.019999},"id":"Q1710837","coordinates":[73729,10369]},{"type":"Point","properties":{"name":"Miahuatlán","scalerank":8,"subregion":"Oaxaca","latitude":16.329997,"longitude":-96.600006},"id":"Q2449310","coordinates":[68740,9819]},{"type":"Point","properties":{"name":"Atlixco","scalerank":8,"subregion":"Puebla","latitude":18.900021,"longitude":-98.449996},"id":"Q757401","coordinates":[62898,23965]},{"type":"Point","properties":{"name":"Acatlan","scalerank":8,"subregion":"Puebla","latitude":18.19996,"longitude":-98.049995},"id":"Q2651821","coordinates":[64161,20112]},{"type":"Point","properties":{"name":"Paraíso","scalerank":8,"subregion":"Tabasco","latitude":18.400026,"longitude":-93.229979},"id":"Q2072540","coordinates":[79381,21213]},{"type":"Point","properties":{"name":"Balancán","scalerank":8,"subregion":"Tabasco","latitude":17.799959,"longitude":-91.529979},"id":"Q2669506","coordinates":[84749,17910]},{"type":"Point","properties":{"name":"Tlaxcala","scalerank":8,"subregion":"Tlaxcala","latitude":19.319995,"longitude":-98.23001},"id":"Q614072","coordinates":[63592,26277]},{"type":"Point","properties":{"name":"Irapuato","scalerank":8,"subregion":"Guanajuato","latitude":20.670016,"longitude":-101.499991},"id":"Q816845","coordinates":[53738,33742]},{"type":"Point","properties":{"name":"Celaya","scalerank":8,"subregion":"Guanajuato","latitude":20.530025,"longitude":-100.800008},"id":"Q580649","coordinates":[55477,32938]},{"type":"Point","properties":{"name":"Chilpancingo","scalerank":8,"subregion":"Guerrero","latitude":17.549974,"longitude":-99.50001},"id":"Q207935","coordinates":[59582,16534]},{"type":"Point","properties":{"name":"Iguala","scalerank":8,"subregion":"Guerrero","latitude":18.370001,"longitude":-99.539981},"id":"Q607167","coordinates":[59456,21048]},{"type":"Point","properties":{"name":"Tecpan","scalerank":8,"subregion":"Guerrero","latitude":17.249992,"longitude":-100.679989},"id":"Q4453847","coordinates":[55856,14883]},{"type":"Point","properties":{"name":"Atoyac","scalerank":8,"subregion":"Guerrero","latitude":17.199995,"longitude":-100.43003},"id":"Q2279115","coordinates":[56645,14608]},{"type":"Point","properties":{"name":"Nezahualcoyotl","scalerank":8,"subregion":"México","latitude":19.410016,"longitude":-99.029987},"id":"Q210307","coordinates":[61066,26773]},{"type":"Point","properties":{"name":"San Juan del Río","scalerank":8,"subregion":"Querétaro","latitude":20.379982,"longitude":-100.000031},"id":"Q1815099","coordinates":[58003,32112]},{"type":"Point","properties":{"name":"Jaltipan","scalerank":8,"subregion":"Veracruz","latitude":17.939976,"longitude":-94.73999},"id":"Q2447248","coordinates":[74613,18681]},{"type":"Point","properties":{"name":"Orizaba","scalerank":8,"subregion":"Veracruz","latitude":18.850024,"longitude":-97.129999},"id":"Q993904","coordinates":[67066,23690]},{"type":"Point","properties":{"name":"Xalapa","scalerank":8,"subregion":"Veracruz","latitude":19.529982,"longitude":-96.919986},"id":"Q221051","coordinates":[67729,27433]},{"type":"Point","properties":{"name":"Nautla","scalerank":8,"subregion":"Veracruz","latitude":20.216581,"longitude":-96.783354},"id":"Q3846099","coordinates":[68161,31213]},{"type":"Point","properties":{"name":"San Cristobal de Las Casas","scalerank":8,"subregion":"Chiapas","latitude":16.749997,"longitude":-92.633375},"id":"Q524894","coordinates":[81265,12131]},{"type":"Point","properties":{"name":"Escuintla","scalerank":8,"subregion":"Chiapas","latitude":15.330006,"longitude":-92.62999},"id":"Q1477389","coordinates":[81276,4314]},{"type":"Point","properties":{"name":"Motul","scalerank":8,"subregion":"Yucatán","latitude":21.09999,"longitude":-89.279987},"id":"Q944292","coordinates":[91854,36075]},{"type":"Point","properties":{"name":"Tekax","scalerank":8,"subregion":"Yucatán","latitude":20.199993,"longitude":-89.279987},"id":"Q1880859","coordinates":[91854,31121]},{"type":"Point","properties":{"name":"Peto","scalerank":8,"subregion":"Yucatán","latitude":20.129972,"longitude":-88.919984},"id":"Q1949370","coordinates":[92991,30736]},{"type":"Point","properties":{"name":"Halachó","scalerank":8,"subregion":"Yucatán","latitude":20.479976,"longitude":-90.080016},"id":"Q3008522","coordinates":[89328,32662]},{"type":"Point","properties":{"name":"San Quintín","scalerank":7,"subregion":"Baja California","latitude":30.483732,"longitude":-115.949987},"id":"Q2249597","coordinates":[7669,88140]},{"type":"Point","properties":{"name":"Punta Prieta","scalerank":7,"subregion":"Baja California","latitude":28.933698,"longitude":-114.166582},"id":"Q959021","coordinates":[13269,79196]},{"type":"Point","properties":{"name":"San Felipe","scalerank":7,"subregion":"Baja California","latitude":31.024113,"longitude":-114.849615},"id":"Q586007","coordinates":[11113,90703]},{"type":"Point","properties":{"name":"Santa Rosalía","scalerank":7,"subregion":"Baja California Sur","latitude":27.317078,"longitude":-112.283364},"id":"Q1640231","coordinates":[19216,70298]},{"type":"Point","properties":{"name":"Guerrero Negro","scalerank":7,"subregion":"Baja California Sur","latitude":27.990422,"longitude":-114.169967},"id":"Q957163","coordinates":[13259,74004]},{"type":"Point","properties":{"name":"Piedras Negras","scalerank":7,"subregion":"Coahuila","latitude":28.707639,"longitude":-100.531652},"id":"Q1856408","coordinates":[56325,77952]},{"type":"Point","properties":{"name":"San Pedro de las Colonias","scalerank":7,"subregion":"Coahuila","latitude":25.759215,"longitude":-102.982691},"id":"Q2449386","coordinates":[48585,61722]},{"type":"Point","properties":{"name":"Sierra Mojada","scalerank":7,"subregion":"Coahuila","latitude":27.287571,"longitude":-103.287195},"id":"Q2000131","coordinates":[46314,70143]},{"type":"Point","properties":{"name":"Parras","scalerank":7,"subregion":"Coahuila","latitude":25.420398,"longitude":-102.179949},"id":"Q1861513","coordinates":[51120,59857]},{"type":"Point","properties":{"name":"Cuauhtémoc","scalerank":7,"subregion":"Chihuahua","latitude":28.425744,"longitude":-106.869586},"id":"Q2656480","coordinates":[36311,76400]},{"type":"Point","properties":{"name":"Nuevo Casas Grandes","scalerank":7,"subregion":"Chihuahua","latitude":30.418491,"longitude":-107.911899},"id":"Q1858936","coordinates":[33020,87370]},{"type":"Point","properties":{"name":"Ojinaga","scalerank":7,"subregion":"Chihuahua","latitude":29.540405,"longitude":-104.41002},"id":"Q1971351","coordinates":[44078,82536]},{"type":"Point","properties":{"name":"Villa Ahumada","scalerank":7,"subregion":"Chihuahua","latitude":30.610443,"longitude":-106.509995},"id":"Q20148488","coordinates":[37447,88426]},{"type":"Point","properties":{"name":"Santa Barbara","scalerank":7,"subregion":"Chihuahua","latitude":26.800443,"longitude":-105.820037},"id":"Q522152","coordinates":[39625,67454]},{"type":"Point","properties":{"name":"Ciudad Camargo","scalerank":7,"subregion":"Chihuahua","latitude":27.690414,"longitude":-105.170051},"id":"Q2528602","coordinates":[41678,72353]},{"type":"Point","properties":{"name":"Cuencame","scalerank":7,"subregion":"Durango","latitude":24.870406,"longitude":-103.699986},"id":"Q933194","coordinates":[46320,56830]},{"type":"Point","properties":{"name":"Papasquiaro","scalerank":7,"subregion":"Durango","latitude":24.830408,"longitude":-105.339989},"id":"Q2465593","coordinates":[41141,56610]},{"type":"Point","properties":{"name":"Escuinapa","scalerank":7,"subregion":"Sinaloa","latitude":22.850426,"longitude":-105.799987},"id":"Q7467918","coordinates":[39689,45711]},{"type":"Point","properties":{"name":"Guamúchil","scalerank":7,"subregion":"Sinaloa","latitude":25.470369,"longitude":-108.090002},"id":"Q1552698","coordinates":[32457,60132]},{"type":"Point","properties":{"name":"Guasave","scalerank":7,"subregion":"Sinaloa","latitude":25.570492,"longitude":-108.469979},"id":"Q588515","coordinates":[31258,60683]},{"type":"Point","properties":{"name":"El Fuerte","scalerank":7,"subregion":"Sinaloa","latitude":26.420414,"longitude":-108.619996},"id":"Q1324181","coordinates":[30784,65362]},{"type":"Point","properties":{"name":"Eldorado","scalerank":7,"subregion":"Sinaloa","latitude":24.330465,"longitude":-107.369994},"id":"Q5351160","coordinates":[34731,53858]},{"type":"Point","properties":{"name":"La Cruz","scalerank":7,"subregion":"Sinaloa","latitude":23.920412,"longitude":-106.900023},"id":"Q2012391","coordinates":[36215,51601]},{"type":"Point","properties":{"name":"Agua Prieta","scalerank":7,"subregion":"Sonora","latitude":31.322338,"longitude":-109.563039},"id":"Q397759","coordinates":[27806,92345]},{"type":"Point","properties":{"name":"Ciudad Obregon","scalerank":7,"subregion":"Sonora","latitude":27.466604,"longitude":-109.924981},"id":"Q681340","coordinates":[26663,71121]},{"type":"Point","properties":{"name":"Navajoa","scalerank":7,"subregion":"Sonora","latitude":27.081899,"longitude":-109.454622},"id":"Q1001522","coordinates":[28148,69003]},{"type":"Point","properties":{"name":"Caborca","scalerank":7,"subregion":"Sonora","latitude":30.716147,"longitude":-112.16425},"id":"Q1024929","coordinates":[19592,89008]},{"type":"Point","properties":{"name":"Mazatlán","scalerank":7,"subregion":"Sonora","latitude":29.017104,"longitude":-110.13334},"id":"Q3311957","coordinates":[26005,79656]},{"type":"Point","properties":{"name":"Cananea","scalerank":7,"subregion":"Sonora","latitude":30.99042,"longitude":-110.300048},"id":"Q176924","coordinates":[25479,90518]},{"type":"Point","properties":{"name":"Huatabampo","scalerank":7,"subregion":"Sonora","latitude":26.830415,"longitude":-109.630037},"id":"Q1632892","coordinates":[27594,67619]},{"type":"Point","properties":{"name":"Zacatecas","scalerank":7,"subregion":"Zacatecas","latitude":22.770431,"longitude":-102.580003},"id":"Q139242","coordinates":[49856,45270]},{"type":"Point","properties":{"name":"Juan Aldama","scalerank":7,"subregion":"Zacatecas","latitude":24.290415,"longitude":-103.389979},"id":"Q6298792","coordinates":[47299,53637]},{"type":"Point","properties":{"name":"Valparaíso","scalerank":7,"subregion":"Zacatecas","latitude":22.770431,"longitude":-103.569968},"id":"Q2651632","coordinates":[46730,45270]},{"type":"Point","properties":{"name":"Fresnillo","scalerank":7,"subregion":"Zacatecas","latitude":23.170432,"longitude":-102.859985},"id":"Q1816543","coordinates":[48972,47472]},{"type":"Point","properties":{"name":"Linares","scalerank":7,"subregion":"Nuevo León","latitude":24.860381,"longitude":-99.570031},"id":"Q991413","coordinates":[59361,56775]},{"type":"Point","properties":{"name":"Matehuala","scalerank":7,"subregion":"San Luis Potosí","latitude":23.660376,"longitude":-100.650017},"id":"Q665723","coordinates":[55951,50169]},{"type":"Point","properties":{"name":"Tamuín","scalerank":7,"subregion":"San Luis Potosí","latitude":21.980375,"longitude":-98.750004},"id":"Q2655761","coordinates":[61950,40921]},{"type":"Point","properties":{"name":"Tamazunchale","scalerank":7,"subregion":"San Luis Potosí","latitude":21.270419,"longitude":-98.77995},"id":"Q2471832","coordinates":[61856,37013]},{"type":"Point","properties":{"name":"Tula","scalerank":7,"subregion":"Tamaulipas","latitude":23.000391,"longitude":-99.719996},"id":"Q2000148","coordinates":[58888,46536]},{"type":"Point","properties":{"name":"Aldama","scalerank":7,"subregion":"Tamaulipas","latitude":22.920421,"longitude":-98.069968},"id":"Q3851217","coordinates":[64098,46096]},{"type":"Point","properties":{"name":"San Fernando","scalerank":7,"subregion":"Tamaulipas","latitude":24.850433,"longitude":-98.160014},"id":"Q745811","coordinates":[63813,56720]},{"type":"Point","properties":{"name":"Tecoman","scalerank":7,"subregion":"Colima","latitude":18.920381,"longitude":-103.879975},"id":"Q3850513","coordinates":[45752,24078]},{"type":"Point","properties":{"name":"Puerto Vallarta","scalerank":7,"subregion":"Jalisco","latitude":20.677096,"longitude":-105.244982},"id":"Q853258","coordinates":[41441,33747]},{"type":"Point","properties":{"name":"La Barca","scalerank":7,"subregion":"Jalisco","latitude":20.280376,"longitude":-102.560004},"id":"Q568688","coordinates":[49920,31564]},{"type":"Point","properties":{"name":"Ciudad Guzman","scalerank":7,"subregion":"Jalisco","latitude":19.710411,"longitude":-103.46},"id":"Q1094355","coordinates":[47078,28426]},{"type":"Point","properties":{"name":"Lagos de Moreno","scalerank":7,"subregion":"Jalisco","latitude":21.370413,"longitude":-101.929991},"id":"Q1962295","coordinates":[51909,37564]},{"type":"Point","properties":{"name":"Morelia","scalerank":7,"subregion":"Michoacán","latitude":19.733381,"longitude":-101.189493},"id":"Q200252","coordinates":[54247,28553]},{"type":"Point","properties":{"name":"Lázaro Cárdenas","scalerank":7,"subregion":"Michoacán","latitude":17.958709,"longitude":-102.199974},"id":"Q1785340","coordinates":[51056,18784]},{"type":"Point","properties":{"name":"Zamora","scalerank":7,"subregion":"Michoacán","latitude":19.980368,"longitude":-102.280021},"id":"Q145865","coordinates":[50804,29912]},{"type":"Point","properties":{"name":"Coalcoman","scalerank":7,"subregion":"Michoacán","latitude":18.78039,"longitude":-103.149968},"id":"Q3847177","coordinates":[48057,23307]},{"type":"Point","properties":{"name":"Uruapan","scalerank":7,"subregion":"Michoacán","latitude":19.420377,"longitude":-102.070008},"id":"Q399270","coordinates":[51467,26830]},{"type":"Point","properties":{"name":"Tuxpan","scalerank":7,"subregion":"Nayarit","latitude":21.930404,"longitude":-105.269968},"id":"Q2652089","coordinates":[41362,40646]},{"type":"Point","properties":{"name":"Tepic","scalerank":7,"subregion":"Nayarit","latitude":21.505392,"longitude":-104.879991},"id":"Q207972","coordinates":[42594,38307]},{"type":"Point","properties":{"name":"Compostela","scalerank":7,"subregion":"Nayarit","latitude":21.230421,"longitude":-104.89999},"id":"Q2651919","coordinates":[42531,36793]},{"type":"Point","properties":{"name":"Tecuala","scalerank":7,"subregion":"Nayarit","latitude":22.400427,"longitude":-105.459982},"id":"Q2449012","coordinates":[40762,43234]},{"type":"Point","properties":{"name":"Ciudad del Carmen","scalerank":7,"subregion":"Campeche","latitude":18.653659,"longitude":-91.82448},"id":"Q991435","coordinates":[83819,22609]},{"type":"Point","properties":{"name":"Champotón","scalerank":7,"subregion":"Campeche","latitude":19.350433,"longitude":-90.720003},"id":"Q584115","coordinates":[87307,26445]},{"type":"Point","properties":{"name":"Salina Cruz","scalerank":7,"subregion":"Oaxaca","latitude":16.167061,"longitude":-95.199988},"id":"Q1640261","coordinates":[73160,8922]},{"type":"Point","properties":{"name":"Puerto Escondido","scalerank":7,"subregion":"Oaxaca","latitude":15.85918,"longitude":-97.065888},"id":"Q1752991","coordinates":[67268,7227]},{"type":"Point","properties":{"name":"Pochutla","scalerank":7,"subregion":"Oaxaca","latitude":15.730395,"longitude":-96.469988},"id":"Q602726","coordinates":[69150,6518]},{"type":"Point","properties":{"name":"Mitla","scalerank":7,"subregion":"Oaxaca","latitude":16.917041,"longitude":-96.399992},"id":"Q1366027","coordinates":[69371,13050]},{"type":"Point","properties":{"name":"Tlaxiaco","scalerank":7,"subregion":"Oaxaca","latitude":17.270405,"longitude":-97.680017},"id":"Q2652096","coordinates":[65329,14995]},{"type":"Point","properties":{"name":"Huajuapan de León","scalerank":7,"subregion":"Oaxaca","latitude":17.810372,"longitude":-97.789985},"id":"Q1005759","coordinates":[64982,17967]},{"type":"Point","properties":{"name":"Tehuacan","scalerank":7,"subregion":"Puebla","latitude":18.450358,"longitude":-97.379984},"id":"Q842261","coordinates":[66277,21490]},{"type":"Point","properties":{"name":"Teziutlán","scalerank":7,"subregion":"Puebla","latitude":19.82043,"longitude":-97.359985},"id":"Q7708625","coordinates":[66340,29032]},{"type":"Point","properties":{"name":"Frontera","scalerank":7,"subregion":"Tabasco","latitude":18.580376,"longitude":-92.649988},"id":"Q2448297","coordinates":[81213,22206]},{"type":"Point","properties":{"name":"Tenosique","scalerank":7,"subregion":"Tabasco","latitude":17.480366,"longitude":-91.429985},"id":"Q2656511","coordinates":[85065,16151]},{"type":"Point","properties":{"name":"Salamanca","scalerank":7,"subregion":"Guanajuato","latitude":20.57041,"longitude":-101.200009},"id":"Q1801321","coordinates":[54214,33160]},{"type":"Point","properties":{"name":"Guanajuato","scalerank":7,"subregion":"Guanajuato","latitude":21.020408,"longitude":-101.279979},"id":"Q61306","coordinates":[53962,35637]},{"type":"Point","properties":{"name":"Taxco","scalerank":7,"subregion":"Guerrero","latitude":18.570377,"longitude":-99.619951},"id":"Q990095","coordinates":[59203,22151]},{"type":"Point","properties":{"name":"Ayutla","scalerank":7,"subregion":"Guerrero","latitude":16.900375,"longitude":-99.220001},"id":"Q957478","coordinates":[60862,13310]},{"type":"Point","properties":{"name":"Ciudad Altamirano","scalerank":7,"subregion":"Guerrero","latitude":18.320392,"longitude":-100.650017},"id":"Q2000092","coordinates":[55951,20775]},{"type":"Point","properties":{"name":"Petatlán","scalerank":7,"subregion":"Guerrero","latitude":17.520415,"longitude":-101.270031},"id":"Q4360151","coordinates":[53993,16371]},{"type":"Point","properties":{"name":"Pachuca","scalerank":7,"subregion":"Hidalgo","latitude":20.170434,"longitude":-98.730031},"id":"Q160750","coordinates":[61996,30606]},{"type":"Point","properties":{"name":"Toluca","scalerank":7,"subregion":"México","latitude":19.332328,"longitude":-99.671945},"id":"Q209034","coordinates":[59098,26108]},{"type":"Point","properties":{"name":"Zumpango","scalerank":7,"subregion":"México","latitude":19.810405,"longitude":-99.109982},"id":"Q1115965","coordinates":[60814,28977]},{"type":"Point","properties":{"name":"Minatitlán","scalerank":7,"subregion":"Veracruz","latitude":17.980465,"longitude":-94.530003},"id":"Q991006","coordinates":[75276,18904]},{"type":"Point","properties":{"name":"Coatzacoalcos","scalerank":7,"subregion":"Veracruz","latitude":18.120404,"longitude":-94.42001},"id":"Q502023","coordinates":[75623,19674]},{"type":"Point","properties":{"name":"Poza Rica de Hidalgo","scalerank":7,"subregion":"Veracruz","latitude":20.550437,"longitude":-97.469979},"id":"Q1010503","coordinates":[66075,32914]},{"type":"Point","properties":{"name":"Córdoba","scalerank":7,"subregion":"Veracruz","latitude":18.920381,"longitude":-96.919986},"id":"Q989492","coordinates":[67729,24078]},{"type":"Point","properties":{"name":"Santiago Tuxtla","scalerank":7,"subregion":"Veracruz","latitude":18.470383,"longitude":-95.299982},"id":"Q4769997","coordinates":[72845,21600]},{"type":"Point","properties":{"name":"Tuxpam","scalerank":7,"subregion":"Veracruz","latitude":20.960412,"longitude":-97.409982},"id":"Q1010971","coordinates":[66182,35307]},{"type":"Point","properties":{"name":"Pánuco","scalerank":7,"subregion":"Veracruz","latitude":22.060448,"longitude":-98.189986},"id":"Q2991100","coordinates":[63719,41362]},{"type":"Point","properties":{"name":"Pijijiapan","scalerank":7,"subregion":"Chiapas","latitude":15.690398,"longitude":-93.220031},"id":"Q2571410","coordinates":[79413,6298]},{"type":"Point","properties":{"name":"Isla Mujeres","scalerank":7,"subregion":"Quintana Roo","latitude":21.208391,"longitude":-86.711455},"id":"Q927815","coordinates":[99965,36672]},{"type":"Point","properties":{"name":"Felipe Carrillo Puerto","scalerank":7,"subregion":"Quintana Roo","latitude":19.580393,"longitude":-88.049985},"id":"Q1403187","coordinates":[95738,27711]},{"type":"Point","properties":{"name":"Tizimín","scalerank":7,"subregion":"Yucatán","latitude":21.130427,"longitude":-88.149979},"id":"Q2085590","coordinates":[95422,36243]},{"type":"Point","properties":{"name":"Valladolid","scalerank":7,"subregion":"Yucatán","latitude":20.670404,"longitude":-88.200002},"id":"Q1024731","coordinates":[95264,33711]},{"type":"Point","properties":{"name":"Izamal","scalerank":7,"subregion":"Yucatán","latitude":20.930414,"longitude":-89.020055},"id":"Q1020762","coordinates":[92675,35142]},{"type":"Point","properties":{"name":"Ticul","scalerank":7,"subregion":"Yucatán","latitude":20.400394,"longitude":-89.530024},"id":"Q2657301","coordinates":[91064,32224]},{"type":"Point","properties":{"name":"Ensenada","scalerank":6,"subregion":"Baja California","latitude":31.869979,"longitude":-116.619998},"id":"Q656189","coordinates":[5522,95359]},{"type":"Point","properties":{"name":"Saltillo","scalerank":6,"subregion":"Coahuila","latitude":25.421905,"longitude":-101.006928},"id":"Q53077","coordinates":[54824,59866]},{"type":"Point","properties":{"name":"Ciudad Juárez","scalerank":6,"subregion":"Chihuahua","latitude":31.692323,"longitude":-106.491994},"id":"Q26590","coordinates":[37504,94382]},{"type":"Point","properties":{"name":"Delicias","scalerank":6,"subregion":"Chihuahua","latitude":28.19997,"longitude":-105.499979},"id":"Q1962715","coordinates":[40636,75158]},{"type":"Point","properties":{"name":"Durango","scalerank":6,"subregion":"Durango","latitude":24.031103,"longitude":-104.67003},"id":"Q112813","coordinates":[43257,52210]},{"type":"Point","properties":{"name":"Los Mochis","scalerank":6,"subregion":"Sinaloa","latitude":25.789988,"longitude":-108.999998},"id":"Q752460","coordinates":[29584,61892]},{"type":"Point","properties":{"name":"Ciudad Victoria","scalerank":6,"subregion":"Tamaulipas","latitude":23.719959,"longitude":-99.129981},"id":"Q331661","coordinates":[60751,50497]},{"type":"Point","properties":{"name":"Aguascalientes","scalerank":6,"subregion":"Aguascalientes","latitude":21.881406,"longitude":-102.292359},"id":"Q200805","coordinates":[50765,40377]},{"type":"Point","properties":{"name":"Manzanillo","scalerank":6,"subregion":"Colima","latitude":19.049587,"longitude":-104.323085},"id":"Q739908","coordinates":[44352,24789]},{"type":"Point","properties":{"name":"Tehuantepec","scalerank":6,"subregion":"Oaxaca","latitude":16.329997,"longitude":-95.229986},"id":"Q629479","coordinates":[73066,9819]},{"type":"Point","properties":{"name":"Villahermosa","scalerank":6,"subregion":"Tabasco","latitude":17.999972,"longitude":-92.899973},"id":"Q210886","coordinates":[80423,19011]},{"type":"Point","properties":{"name":"Cuernavaca","scalerank":6,"subregion":"Morelos","latitude":18.921105,"longitude":-99.24},"id":"Q204245","coordinates":[60403,24082]},{"type":"Point","properties":{"name":"Querétaro","scalerank":6,"subregion":"Querétaro","latitude":20.631964,"longitude":-100.381928},"id":"Q173121","coordinates":[56782,33200]},{"type":"Point","properties":{"name":"Tapachula","scalerank":6,"subregion":"Chiapas","latitude":14.899981,"longitude":-92.269986},"id":"Q988225","coordinates":[82412,1947]},{"type":"Point","properties":{"name":"Chetumal","scalerank":6,"subregion":"Quintana Roo","latitude":18.500019,"longitude":-88.299996},"id":"Q459553","coordinates":[94949,21764]},{"type":"Point","properties":{"name":"Progreso","scalerank":6,"subregion":"Yucatán","latitude":21.283312,"longitude":-89.666579},"id":"Q657637","coordinates":[90633,37084]},{"type":"Point","properties":{"name":"Cabo San Lucas","scalerank":6,"subregion":"Baja California Sur","latitude":22.892756,"longitude":-109.904516},"id":"Q1020776","coordinates":[26728,45944]},{"type":"Point","properties":{"name":"Monclova","scalerank":6,"subregion":"Coahuila","latitude":26.899998,"longitude":-101.419996},"id":"Q990007","coordinates":[53519,68002]},{"type":"Point","properties":{"name":"Ometepec","scalerank":6,"subregion":"Guerrero","latitude":16.680053,"longitude":-98.420024},"id":"Q2991571","coordinates":[62992,11745]},{"type":"Point","properties":{"name":"Cozumel","scalerank":6,"subregion":"Quintana Roo","latitude":20.51,"longitude":-86.95},"id":"Q929946","coordinates":[99211,32828]},{"type":"Point","properties":{"name":"Mexicali","scalerank":4,"subregion":"Baja California","latitude":32.651928,"longitude":-115.481962},"id":"Q199440","coordinates":[9116,99664]},{"type":"Point","properties":{"name":"La Paz","scalerank":4,"subregion":"Baja California Sur","latitude":24.139959,"longitude":-110.319995},"id":"Q214215","coordinates":[25416,52809]},{"type":"Point","properties":{"name":"Torreón","scalerank":4,"subregion":"Coahuila","latitude":25.571999,"longitude":-103.421949},"id":"Q386991","coordinates":[47198,60692]},{"type":"Point","properties":{"name":"Culiacán","scalerank":4,"subregion":"Sinaloa","latitude":24.831941,"longitude":-107.381914},"id":"Q211760","coordinates":[34693,56618]},{"type":"Point","properties":{"name":"Nogales","scalerank":4,"subregion":"Sonora","latitude":31.305,"longitude":-110.944996},"id":"Q79783","coordinates":[23442,92249]},{"type":"Point","properties":{"name":"Hermosillo","scalerank":4,"subregion":"Sonora","latitude":29.098881,"longitude":-110.954065},"id":"Q189138","coordinates":[23414,80106]},{"type":"Point","properties":{"name":"Guaymas","scalerank":4,"subregion":"Sonora","latitude":27.930012,"longitude":-110.889986},"id":"Q985521","coordinates":[23616,73672]},{"type":"Point","properties":{"name":"San Luis Potosí","scalerank":4,"subregion":"San Luis Potosí","latitude":22.171922,"longitude":-101.001941},"id":"Q204271","coordinates":[54839,41976]},{"type":"Point","properties":{"name":"Matamoros","scalerank":4,"subregion":"Tamaulipas","latitude":25.879982,"longitude":-97.500003},"id":"Q738353","coordinates":[65898,62387]},{"type":"Point","properties":{"name":"Nuevo Laredo","scalerank":4,"subregion":"Tamaulipas","latitude":27.499987,"longitude":-99.550007},"id":"Q328846","coordinates":[59424,71305]},{"type":"Point","properties":{"name":"Colima","scalerank":4,"subregion":"Colima","latitude":19.229975,"longitude":-103.72001},"id":"Q61320","coordinates":[46257,25782]},{"type":"Point","properties":{"name":"Campeche","scalerank":4,"subregion":"Campeche","latitude":19.82999,"longitude":-90.499991},"id":"Q61301","coordinates":[88002,29085]},{"type":"Point","properties":{"name":"Oaxaca","scalerank":4,"subregion":"Oaxaca","latitude":17.08269,"longitude":-96.66995},"id":"Q131429","coordinates":[68519,13962]},{"type":"Point","properties":{"name":"León","scalerank":4,"subregion":"Guanajuato","latitude":21.151933,"longitude":-101.701976},"id":"Q189128","coordinates":[52629,36361]},{"type":"Point","properties":{"name":"Tijuana","scalerank":3,"subregion":"Baja California","latitude":32.501963,"longitude":-117.081942},"id":"Q124739","coordinates":[4064,98838]},{"type":"Point","properties":{"name":"Chihuahua","scalerank":3,"subregion":"Chihuahua","latitude":28.646927,"longitude":-106.086928},"id":"Q61302","coordinates":[38783,77618]},{"type":"Point","properties":{"name":"Mazatlán","scalerank":3,"subregion":"Sinaloa","latitude":23.221101,"longitude":-106.420001},"id":"Q40194","coordinates":[37731,47751]},{"type":"Point","properties":{"name":"Tampico","scalerank":3,"subregion":"Tamaulipas","latitude":22.30002,"longitude":-97.870006},"id":"Q273014","coordinates":[64729,42681]},{"type":"Point","properties":{"name":"Acapulco","scalerank":3,"subregion":"Guerrero","latitude":16.849991,"longitude":-99.915979},"id":"Q81398","coordinates":[58269,12681]},{"type":"Point","properties":{"name":"Veracruz","scalerank":3,"subregion":"Veracruz","latitude":19.177342,"longitude":-96.159981},"id":"Q173270","coordinates":[70129,25492]},{"type":"Point","properties":{"name":"Tuxtla Gutiérrez","scalerank":3,"subregion":"Chiapas","latitude":16.749997,"longitude":-93.15001},"id":"Q207429","coordinates":[79634,12131]},{"type":"Point","properties":{"name":"Cancún","scalerank":3,"subregion":"Quintana Roo","latitude":21.16996,"longitude":-86.830008},"id":"Q8969","coordinates":[99590,36460]},{"type":"Point","properties":{"name":"Mérida","scalerank":3,"subregion":"Yucatán","latitude":20.968585,"longitude":-89.618579},"id":"Q165204","coordinates":[90785,35352]},{"type":"Point","properties":{"name":"Guadalajara","scalerank":2,"subregion":"Jalisco","latitude":20.671962,"longitude":-103.33198},"id":"Q9022","coordinates":[47482,33719]},{"type":"Point","properties":{"name":"Puebla","scalerank":2,"subregion":"Puebla","latitude":19.051906,"longitude":-98.201983},"id":"Q125293","coordinates":[63675,24695]},{"type":"Point","properties":{"name":"Monterrey","scalerank":1,"subregion":"Nuevo León","latitude":25.671941,"longitude":-100.331931},"id":"Q81033","coordinates":[56955,61242]},{"type":"Point","properties":{"name":"Mexico City","scalerank":0,"subregion":"Distrito Federal","latitude":19.444388,"longitude":-99.132934},"id":"Q1489","coordinates":[60741,26962]}]}},"arcs":[[[11208,98824],[2708,-1460],[1293,-697],[2584,-1393],[2585,-1393],[1292,-696],[1387,-778],[192,-35],[1530,0],[1889,0],[2158,0],[858,1]],[[29684,92373],[-112,-1379],[-125,-1368],[50,-154],[719,-904],[332,-198],[301,-348],[50,-167],[148,-2576],[-59,-221],[-50,-791],[-133,-2462],[-298,-37],[264,-3467],[43,-156],[-110,-599],[-1,-144],[136,-654],[170,-708],[27,-221],[-271,-414],[-99,-27],[-703,270],[-298,12],[-300,-82],[-235,-327],[-6,-217],[395,-1488],[59,-123],[302,-268],[110,-436],[344,-451],[-51,-292],[134,-234],[209,-229],[52,-158],[-38,-639],[89,-436],[-140,-341],[13,-377],[253,-617],[115,-223],[225,-49],[74,-231]],[[31269,68442],[-102,-549],[-27,-433],[-941,-1229],[-625,-785],[-401,-480],[-29,-92]],[[29144,64874],[-55,179],[-174,4],[-89,-162],[-41,74],[44,388],[-53,432],[-184,389],[-138,158],[-223,410],[-41,235],[-204,80],[-72,123],[-76,-189],[98,-49],[-27,-132],[-234,68],[-137,-17],[-51,-107],[-329,179],[-200,326],[-78,194],[-48,384],[-222,752],[185,-366],[-79,307],[-28,349],[-205,303],[-156,-9],[-98,-175],[-89,116],[-622,251],[-155,130],[-212,404],[-192,209],[-189,92],[272,-41],[40,51],[-234,504],[-129,-117],[-56,342],[-92,83],[-4,344],[-120,532],[31,269],[120,60],[-32,298],[130,112],[-163,53],[33,214],[-84,115],[92,137],[207,41],[-39,118],[-184,119],[-101,-80],[-149,140],[-224,86],[-339,0],[129,75],[-60,304],[-74,34],[-31,-299],[-95,-192],[88,-130],[-74,-206],[-101,223],[-150,150],[86,75],[-192,241],[-189,-149],[-356,292],[-154,299],[-95,42],[-157,426],[-102,171],[-24,247],[-103,68],[-67,309],[-141,191],[-62,213],[64,220],[-112,-34],[-356,190],[-385,246],[-165,681],[-505,749],[-91,201],[173,133],[117,-101],[-34,225],[-179,-8],[-134,218],[-199,111],[-52,190],[-185,338],[-207,86],[59,79],[-107,481],[67,194],[-83,313],[-113,119],[49,354],[-88,344],[-236,84],[-60,-187],[-247,265],[-27,172],[133,478],[-30,195],[-136,121],[-5,226],[-234,306],[-94,393],[-162,244],[-28,213],[-133,301],[-64,316],[-88,134],[-137,-26],[-69,117],[66,491],[-89,252],[17,697],[-176,400],[-163,58],[38,107],[3,401],[-73,370],[-365,571],[-295,761],[-155,781],[57,170],[35,350],[0,398],[-98,393],[46,35],[104,-372],[87,228],[22,693],[-136,250],[-169,95],[21,-131],[-184,163],[-113,346],[-136,-54],[147,-182],[-1009,278],[-30,110],[-202,55],[-67,89],[108,61],[-84,451],[4,170],[-79,175],[-363,362],[-93,6],[-226,178],[-29,99],[-173,-78],[-120,345],[-7,-370],[91,-154],[-171,-234],[-75,-187],[-411,17],[-407,318],[-125,233],[-526,455],[-286,459],[-292,18],[-220,253],[-148,36],[-154,248],[-288,260]],[[10847,95573],[-1,610],[-146,386],[77,285],[-89,391],[-176,356],[184,354],[41,410],[74,258],[124,159],[273,42]],[[26286,69031],[274,-193],[62,-169],[-169,237],[-167,125]],[[24518,70303],[32,76],[201,-173],[-12,-88],[-221,185]],[[19244,78287],[-111,-122],[-156,66],[-170,230],[-133,3],[-39,103],[-365,308],[180,185],[126,345],[-45,104],[0,469],[63,436],[132,260],[117,-70],[122,156],[257,43],[57,-180],[-29,-304],[118,-231],[125,-409],[-133,-798],[-121,-390],[5,-204]],[[11313,94991],[98,-29],[142,-187],[181,-408],[-129,113],[-69,-83],[-149,113],[-112,226],[38,255]],[[28853,64498],[19,391],[194,-17],[24,-129]],[[29090,64743],[-237,-245]],[[28659,64352],[97,370],[34,-81],[-102,-269]],[[28688,64372],[-29,-20]],[[10847,95573],[-182,88],[-139,227],[105,-314],[357,-290],[193,-366],[38,-389],[111,-348],[-136,-305],[-92,-407],[2,-755],[-72,-334],[8,-309],[-51,-604],[78,-403],[160,-218],[-60,-239],[91,-165],[263,-196],[104,-1079],[-57,-183],[22,-410],[154,-455],[60,-329],[4,-386],[-68,-813],[34,-73],[-64,-443],[253,-609],[-4,-119],[153,-457],[164,-114],[27,-156],[142,-64],[112,-684],[166,-211],[134,-13],[82,163],[198,-150],[307,-505],[154,-130],[51,-182],[206,-157],[120,-237],[349,-493],[195,-151],[284,-505],[141,-186],[42,-162],[-106,-189],[102,-308],[142,-199],[137,-413],[-82,-152],[47,-356],[-34,-59],[104,-312],[137,10],[9,291],[139,75],[216,-503],[37,-376],[140,10],[157,209],[83,-24],[120,-240],[6,-265],[120,-475],[75,-90],[3,-202],[90,-551],[320,-269],[313,108],[177,-188],[-10,-323],[-65,-284],[-6,-259],[270,-483],[-80,-416],[71,-292],[-31,-275],[113,-99]],[[17700,74054],[-1110,4],[-2993,2]],[[13597,74060],[79,202],[-195,98],[-43,360],[176,472],[-39,183],[-174,90],[138,480],[122,635],[-91,157],[10,171],[-133,242],[-157,23],[-18,445],[-58,82],[-277,-17],[-11,206],[-122,166],[-104,24],[-76,454],[-65,-35],[-34,294],[-235,379],[-168,-20],[-99,303],[-96,-83],[-34,357],[-91,353],[-286,127],[-69,386],[-131,36],[-590,1011],[-417,226],[-262,54],[-143,338],[-169,219],[-270,149],[-254,348],[-148,-48],[-118,131],[-182,314],[-90,17],[-238,333],[37,412],[-44,371],[-198,307],[-142,13],[76,751],[-58,278],[11,535],[-28,241],[-95,343],[-302,296],[-134,6],[121,186],[-10,156],[-155,187],[82,-213],[-62,-147],[-62,97],[72,-497],[-78,-1],[-142,663],[58,812],[-18,568],[-99,456],[-119,31],[-146,215],[-75,13],[-234,532],[-270,-3],[82,1058],[-101,391],[-356,655],[-137,376],[-103,184],[-208,207],[-41,130],[-210,282],[87,586],[-65,208],[-148,77],[-110,228],[281,-160],[131,267],[31,280],[-31,192],[-179,62],[-58,117],[-189,108],[-48,375],[-229,48],[-104,264],[-36,537],[-114,481],[-81,152],[-242,164],[-295,978],[-21,425],[2578,337],[1857,245],[1858,245],[1288,170],[-85,-334],[-162,-317],[22,-233],[-75,-291]],[[10022,75936],[102,-441],[-30,-268],[52,-395],[-95,-191],[13,-432],[-228,70],[-25,164],[-132,135],[-172,-67],[76,233],[298,599],[-72,358],[44,334],[106,104],[63,-203]],[[17289,77787],[104,-32],[342,-444],[-68,-85],[-76,188],[-302,373]],[[18175,78052],[206,15],[-19,-309],[-149,25],[-38,269]],[[16517,79919],[114,-65],[-40,-378],[-363,413],[-224,471],[-169,141],[-243,397],[-60,203],[-145,30],[-27,173],[-267,512],[2,260],[75,280],[-20,178],[190,51],[108,-95],[257,-400],[144,-414],[-74,-126],[9,-282],[230,-163],[362,51],[36,-350],[-9,-533],[114,-354]],[[13485,74058],[-32,168],[117,-167]],[[13570,74059],[-85,-1]],[[13142,74057],[229,462],[54,-224],[-95,-237]],[[13330,74058],[-188,-1]],[[370,80054],[70,-153],[28,-256],[-16,-551],[-81,-168],[-102,44],[-65,581],[-61,230],[-101,149],[-42,261],[38,193],[191,202],[128,-29],[-96,-245],[109,-258]],[[29684,92373],[2379,0],[-1,2479],[1308,-6],[2451,-10],[1603,-6],[139,-103],[140,19],[222,-226],[146,-379],[82,-377],[169,-331],[74,-235],[142,-162],[313,-203],[191,-77],[138,-143],[104,-245],[209,-210],[244,-426],[52,-171],[316,-287],[244,-310],[110,-379],[444,-551],[163,-287],[425,-221],[302,-288],[147,-265],[248,-180],[81,-310],[132,-37],[172,-342],[100,-740],[116,-203],[217,-639],[108,-113],[106,-281],[-9,-450],[-46,-439],[59,-491],[135,-299],[57,-302],[156,-251],[124,-658],[239,-300],[35,-133],[300,-284],[259,-61],[173,-231],[56,-196],[173,-267],[109,-82],[152,-256],[407,-254],[423,-85],[52,-232],[331,-340],[415,-136],[199,-368],[336,-321],[93,96],[99,-83]],[[47547,79705],[-256,-785],[-781,-2302],[-384,-1165],[-398,-1176],[-240,-667],[225,-1534],[652,-4244],[185,-1240]],[[46550,66592],[-993,641],[-217,91],[-332,-21],[-239,-100],[-137,-174],[-330,-724],[-571,-1212],[-117,-171],[-129,58],[-235,333],[-330,319],[-179,95],[-341,93],[-147,0],[-121,-243],[-55,48],[-231,464],[-605,-498],[-60,-14],[-722,624],[-131,167],[-262,527],[-404,-31],[-129,117],[-563,683],[-203,-571],[-72,143],[-136,-104],[-38,-712],[-174,-292],[95,-445],[-3,-184],[-99,-88],[-551,-266],[-97,-106],[16,-332],[144,-541],[26,-196],[-82,-546],[-86,-161],[-168,-8],[-142,-247],[-25,-1009],[-37,-163],[-557,-807],[-121,-71],[-561,117]],[[36099,61075],[-439,483],[-161,351],[-155,203],[-264,216],[-44,380],[-128,151],[-94,650],[-55,125],[-167,128],[-1089,359],[-101,274],[-81,997],[-59,956],[-57,258],[-193,322],[-269,604],[-48,175],[-21,405],[-402,167],[-153,113],[-180,386],[-111,75],[-157,-19],[-111,145],[-291,-537]],[[47547,79705],[31,-131],[189,7],[296,-102],[80,63],[57,338],[75,150],[205,229],[146,364],[70,-60],[160,211],[120,49],[-128,258],[51,373],[144,124],[-11,396],[194,848],[58,61],[246,772],[196,20],[172,131],[64,-73],[99,148],[345,-41],[82,188],[17,202],[169,252],[214,-213],[157,-50],[298,-242],[433,88],[134,-112],[133,80],[258,-2],[36,-89],[512,-111],[164,33],[107,212],[78,-298],[161,140],[78,-112],[129,40],[-4,-140],[133,-420],[200,-149],[-35,-285],[168,123],[126,-54],[-24,-308],[290,-367],[306,-152],[50,-328],[109,-188],[230,-161],[160,-256],[151,-109],[171,-342],[-1,-192],[191,-276],[104,-41],[126,-726],[15,-328],[183,-302],[149,-357],[80,-532],[154,-355],[-4,-96],[155,-185],[41,-306],[195,-148],[-92,-75],[92,-604],[139,-308],[-19,-190],[138,-258],[110,-37],[26,-197],[388,-290],[94,-326],[216,-566],[153,-92],[-36,-80],[192,-326],[-39,-143],[93,-219],[-5,-173],[178,-183]],[[58613,72799],[-506,-723],[-104,89],[-574,755],[-471,-511],[-86,-146],[-84,-395],[-159,-1226],[-160,-192],[-82,116],[-365,-209],[-160,-254],[-391,-384],[-42,-174],[50,-664],[152,-115],[-8,-142],[122,36],[29,275],[108,157],[120,-150],[173,-42],[81,-168],[-8,-909],[-98,-566],[-176,-492],[-217,-319],[-130,630],[-1462,-1975],[337,-493],[74,-192],[38,-278],[109,-226],[153,-40],[139,-231],[73,-593],[239,-238],[-17,-544],[21,-400],[124,-402],[160,-366],[111,-157],[204,-42],[65,-290],[171,-60],[35,-263],[-297,174],[-100,-133],[217,-162],[175,-344],[232,-90],[81,-114],[-15,-139],[551,-36],[290,-294],[39,-86],[-202,-144],[12,-224],[-234,-18],[-217,-73],[-400,203],[-212,0],[-193,-97],[-358,-355],[-165,-374],[-40,-209],[132,-95],[152,-238],[33,-181],[-193,-300],[72,-403],[4,-386],[-178,-1020]],[[55387,55148],[-305,258],[-290,-52],[-252,213],[-77,153],[-82,362],[-157,341],[-214,145],[-243,-60],[-8,144],[-253,-417],[-118,-72],[-491,43],[-118,378],[253,-104],[-52,416],[-149,149],[-171,-1],[-239,158],[-82,149],[-154,515],[-57,93],[-988,481],[-1291,-208],[-163,-49],[-108,-205]],[[49578,57978],[-466,-961],[-72,-32],[-14,-937],[-210,261],[-197,170],[-529,227],[-274,216],[-80,197],[-25,648],[-50,173],[-356,377],[-202,508],[-145,195],[-36,163],[47,300],[104,266],[119,92],[-189,374],[-13,306],[220,258],[309,610],[-24,897],[-62,881],[7,563],[52,267],[150,495],[37,278],[-48,280],[-129,247],[-952,1295]],[[58917,72241],[145,-59],[63,-147],[141,76],[206,-229],[87,-171],[-7,-406],[92,-51],[24,-353],[-78,-484],[-75,-151],[110,-75],[144,-291],[28,-205],[-65,-455],[33,-194],[-62,-180],[117,-215],[80,-29],[71,-324],[126,-160],[280,-537],[85,-503],[127,-583],[51,-492],[158,-82],[81,-300],[-62,-203],[74,-146],[182,-8],[55,-75],[150,38],[221,-174],[307,2],[189,-266],[-13,-92],[153,-72],[-40,-74],[201,-192],[186,112],[280,-174],[65,-126],[50,100],[275,-175],[-25,-168],[120,-20],[123,-267],[246,-198],[228,-65],[212,40],[56,-158],[166,118],[225,-38],[441,39],[111,-133],[275,-28],[180,-140],[90,-235],[234,-295],[227,-113],[72,-206],[87,60],[165,-75],[-30,334],[139,51],[141,212],[402,29],[-89,-756],[32,-215],[-25,-364],[-304,-1233],[-183,-602],[-441,-1159],[-608,-3653],[-206,-2795],[-27,-1114],[-150,-141],[60,-200],[-21,-505],[43,149],[43,527],[35,-195],[-62,-1117],[-51,-529],[-33,-992],[82,-1586],[-36,-675],[0,407],[-34,-62],[-95,-571],[-174,-418],[-85,39],[68,-225],[-108,-403],[-5,-161],[129,37],[0,301],[50,67],[13,-293],[-63,-451],[95,-557],[35,-512],[86,-369]],[[65008,42534],[-256,-295],[-158,263],[56,221],[-214,230],[-410,128],[-219,303],[-52,251],[-61,40],[-183,-121],[-107,45],[-25,-331],[-209,-32],[-45,143],[-77,-79],[-116,112],[-235,13],[-324,-91]],[[62373,43334],[-127,134],[-55,-123],[-289,-83],[-149,-237],[-143,-12],[-257,66],[-602,301],[-242,60],[-132,115],[-95,238],[-116,427],[-202,571],[-120,-242],[-101,35],[-157,327],[-155,127],[64,-565],[-85,-25],[-319,180],[-1048,680],[-165,501],[51,138],[217,149],[123,204],[4,332],[-234,409],[-56,403],[-50,29],[-212,-274],[101,662]],[[57822,47861],[8,400],[-223,234],[261,325],[432,-221],[-145,840],[168,655],[185,518],[759,143],[308,680],[160,7],[-38,362],[-408,593],[-75,400],[18,455],[117,779],[-102,829],[-328,-221],[-85,535],[273,383],[201,107],[125,-70],[149,156],[68,361],[115,60],[86,157],[282,93],[100,168],[163,-153],[247,-127],[-91,563],[143,312],[0,122],[-119,212],[135,97],[-9,215],[123,-18],[229,389],[98,-216],[149,-58],[275,160],[1192,1585],[143,208],[-13,243],[-330,45],[-21,142],[20,657],[-3,1923],[-42,144],[-761,345],[-114,-86],[-135,-406],[-414,672],[-122,30],[-235,-229],[-60,150],[-67,1075],[-257,86],[-247,551],[-186,-162],[-88,185],[-10,359],[98,266],[25,310],[-93,303],[-103,98],[-395,246],[-258,-15],[136,266],[16,266],[133,300],[-214,269],[-222,68],[-99,199],[12,334],[152,783],[-8,183],[-93,171],[-89,1012],[-51,369],[-68,173],[-397,98],[-20,399],[146,155],[483,384]],[[64902,44994],[84,301],[-23,-281],[-61,-20]],[[58613,72799],[102,-196],[108,-76],[94,-286]],[[57822,47861],[-208,47],[-643,25],[6,-286],[-47,-69],[-186,59],[-128,158],[-55,414],[6,286],[-51,339],[51,526],[-125,816],[44,366],[-22,514],[-292,600],[-75,527],[-12,1234],[-33,334],[-214,416],[-451,981]],[[92276,18744],[-24,440],[302,622],[71,321],[-18,734],[-61,490],[52,370],[-99,74],[52,173],[-25,289],[-107,233],[-25,324],[103,1081],[-19,408],[195,397],[-4,675],[27,340],[-75,392],[-308,639],[-378,561],[-377,478],[-131,315]],[[91427,28100],[142,572],[4,358],[527,119],[162,283],[300,213],[350,23],[107,70],[226,359],[152,-180],[4,208],[261,340],[297,247],[177,64],[169,181],[185,74],[142,277],[84,367],[190,87],[95,-282],[71,-12],[-36,443],[170,490],[182,147],[172,-170],[292,35],[346,284],[261,366],[463,524],[210,703],[39,360],[196,631],[-15,343],[-146,512],[51,549],[125,301],[13,184],[-46,1104]],[[97349,38274],[120,0],[29,-170],[266,10],[181,-100],[195,13],[161,-63],[228,163],[114,257],[-15,214],[-206,22],[-179,-189],[-214,71],[-41,76],[-133,-152],[-106,39],[129,193],[121,29],[195,-75],[436,323],[72,22],[215,-118],[143,-199],[168,-401],[63,-258],[306,-71],[48,-278],[-34,-355],[27,-625],[76,-255],[156,31],[-153,-546],[20,-159],[-126,-87],[-31,-271],[-133,-638],[-214,-511],[-294,-545],[-98,-242],[-357,-397],[-172,-300],[-376,-912],[-79,-332],[-98,-112],[-107,-303],[-87,-673],[11,-463],[110,-468],[-30,-257],[-58,-64],[-60,-315],[5,315],[82,58],[27,338],[-86,268],[-11,-476],[63,75],[-223,-476],[-77,81],[-160,-254],[-183,-697],[-39,204],[-202,11],[-24,-379],[131,-226],[128,-34],[-43,-342],[174,226],[171,116],[155,-109],[62,109],[172,-78],[3,454],[87,-322],[-64,-471],[-80,-203],[-214,-268],[-83,-27],[50,198],[-256,-176],[-120,-178],[-64,-341],[50,-23],[-87,-357],[154,-117],[147,260],[80,270],[225,57],[-64,-226],[111,183],[63,-32],[-114,-137],[-115,-336],[-49,-523],[-181,-620],[-62,-721],[-114,-675],[-194,-471],[-59,-440],[9,-360],[-59,-200],[-14,-386],[-180,-500],[-79,-421],[0,-360],[-94,363],[28,284],[-64,-121],[20,266],[-65,267],[-112,60],[1,237],[-178,76],[-273,230],[2,205],[105,207],[-21,123],[153,519],[-8,533],[-81,265],[-19,220],[-213,-398],[-102,-432],[-5,209],[-168,-97],[-161,-224],[20,-108],[153,298],[-24,-341],[67,37],[-347,-1056],[-339,-86],[-71,83],[-147,-83],[-93,48],[-138,-226],[-69,-502],[-167,-379],[-61,-347],[-220,-233],[23,-92],[-148,-602],[-128,-155],[-61,-265],[-190,-260],[-76,-220],[-167,176],[-44,155],[-103,5],[-220,274],[-262,-159],[-44,-104]],[[98008,21942],[28,-238],[-67,-203],[39,441]],[[98204,23076],[43,-78],[-10,-370],[-33,448]],[[99846,33280],[43,-38],[-195,-593],[-148,-221],[-144,-461],[-116,-220],[-218,-291],[-74,394],[-3,358],[38,214],[224,610],[126,114],[160,-104],[180,60],[127,178]],[[99999,36620],[-61,76],[-59,297],[120,-373]],[[92276,18744],[-47,-275],[2,-480],[-1388,2],[-2777,5],[-1524,2],[-91,-77]],[[86451,17921],[-2,915],[-372,26],[-129,150],[-243,35],[-280,286],[-507,241],[-291,8],[-109,-201],[11,-225],[-105,-415],[-615,4],[-200,83],[-235,243],[-30,169],[-149,119],[-376,456],[-45,125],[20,1614],[-658,-27],[-186,255],[-66,402],[-154,397]],[[81730,22581],[256,124],[355,32],[734,136],[354,-57],[256,-346],[21,-102],[-141,-85],[-119,22],[17,122],[-224,-42],[55,-105],[-129,-72],[0,-112],[129,-116],[113,46],[90,-162],[121,-69],[-240,312],[-19,173],[259,-251],[36,-186],[125,-62],[26,-143],[-80,-159],[6,-155],[120,-173],[70,71],[-64,269],[129,-75],[-106,215],[22,85],[366,-225],[283,-41],[280,116],[91,-52],[-26,240],[-160,-179],[95,254],[345,267],[196,72],[98,266],[159,-12],[219,203],[-54,37],[-314,-190],[101,416],[3,173],[-116,249],[-204,-54],[-151,234],[180,341],[147,84],[234,367],[-75,-27],[-206,-273],[-286,-291],[6,-129],[-217,-107],[-69,51],[234,350],[472,470],[379,279],[259,392],[209,143],[246,273],[250,525],[169,135],[191,331],[39,181],[50,1068],[36,345],[-21,302],[142,520],[466,549],[124,223],[33,502],[-95,297],[2,646],[21,581],[49,651],[-49,691],[73,467],[24,532],[32,146],[215,451]],[[88377,34556],[-34,-1523],[56,-158],[435,-47],[131,-353],[81,-117],[124,80],[113,-175],[96,28],[55,209],[88,94],[177,-444],[59,-351],[233,-300],[112,-331],[75,-391],[165,-273],[218,-142],[188,-237],[228,-710],[177,-289],[148,-333],[40,-390],[85,-303]],[[84527,23261],[194,116],[22,-188],[-149,-113],[24,103],[-156,-69],[-124,-288],[-199,-162],[65,191],[-263,-238],[-179,-17],[61,122],[262,167],[296,287],[146,89]],[[86451,17921],[-3,-3028],[-1393,15]],[[85055,14908],[13,320],[131,113],[-139,309],[-108,2],[-100,125],[15,246],[-75,91],[-352,220],[-75,156],[-48,600],[-99,345],[-303,84],[59,250],[-31,398],[-106,214],[-131,-61],[-208,43],[-53,-155],[-33,266],[-133,13],[-260,-396],[54,-166],[-63,-85],[-213,3],[-295,-267],[-322,-145],[-77,-88],[-47,-405],[-179,-88],[-808,-1232],[-189,-106],[-189,140],[-85,148],[-215,601],[-185,31],[-66,164],[-7,367],[-60,442],[-1,224],[67,432],[-25,581],[-179,-211],[-104,31],[-172,272],[-170,161],[-237,81],[-134,-164],[-319,-1795],[-136,-166],[-48,-191],[-105,-109],[-264,-977]],[[78246,15574],[-110,75],[-60,174],[90,692],[-296,467],[-80,221],[-253,197],[-101,16],[-51,189],[-236,77],[-41,287],[-65,119],[-167,82],[-169,192],[24,463],[58,151],[-123,436],[-20,470],[-93,51],[-36,220]],[[76517,20153],[166,137],[242,89],[111,130],[351,190],[-53,-274],[253,59],[97,75],[15,235],[249,171],[84,-119],[203,64],[83,243],[-43,150],[-166,-143],[-224,-120],[-67,-116],[-139,-38],[-142,-157],[-81,36],[182,189],[585,369],[480,120],[440,-21],[472,28],[-86,-188],[41,-222],[153,113],[-21,-267],[126,287],[-161,151],[121,126],[509,15],[266,112],[154,154],[150,234],[105,281],[59,18],[54,-209],[26,-534],[41,-146],[22,586],[-106,439],[268,34],[394,147]],[[85055,14908],[-30,-91],[220,-135],[26,-131],[235,-4],[98,-356],[107,-95],[59,-230],[112,-205],[158,-53],[140,-379],[32,-173],[233,-241],[21,147],[98,-13],[-43,-134],[216,-266],[217,-113],[305,-324],[213,-518],[43,-198],[-41,-163],[105,29],[-45,-345],[112,-63],[-65,-191],[283,37],[34,-166],[75,61],[105,-222],[255,-63],[48,-286],[-205,-325],[-54,-656],[113,-143],[-105,-255],[78,-53],[-43,-154],[-118,-47],[-2460,-6],[-1450,-4],[-89,-124],[-1429,-4166],[4,-288],[409,-900],[-95,-307],[-159,-121],[-1,-524],[-102,-294],[-13,-182],[92,-616],[-9,-188],[-137,-538],[-121,-133],[-188,379],[-638,1057],[-606,1057],[-395,751],[-49,255],[188,-127],[53,-253],[84,-112],[-59,339],[-148,188],[-191,15],[-188,254],[-189,156],[-48,157],[-252,301],[-291,551],[-93,232],[-92,60],[-764,1095],[-55,45],[-530,717],[-326,369],[-582,574],[283,79],[-140,353],[-456,200],[-129,129]],[[76686,8821],[98,275],[49,410],[-48,347],[-201,731],[-29,219],[63,229],[180,402],[40,215],[-29,648],[49,181],[372,372],[19,659],[117,65],[7,620],[-24,140]],[[77349,14334],[155,155],[593,669],[149,416]],[[76653,8547],[118,-128],[118,-246],[175,-185],[-477,329]],[[76587,8317],[66,230]],[[11346,20965],[163,0],[-31,-141],[-152,-26],[20,167]],[[23439,23415],[110,-206],[-41,-194],[-175,-58],[-91,141],[-186,145],[45,260],[166,287],[140,-135],[32,-240]],[[23855,26432],[84,-188],[-153,-113],[69,301]],[[46187,22812],[-165,279],[-502,595],[-84,141],[-634,531],[-477,280],[87,327],[-164,73],[-38,126],[-150,-67],[-75,-132],[-38,126],[-165,139],[-281,109]],[[43501,25339],[1,126],[131,222],[46,199],[117,3],[76,-110],[58,208],[114,114],[114,-96],[247,116],[107,128],[183,30],[77,272],[120,157],[95,409],[209,356],[17,-192],[378,-370],[307,-207],[102,136],[181,26],[222,339],[121,-8],[110,-437],[113,-106],[64,-220],[151,-178],[-33,-265],[39,-401],[-96,-565],[106,-403],[43,-291]],[[47021,24331],[-41,12],[-107,-294],[-193,-182],[-65,54],[-65,-493],[-164,-130],[-92,-341],[-107,-145]],[[38350,37334],[-11,-206],[-164,129],[61,107],[114,-30]],[[37781,38189],[99,-11],[32,-148],[-77,-190],[-290,170],[-43,97],[104,142],[175,-60]],[[37439,38811],[2,-138],[-105,-55],[-272,214],[-78,316],[43,211],[133,-28],[207,-186],[-15,-117],[85,-217]],[[36961,39803],[19,-205],[-98,38],[79,167]],[[41297,33792],[-62,231],[-162,196],[-156,-158],[-213,96],[-143,210],[117,36],[99,390],[49,24],[113,317],[145,158],[153,402],[123,-30],[115,197],[-16,386],[20,285],[53,118],[-30,438],[-55,320],[40,256],[144,300],[-48,274],[-138,189],[-62,-76],[-476,483],[-108,164],[-46,223],[-273,874],[-262,691],[-79,504],[31,789],[-24,361],[-245,1364],[27,30]],[[39928,43834],[144,-333],[53,171],[-49,304],[202,73],[120,-76],[135,-191],[210,-29],[74,110],[2,194],[-139,709],[-279,450],[9,166],[162,314],[215,295],[21,121],[-84,277],[118,325],[146,3]],[[40988,46717],[502,23],[310,-112],[510,-434],[77,-125],[180,-689],[-316,-543],[-43,-541],[17,-275],[82,-10],[620,741],[65,-13],[271,-266],[46,-116],[77,-517],[132,-281],[263,-242],[85,7],[450,319],[73,-857]],[[44389,42786],[-58,-301]],[[44331,42485],[-217,-985],[83,-195],[374,-543],[219,-367],[272,-552],[-114,-498],[-75,-535],[-165,-427],[416,-411],[423,-382],[-55,-155],[-1,-235],[-63,-186],[-181,-279],[-135,-81],[-376,-36],[-71,-161],[64,-689],[-29,-394],[-148,-463],[-59,-306],[-22,-687],[-212,198],[-80,196],[-316,355],[-142,344],[-66,61],[-243,30],[-338,476],[-219,44],[-401,-476],[-345,-77],[-34,110],[-159,-105],[-184,-332],[-360,-873],[-75,-77]],[[26945,53275],[118,-382],[-14,-100],[-189,55],[-119,287],[-117,693],[13,272],[308,-825]],[[21495,54120],[164,-78],[148,-188],[-221,157],[-203,37],[-214,-73],[60,106],[266,39]],[[20889,54499],[93,-280],[100,-122],[-49,-408],[-160,310],[-575,702],[-193,125],[95,67],[339,11],[146,-291],[204,-114]],[[25400,54878],[117,-254],[-78,-127],[-44,-252],[-68,9],[-33,274],[-82,118],[-99,528],[93,95],[71,-299],[123,-92]],[[24182,58066],[133,-232],[238,-101],[58,-103],[13,-332],[145,-415],[-185,-76],[30,117],[-255,322],[-87,409],[-98,49],[8,362]],[[19784,55436],[145,-350],[-107,-11],[-71,262],[-197,299],[100,96],[-5,337],[-137,230],[-110,78],[-152,-83],[-101,105],[93,261],[217,980],[136,763],[81,600],[55,-246],[-113,-439],[-73,-527],[55,-389],[-85,-122],[-7,-343],[-48,-399],[236,-489],[50,-216],[-87,-217],[125,-180]],[[24010,60813],[-127,277],[72,363],[50,-190],[43,-428],[-38,-22]],[[23012,63040],[-63,-10],[-251,-519],[-2,-196],[-73,-118],[12,-195],[-94,75],[61,579],[132,323],[-21,307],[229,58],[149,99],[-81,-237],[2,-166]],[[13570,74059],[27,1]],[[17700,74054],[5,-582],[-36,-164],[170,-246],[50,-354],[105,-205],[85,-40],[143,-309],[357,-189],[354,-308],[126,-261],[40,-401],[106,-429],[143,-216],[36,-195],[109,-226],[-54,-218],[183,-267],[208,-167],[246,-82],[55,-113],[137,-16],[-167,-317],[-44,-315],[136,-229],[70,-246],[114,-77],[142,-276],[29,-244],[-138,-272],[165,-314],[31,-177],[142,-179],[44,-225],[153,-177],[186,233],[-119,263],[-316,467],[-6,286],[-110,626],[105,88],[230,-287],[77,-208],[169,-142],[62,-187],[277,-280],[-28,-657],[63,-152],[337,-171],[-82,-282],[21,-365],[233,-473],[-30,-341],[68,-378],[178,-660],[-81,-192],[24,-226],[-72,-130],[87,-436],[5,-262],[76,-320],[298,-427],[66,-477],[88,-229],[158,-262],[299,-58],[-20,-374],[68,-168],[77,-409],[143,-282],[-41,-162],[130,-438],[5,-216],[77,-90],[59,-261],[101,-80],[48,-173],[178,-115],[34,-267],[153,-271],[45,-317],[87,-276],[-24,-232],[-93,-357],[-93,-103],[-50,-330],[2,-367],[53,-274],[109,-213],[-20,-321],[37,-259],[211,-504],[166,-312],[161,-92],[346,-111],[227,9],[-124,-151],[-199,131],[49,-358],[210,33],[10,138],[130,204],[16,222],[-112,214],[-9,330],[133,199],[204,-48],[-12,-127],[115,-128],[86,-242],[270,-205],[253,-313],[61,-619],[178,-94],[325,184],[79,-224],[-94,-200],[-19,-187],[48,-228],[162,-180],[234,-436],[-40,-272],[99,-555],[358,-282],[134,-49],[150,-153],[26,-310],[133,-250],[2,-888],[-38,-313],[-80,-251],[-217,-476],[-143,-146],[-97,-3],[-333,-276],[-58,-240],[-227,-172],[-8,-111],[-142,-199],[-160,-56],[20,-85],[-187,-12],[-143,123],[-190,310],[-121,368],[-30,318],[-138,831],[-50,521],[-442,1211],[-147,219],[-160,153],[-546,402],[-221,288],[-334,579],[-198,383],[-366,585],[-247,311],[-94,180],[-424,423],[-169,201],[-685,588],[268,-187],[-47,86],[-327,269],[-26,107],[-175,227],[-75,20],[-170,297],[-108,435],[-81,188],[-62,-279],[-121,61],[-209,-1],[131,-172],[-161,-52],[-7,352],[-107,462],[-282,521],[-95,254],[-52,290],[-75,151],[66,-429],[66,-101],[-142,-214],[-135,428],[36,-351],[-142,110],[-25,344],[-89,210],[107,149],[-42,216],[62,146],[-64,226],[-105,-340],[45,-203],[-69,-194],[-50,106],[-16,334],[111,304],[27,353],[-64,69],[37,474],[167,477],[11,1089],[37,210],[-30,422],[28,297],[-40,485],[-43,11],[8,-672],[-54,-491],[14,501],[-7,732],[-21,309],[-71,178],[-212,983],[-127,252],[-172,48],[-160,707],[-187,342],[-126,113],[-176,-142],[-184,206],[-10,158],[-96,-73],[-71,157],[-241,35],[-124,262],[-322,358],[-230,319],[-159,139],[-16,119],[-142,53],[-181,272],[12,281],[-337,765],[-21,-133],[-143,-113],[-50,259],[60,5],[238,359],[35,441],[-62,178],[-148,-138],[-37,-504],[-188,-231],[-5,-284],[-64,-57],[-247,250],[-176,60],[-266,-69],[-123,-408],[-99,-78],[-199,112],[-90,242],[-188,168],[-91,334],[-197,486],[-196,190],[-257,80],[-143,-113],[-140,223],[-45,181],[-160,301],[-213,188],[-173,75],[-169,-37],[-12,-116],[-179,222],[-140,94],[-127,-36],[17,179],[-182,161],[10,474],[-70,451],[-235,246],[-49,145],[-377,246],[-58,-3],[-150,448],[-154,156],[-45,-83],[-27,361],[-105,73],[-42,-169],[-102,66],[-59,221],[-161,-2],[-100,239],[-61,346],[-98,159],[88,51],[132,-165],[287,33],[433,-116],[574,-225],[233,73],[100,-75],[209,145],[339,409],[86,-36],[24,-191],[-68,-296],[94,-241],[185,-214],[230,-150],[151,-269],[0,-105],[175,283],[-86,205],[63,22],[190,-196],[131,-18],[112,228],[-2,123],[-175,141],[-162,27],[-139,273],[97,-332],[-209,-173],[-115,127],[-99,319],[-3,210],[123,277],[-3,191],[-104,214],[-44,-109],[-181,-105],[-89,-138],[19,316],[173,307]],[[13330,74058],[129,-398],[26,398]],[[16180,67036],[222,-23],[112,-263],[-396,200],[62,86]],[[24169,59227],[80,14],[-124,-267],[44,253]],[[19775,60208],[26,9],[-24,-880],[-54,-241],[-8,251],[71,737],[-11,124]],[[23082,61402],[69,70],[77,-193],[-49,-148],[-97,271]],[[19805,69788],[21,195],[142,-238],[-66,-208],[-67,22],[-30,229]],[[20451,70914],[-28,111],[121,-15],[-93,-96]],[[9993,73465],[132,-133],[-51,-97],[-81,230]],[[30116,59890],[142,-225],[-55,-60],[-216,189],[-190,101],[-194,-3],[-60,111],[354,-2],[219,-111]],[[39928,43834],[-26,176],[-79,-38],[-30,308],[-105,264],[-256,409],[-193,379],[-195,267],[63,147],[-151,-147],[-595,1221],[-180,175],[-295,552],[-153,-23],[-33,278],[-294,975],[-281,339],[-90,261],[-83,68],[-265,496],[-135,74],[-63,370],[-151,306],[-129,503],[-423,739],[-256,266],[-166,260],[-657,718],[-84,252],[-242,225],[-197,292],[-732,721],[19,65],[281,-233],[437,-451],[-25,126],[139,-95],[86,162],[-11,180],[-118,433],[-140,106],[-92,-59],[111,-113],[-210,-226],[-167,238],[-86,-75],[-111,106],[-28,155],[-229,329],[-87,-27],[-129,184],[-151,83],[237,-395],[135,-125],[-47,-50],[-236,235],[-273,388],[-104,553],[-83,129],[57,71],[131,-150],[73,114],[-92,380],[-15,282],[64,300],[-160,248],[-42,-88],[53,-427],[-56,-450],[-118,0],[-116,118],[-99,211],[-248,800],[-296,456],[139,-24],[273,-506],[35,-156],[149,-69],[21,250],[-97,16],[84,207],[98,-182],[292,-137],[31,162],[-327,471],[-133,-70],[-132,150],[-86,229],[-108,-70],[-257,3],[-45,241],[107,-102],[-20,304],[-130,154],[-77,-591],[-42,-92],[10,379],[-173,304],[-326,211],[-189,196],[-373,82],[74,86],[285,-65],[-217,201],[-248,-97],[-44,97],[157,41],[-82,225],[-75,-75],[38,250],[-4,339],[-78,-22],[-142,151],[-161,-2],[5,-405],[-132,-129],[-70,207],[-158,-22],[-103,-191],[-258,391],[144,243],[206,-13],[79,-184],[25,195],[208,325],[82,252],[24,286],[125,176],[-52,132],[-161,-507],[-344,-281],[-165,-327],[-260,25],[-85,297],[-262,182],[52,-171],[216,-290],[41,-227],[-225,396],[-111,58],[-351,-12],[-115,50],[256,121],[91,-49],[40,317],[-226,254],[-95,-36],[-20,-388],[-46,41],[13,362],[-108,189],[68,564],[-60,257],[15,435],[115,304],[172,319],[156,562]],[[28688,64372],[-37,-374],[47,-66],[155,566]],[[29090,64743],[-65,-250],[214,-254],[2,254],[81,80],[-105,65],[-73,236]],[[36099,61075],[-153,-269],[-76,-223],[-166,-279],[-108,-447],[-93,-1007],[-2,-261],[164,-952],[119,-536],[260,-291],[69,-370],[245,-57],[141,-315],[170,-157],[108,-385],[182,-371],[135,-463],[38,-473],[43,-154],[283,-409],[321,-23],[196,328],[217,230],[248,-7],[135,-135],[314,-451],[102,-283],[141,-603],[88,-270],[123,-120],[150,71],[-171,-684],[-11,-434],[70,-813],[105,-368],[35,-249],[85,-192],[191,-86],[159,-478],[6,-477],[69,-187],[12,-255],[170,-242],[37,-141],[228,-356],[236,-112],[262,39],[12,-641]],[[88377,34556],[124,634],[-15,183],[-43,-301],[-120,-534],[-139,-183],[63,177],[196,995],[88,177],[420,449],[208,125],[107,150],[371,192],[191,230],[428,241],[343,96],[251,0],[439,127],[599,99],[259,124],[202,-11],[772,273],[173,102],[383,148],[307,416],[259,79],[239,147],[248,0],[273,-102],[277,81],[135,164],[-262,-151],[149,147],[185,86],[184,-72],[345,-16],[329,-196],[467,-152],[-88,-79],[-404,177],[172,-185],[207,-78],[370,-41],[-181,161],[212,-45],[249,-116]],[[65008,42534],[24,-109],[9,-671],[34,-197],[474,-1432],[323,-621],[298,-419],[226,-241],[82,-231],[-9,-227],[-91,-561],[-159,-420],[-64,-375],[-42,379],[-128,526],[167,214],[91,-22],[52,174],[-15,275],[-341,452],[-436,870],[-72,495],[-120,221],[-288,818],[181,-668],[36,-684],[160,-1051],[252,-746],[149,-136],[130,24],[-23,-441],[313,-1076],[188,-826],[221,-700],[224,-648],[61,-279],[-65,-113],[151,-506],[367,-729],[297,-360],[46,-214],[350,-660],[255,-382],[40,-156],[144,-192],[110,-317],[208,-406],[206,-532],[170,-336],[161,-699],[36,-483],[106,-645],[141,-301],[-17,-239],[71,-466],[63,-217],[382,-493],[81,59],[137,-664],[149,-273],[202,-41],[112,-656],[121,-314],[187,-267],[289,-184],[0,-188],[-227,261],[-173,84],[-112,187],[-139,-34],[241,-216],[30,-101],[207,-257],[-186,38],[45,-232],[245,150],[403,-184],[196,-226],[52,75],[-126,135],[-379,272],[-14,236],[217,-270],[254,-161],[279,-79],[412,-23],[494,30],[496,-531],[85,-265],[69,-48],[615,-174],[122,-222],[161,-598],[284,-492],[149,-526],[158,-161],[202,-90],[356,134],[464,116],[222,98]],[[77349,14334],[-1969,197],[-808,109],[-381,13],[-205,46],[-105,112],[-61,351],[17,232],[-120,172],[-164,94],[-278,492],[-287,562],[18,193],[137,169],[26,265],[-35,197],[-103,-12],[-10,-149],[-102,69],[-100,-237],[-151,-71],[-26,-101],[-143,-3],[-133,-90],[-83,-183],[-243,-188],[-20,-122],[-162,-107],[-156,60],[-194,-132],[-233,193],[-317,1055],[-41,300],[71,274],[211,407],[144,485],[-196,688],[-375,242],[-121,-22],[-241,65],[-121,-162],[-125,8],[-99,243],[-154,70],[-68,458],[-107,235],[-143,157],[-151,399],[-106,613],[-121,136],[-238,87],[-227,179],[-213,311],[96,-733],[-98,-326],[-200,-365]],[[68335,21269],[-182,375],[-46,398],[-342,-96],[-248,-108],[-126,-166],[-189,-11],[-71,103],[57,281],[-90,235],[-52,308],[-267,142],[-153,-93],[-130,142],[-90,372],[26,318],[154,323],[150,90],[24,157],[-135,1058],[17,302],[307,184],[183,-84],[87,167],[139,46],[175,389],[-246,173],[-166,-89],[-357,195],[-139,335],[-149,-66],[-77,165],[-144,30],[-65,127],[189,52],[85,140],[-122,241],[9,140],[-114,141],[62,489],[153,164],[53,297],[17,325],[-26,456],[132,393],[361,654],[59,227],[-54,133],[-413,276],[-308,336],[-282,-107],[-60,-209],[-169,-346],[-93,-98],[-72,85],[-32,290],[-172,-44],[-95,50],[-102,316],[-164,152],[46,346],[-32,156],[0,409],[135,9],[106,140],[169,-275],[97,102],[160,385],[-39,295],[-125,199],[-354,92],[68,185],[-126,379],[-6,358],[-115,196],[-270,60],[-100,-101],[1,-266],[-126,-152],[-19,-220],[-77,-45],[50,-147],[20,-353],[-67,-415],[-110,-174]],[[64318,32687],[-79,310],[75,220],[-65,205],[2,236],[-183,200],[-99,-48],[-290,-589],[-421,-806],[-131,164],[-180,-516],[-107,-96],[-102,48],[-214,605],[-8,125],[136,292],[63,421],[223,288],[64,374],[-151,-83],[-95,150],[34,83],[205,90],[14,223],[-52,157],[120,108],[208,-88],[210,-178],[108,30],[-33,197],[15,376],[206,462],[55,6],[63,269],[-261,432],[-114,-149],[-125,109],[69,295],[-22,231],[-76,24],[8,-192],[-204,-292],[-160,122],[-263,473],[9,155],[151,342],[-229,248]],[[62692,37720],[-7,410],[-40,284],[-221,203],[-133,259],[55,107],[2,312],[170,39],[84,229],[71,-32],[173,256],[23,195],[-80,55],[-20,182],[-130,-19],[-108,300],[119,305],[-187,-40],[-7,153],[163,-41],[272,45],[80,336],[207,611],[43,381],[-82,238],[-441,462],[-325,384]],[[65419,39862],[157,-198],[-120,-38],[-75,184],[-67,462],[105,-410]],[[43501,25339],[-288,187],[-25,132],[-165,135],[-198,-16],[24,297],[-52,91],[-205,-113],[-244,215],[-187,277],[-70,370],[-98,67],[7,207],[-57,111],[-5,305],[-92,135],[-111,-8],[-312,451],[-150,289],[-169,473],[-243,467],[-306,785],[-62,329],[-25,604],[-238,543],[-86,72],[-135,516],[49,92],[339,353],[364,27],[99,73],[317,43],[268,385],[30,289],[-178,270]],[[44331,42485],[473,354],[152,81],[323,43],[223,74],[34,78],[70,613],[-37,166],[-171,297],[28,1086],[645,-203],[-51,-610],[-178,-305],[-7,-425],[-107,-133],[66,-322],[-71,-353],[27,-632],[89,-277],[186,1296],[102,797],[104,257],[50,-80],[175,-2],[59,-290],[85,-34],[7,-208],[-70,-81],[-61,-251],[-103,-684],[63,-496],[-48,-458],[115,-133],[123,58],[106,156],[255,-92],[130,589],[130,94],[49,384],[102,110],[-216,379],[171,546],[298,-412],[295,-338],[-13,-321],[181,89],[93,-42],[31,-178],[118,42],[55,-102],[-25,-198],[-143,-383],[-114,-43],[-7,-186],[137,-86],[-11,-276],[-126,-98],[-85,-321],[-154,-116],[-265,45],[-91,-198],[-262,-114],[-398,-615],[-49,-151],[64,-296],[8,-747],[-229,-229],[-108,-332],[-127,-57],[-213,203],[62,-381],[31,-393],[-30,-301],[-103,-178],[-11,-309],[44,-77],[195,183],[117,-32],[37,-251],[108,-88],[263,17],[136,-187],[202,2],[117,-66],[418,-393],[118,-62],[183,33],[168,-176],[74,15],[42,417],[-30,801],[34,124],[217,-57],[194,24],[316,326],[20,-268],[109,70],[17,182],[111,206],[156,154],[158,717],[-21,187],[-221,49],[-207,169],[-20,253],[70,523]],[[49287,39647],[312,160],[99,-27],[366,-368],[146,-64],[574,-134],[174,42],[270,366],[208,130],[97,539],[161,121],[96,183],[240,190],[146,341]],[[52176,41126],[257,-301],[223,3],[222,-180],[143,-274],[155,-24],[26,-196]],[[53202,40154],[-187,-344],[3,-261],[143,-345],[-15,-173],[-243,-288],[-79,-172],[11,-202],[196,-509],[6,-422],[-122,-294],[-240,-320],[-267,-33],[-130,-295],[-132,-154],[-89,-277],[-206,-422],[-307,-820],[-134,-450],[9,-338],[246,-357],[96,-198],[29,-226],[-41,-177],[-253,-479],[-123,-448]],[[51373,32150],[-263,-177],[-189,-79],[-172,120],[-391,-108],[-244,-153],[-93,-169],[-203,-96],[-112,-172],[-158,-95],[-239,-35],[-88,-134],[-625,-262],[-311,-193],[-26,-127],[38,-465],[161,-152],[281,115],[145,-159],[205,5],[199,-81],[9,-312],[159,-163],[-69,-124],[-256,-100],[-2,-493],[61,-298],[77,-100],[92,-422],[-26,-587],[121,-42],[294,126],[52,-54],[71,-376],[97,-70],[-167,-330],[4,-149],[-193,-451],[-223,145],[-136,-26],[-49,-121],[-309,-155],[-165,-273],[-56,-307],[-107,-214],[-256,-144],[-167,-143],[-29,-211],[-111,-24],[-141,284],[-98,-12],[-81,187],[-89,5],[-164,-386],[-325,-13],[-85,-49]],[[51155,18577],[-69,-28],[-309,251],[-712,324],[-263,157],[-458,99],[-433,304],[-458,350],[-281,35],[-340,231],[-57,-12],[-330,215],[-57,-23],[-197,200],[-235,167],[-242,874],[-170,307],[-256,292],[75,151],[-176,341]],[[51373,32150],[329,90],[-65,-325],[77,-16],[31,155],[103,-19],[53,-628],[87,-267],[241,36],[439,-48],[51,-57],[111,240],[96,473],[226,80],[237,0],[22,-153],[226,-111],[-12,-172],[-150,-170],[71,-176],[-42,-158],[51,-156],[-35,-453],[84,-78],[126,85],[212,-43],[162,-92],[129,25],[97,367],[75,34],[108,-119],[189,76],[147,-54],[40,-367],[-185,-171],[87,-226],[220,-135],[105,-8],[176,107],[92,170],[173,-358],[131,-16],[21,162],[524,55],[56,-198],[79,-12],[44,179],[115,99],[226,27],[54,228],[-63,377],[56,255],[100,10],[200,501]],[[57100,31195],[159,-124],[120,-258],[67,-318],[-1,-593],[170,-223]],[[57615,29679],[-152,-1000],[18,-252],[-155,-801],[125,-555],[90,-157],[-39,-87],[-541,-534],[99,-354],[-477,-1034],[-231,-440],[-14,-228],[-119,-115],[-185,-318]],[[56034,23804],[-193,-422],[-90,337],[-118,-42],[-120,-256],[-1,-103],[138,-264],[-83,-277],[81,-489],[44,-483],[386,-494],[12,-213],[-84,-231],[-71,111],[-108,-173],[-98,285],[82,163],[-27,210],[-76,-75],[-139,133],[-150,230],[-337,16],[40,-83],[-128,-108],[-35,198],[-94,-7],[-96,210],[-228,-56],[-507,47],[-74,-62],[-496,-220],[-171,-49],[-142,43],[-178,183],[-78,242],[-86,98],[-363,54],[-249,-72],[-132,-296],[-40,-353],[53,-900],[-171,-478],[-156,4],[-452,-118],[-113,-139],[-64,-461],[1,-320],[87,-340],[-55,-207]],[[62568,9754],[-88,233],[-366,558],[-248,513],[-219,-47],[-33,-102],[-284,122],[-623,334],[-728,314],[-380,98],[-350,-17],[-264,133],[-165,131],[-313,430],[-91,-2],[35,237],[-157,-29],[-264,350],[-391,212],[-646,409],[-773,455],[-469,258],[-211,156],[-720,399],[-161,62],[13,212],[-158,262],[-211,217],[-33,125],[-255,241],[-609,386],[48,170],[-176,315],[-179,-17],[-146,231],[-142,82],[-11,204],[-76,193],[-233,285],[-86,309],[-120,231],[-382,331],[-331,222],[-201,-46],[-216,-337]],[[56034,23804],[241,-116],[291,-33],[90,-378],[-67,-313],[47,-389],[196,-399],[68,-233],[-54,-425],[125,-290],[165,-59],[400,546],[124,264],[119,388],[190,58],[371,199],[138,38],[205,-228],[85,142],[33,243],[275,397],[65,-44],[252,-440],[203,-10]],[[59596,22722],[-37,-275],[126,-52],[181,-477],[103,-159],[104,-6],[42,-249],[273,6],[52,397],[100,175],[146,-82],[28,-255],[123,-375],[138,-242],[29,-191]],[[61004,20937],[8,-336],[50,-281],[94,29],[3,-146],[99,-171],[124,53],[30,-304],[287,-130],[44,-257],[86,-195],[263,-239],[374,-178],[205,-47],[331,58],[218,-375]],[[63220,18418],[63,-189],[-75,-317],[-117,-879],[84,-280],[-57,-189],[20,-152],[146,-270],[-16,-300],[48,-152],[-42,-327],[62,-166],[123,-69],[141,-394],[246,-43],[148,-285],[315,-757],[-48,-351],[-129,-340],[-44,-667],[-154,-306],[-122,-101],[-252,-14],[65,-466],[-50,-219],[-227,-3],[-81,-64],[-39,-229],[95,-314],[-21,-166],[-147,-287],[-78,-71],[-254,-35],[-144,-84],[-111,-178]],[[76587,8317],[-723,498],[-153,165],[-149,50],[-443,17],[-135,69],[-248,-37],[-88,76],[54,115],[273,144],[121,143],[19,242],[-232,205],[-210,-283],[-134,-103],[-94,-198],[-45,226],[110,157],[-110,372],[-141,188],[-219,-185],[-169,-379],[-184,0],[-97,-320],[314,-113],[302,54],[-194,-75],[107,-53],[287,15],[92,-58],[30,-153],[-165,82],[-242,-11],[-535,-154],[-266,18],[0,-103],[-265,-55],[-48,-132],[-179,-224],[-152,-77],[-61,-287],[-167,-154],[-28,-132],[-435,-101],[-285,-251],[-293,-67],[-74,-144],[-572,-249],[-530,-415],[7,-81],[-351,-300],[-395,4],[-219,65],[-174,-193],[-221,-10],[-394,278],[-388,123],[-130,4],[-271,276],[-289,135],[-170,272],[-267,259],[-333,177],[-250,55],[-73,-62],[-287,57],[-222,128],[-88,-33],[-324,79],[-68,-79],[-288,95],[-199,171],[-343,423],[-444,428],[-218,138],[-57,105],[284,-110],[-303,247],[-119,-52],[-315,171],[-409,123],[-345,221]],[[63220,18418],[121,169],[211,-50],[86,135],[134,435],[76,49],[483,-17],[258,49],[75,-521],[105,-121],[156,109],[238,383],[-46,279],[-175,276],[-48,173],[294,909],[164,90],[211,230],[1,-220],[-116,-650],[44,-252],[262,-281],[43,-301],[123,-314],[126,-85],[82,65],[123,427],[102,238],[133,185],[183,131],[214,44],[168,-133],[344,-165],[185,122],[127,323],[145,225],[289,219],[181,586],[13,110]],[[76686,8821],[-104,167],[-82,262],[-258,-127],[-262,187],[-178,272],[-170,30],[10,-322],[-72,-61],[289,-329],[167,-121],[85,40],[-239,150],[82,27],[269,-95],[190,-157],[-43,-79],[283,-118]],[[90641,43072],[-87,91],[-20,165],[129,160],[6,140],[-113,311],[-240,102],[118,197],[226,-232],[151,-438],[-76,-453],[-94,-43]],[[62295,27058],[-97,-396],[65,-471],[58,-632],[-59,-109],[-11,-486],[27,-318]],[[62278,24646],[-166,-158],[-34,-138],[-163,-48],[-170,73],[-79,386],[-168,155],[-223,90]],[[61275,25006],[69,178],[-77,439],[22,404],[-97,341],[-217,224],[64,276],[-101,338],[-77,135],[-20,208],[-71,110],[-98,-173],[6,-263],[-71,-56],[-196,-425],[-70,-240],[-156,10],[-75,-358],[-6,-280],[64,-91],[25,-340],[68,-143]],[[60261,25300],[-118,-208],[-21,-168],[72,-147],[-86,-97],[86,-283],[-4,-240],[-263,-216],[-146,-394],[-112,-130],[-73,-695]],[[57615,29679],[344,875],[199,407],[197,108],[-155,340],[296,312]],[[58496,31721],[165,-148],[74,-242],[163,-299],[237,-301],[51,166],[242,-9],[199,-532],[-104,-594],[73,-156],[153,-80],[72,-175],[13,-227],[66,-88],[40,-357],[207,380],[108,-18],[50,323],[172,131],[46,410],[206,78],[274,231],[206,-1],[117,-180],[1,-379],[56,-12],[-115,-604],[159,-95],[256,452],[162,-190],[121,-62],[150,54],[160,-274],[159,-436],[-16,-132],[-183,-616]],[[62236,27739],[-156,-14],[48,-279],[146,-105],[21,-283]],[[62295,27058],[292,-132],[176,90],[85,-87],[104,-519],[181,-277],[141,-419],[248,-307],[116,-272],[70,-33],[269,156],[184,409],[382,-279],[141,43],[119,251],[-119,284],[179,264],[165,-82],[145,47],[99,-122],[95,6],[150,195],[-2,249],[-150,29],[-112,110],[-173,319],[-113,50],[-157,-113],[-108,414],[114,175],[-310,201],[-129,224],[-168,85],[21,307],[-109,215],[-20,-248],[-62,-76],[-172,4]],[[63867,28219],[-86,181],[-232,664],[-4,248],[229,554],[47,306],[179,323],[-63,282],[-46,401],[-79,68],[-270,-111],[-93,218],[126,399],[240,83],[137,351],[201,189],[165,312]],[[61004,20937],[134,155],[212,141],[35,184],[162,239],[223,79],[115,-80],[167,-251],[129,-40],[-82,625],[-85,280],[-64,551],[245,-40],[-16,251],[-176,450],[237,436],[-58,276],[68,26],[28,427]],[[60261,25300],[177,-183],[375,-98],[213,-185],[79,158],[170,14]],[[61024,37002],[3,-510],[-251,-24],[-238,-260],[-97,-29],[-172,154],[-258,-196],[-47,-167],[78,-292],[-91,-233],[-26,-301],[-76,-191],[-177,-186],[-65,-154],[-92,-544],[7,-168],[92,-242],[-339,-273],[-106,-229],[-261,-86],[-335,-230],[-14,-367],[-63,-753]],[[57100,31195],[-131,98],[-147,227],[-65,271],[-234,442],[-50,185],[-20,594],[-213,631],[-21,449],[121,401],[35,377],[177,476],[65,13],[87,-317],[282,-88],[216,199],[96,-41],[127,-253],[67,-1],[177,208],[59,156],[46,792],[64,382],[125,190],[167,46],[145,-72],[95,-157],[180,-6],[123,85],[52,155],[202,247],[-38,128],[-231,117],[6,703]],[[58664,37832],[134,473],[89,53],[245,-293],[50,-192],[178,-188],[61,65],[237,15],[43,95],[256,46],[210,585],[94,-50],[90,98],[2,176],[182,240],[2,123],[113,-646],[205,-882],[-49,-427],[218,-121]],[[61024,37002],[150,155],[179,-29],[137,-455],[228,-174],[112,9],[311,184],[145,-59],[162,60],[23,907],[221,120]],[[63867,28219],[-157,36],[-235,194],[-249,-661],[-107,99],[-260,58],[-78,116],[-135,-166],[-135,109],[-189,-122],[-86,-143]],[[53202,40154],[225,-104],[238,214],[151,66],[119,-141],[9,-239],[81,-176],[184,-101],[349,104],[208,-26],[201,-96],[201,-306],[854,-1117],[331,29],[74,91],[65,463],[72,278],[164,163],[509,-400],[526,-280],[371,-524],[253,-18],[277,-202]],[[53202,40154],[617,1358],[-34,758],[-137,746],[20,219],[202,257],[24,184],[-159,599],[-115,107],[-391,-2],[-227,-125],[-146,-484],[-198,-53],[-217,-214],[-90,16],[-135,163],[-124,261],[-256,650],[-189,129],[-328,473],[-208,478],[-216,770],[-11,128],[76,272],[8,245],[-79,486],[-147,230],[34,210],[144,-19],[62,178],[105,585],[202,-49],[-16,-233],[186,9],[230,244],[193,306],[157,368],[191,329],[112,122],[158,47],[85,105],[65,258],[100,161],[383,348],[420,546],[232,452],[135,166],[151,60],[110,179],[140,440],[472,1283],[235,498],[229,212],[57,132],[73,406]],[[52176,41126],[-181,371],[-243,210],[-37,136],[12,563],[-35,139],[-253,92],[-207,225],[-70,225],[-142,-106],[-55,80],[-145,479],[-53,48],[-169,-373],[-101,-28],[-115,-168],[-158,-62],[-47,-192],[-103,-54],[-347,6],[-105,-77],[-70,-175],[90,-264],[-115,-402],[-188,-341],[-309,-797],[-46,-456],[99,-348],[204,-210]],[[44389,42786],[324,1787],[17,222],[17,1194],[29,1193],[37,206],[135,174],[80,1368],[54,144],[352,378],[125,204],[73,473],[138,29],[129,-156],[82,341],[-35,138],[-157,178],[-34,130],[78,221],[9,207],[-168,407],[206,113],[-24,691],[150,183],[407,318],[294,698],[160,52],[34,234],[274,65],[76,123],[23,280],[221,239],[256,122],[1121,-374],[287,-73],[282,38],[428,173],[225,35],[46,108],[-5,1925],[-35,206],[-406,868],[-116,330]]],"transform":{"scale":[0.00031668529313293127,0.0001816673859638596],"translate":[-118.36880422899992,14.546279476000095]}}