{"type":"Topology","objects":{"subunits":{"type":"GeometryCollection","name":"MEX_subunits","crs":{"type":"name","properties":{"name":"urn:ogc:def:crs:OGC:1.3:CRS84"}},"geometries":[{"type":"MultiPolygon","properties":{"name":"Sonora","fips":"MX26","scalerank":4,"country":"MEX","latitude":29.5293,"longitude":-110.485,"type":"Estado","iso":"MX-SON"},"id":"SO","arcs":[[[0,1,2,3,4,5,6,7,8,9,10,11,12,13,14,15,16,17,18,19,20,21,22,23,24,25,26,27,28,29,30,31,32,33,34,35,36,37,38,39,40]],[[41,42,43,44,45]],[[46]],[[47,48,49]]]},{"type":"MultiPolygon","properties":{"name":"Baja California","fips":"MX02","scalerank":4,"country":"MEX","latitude":30.3399,"longitude":-115.209,"type":"Estado","iso":"MX-BCN"},"id":"BC","arcs":[[[-41,50,51,52,53,54,55,56,57,58,59,60,61,62,63,64,65,66,67,68,69,70,71,72,73,74,75,76,77,78,79,80,81,82,83,84,85,86,87,88,89,90,91,92,93,94,95]],[[96,97,98]],[[99,100,101,102,103,104]],[[105]]]},{"type":"Polygon","properties":{"name":"Chihuahua","fips":"MX06","scalerank":4,"country":"MEX","latitude":28.973,"longitude":-106.232,"type":"Estado","iso":"MX-CHH"},"id":"CH","arcs":[[106,107,108,109,-2]]},{"type":"Polygon","properties":{"name":"Coahuila","fips":"MX07","scalerank":4,"country":"MEX","latitude":27.4473,"longitude":-101.885,"type":"Estado","iso":"MX-COA"},"id":"CO","arcs":[[110,111,112,113,-108]]},{"type":"Polygon","properties":{"name":"Tamaulipas","fips":"MX28","scalerank":4,"country":"MEX","latitude":24.0808,"longitude":-98.5197,"type":"Estado","iso":"MX-TAM"},"id":"TM","arcs":[[114,115,116,117,118,119,120,121,122,123]]},{"type":"Polygon","properties":{"name":"Nuevo León","fips":"MX19","scalerank":4,"country":"MEX","latitude":25.6178,"longitude":-99.8307,"type":"Estado","iso":"MX-NLE"},"id":"NL","arcs":[[124,-124,125,-112]]},{"type":"MultiPolygon","properties":{"name":"Quintana Roo","fips":"MX23","scalerank":4,"country":"MEX","latitude":19.3861,"longitude":-88.344,"type":"Estado","iso":"MX-ROO"},"id":"QR","arcs":[[[126,127,128,129,130,131,132,133,134,135,136,137,138,139,140,141,142,143,144,145,146,147,148,149,150,151,152]],[[153,154,155,156]]]},{"type":"MultiPolygon","properties":{"name":"Campeche","fips":"MX04","scalerank":4,"country":"MEX","latitude":18.6624,"longitude":-90.2807,"type":"Estado","iso":"MX-CAM"},"id":"CM","arcs":[[[157,158,159,160,161,162,163,164,165,166,167,168,169,170,171,172,173,174,175,176,177,-127]],[[178]]]},{"type":"Polygon","properties":{"name":"Tabasco","fips":"MX27","scalerank":4,"country":"MEX","latitude":18.1252,"longitude":-92.8274,"type":"Estado","iso":"MX-TAB"},"id":"TB","arcs":[[179,180,181,182,183,184,185,-159]]},{"type":"Polygon","properties":{"name":"Chiapas","fips":"MX05","scalerank":4,"country":"MEX","latitude":16.527,"longitude":-92.581,"type":"Estado","iso":"MX-CHP"},"id":"CS","arcs":[[186,187,188,189,190,191,192,193,194,195,-181]]},{"type":"MultiPolygon","properties":{"name":"Colima","fips":"MX08","scalerank":4,"country":"MEX","latitude":19.1325,"longitude":-103.915,"type":"Estado","iso":"MX-COL"},"id":"CL","arcs":[[[196]],[[197,198,199,200,201,202]]]},{"type":"MultiPolygon","properties":{"name":"Nayarit","fips":"MX18","scalerank":4,"country":"MEX","latitude":21.7934,"longitude":-104.824,"type":"Estado","iso":"MX-NAY"},"id":"NA","arcs":[[[203]],[[204,205,206,207,208,209,210,211,212,213,214,215,216,217]]]},{"type":"MultiPolygon","properties":{"name":"Baja California Sur","fips":"MX03","scalerank":4,"country":"MEX","latitude":25.0656,"longitude":-111.452,"type":"Estado","iso":"MX-BCS"},"id":"BS","arcs":[[[218]],[[219]],[[220]],[[221]],[[222]],[[223]],[[-70,224,225,226,227,228,229,230,231,232,233,234,235,236,237,238,239,240,241,242,243,244,245,246,247,248,249,250,251,252,253,254,255,256,257,258,259,260,261,262,263,264,265,266,267,268,269,270,271,272,273,274,275,276,277,278,279,280,281,282,283,284,285,286,287,288,289,290,291,292]]]},{"type":"Polygon","properties":{"name":"Sinaloa","fips":"MX25","scalerank":4,"country":"MEX","latitude":25.6041,"longitude":-108.001,"type":"Estado","iso":"MX-SIN"},"id":"SI","arcs":[[293,294,295,296,297,298,299,300,301,302,303,304,305,306,307,308,309,310,311,312,313,314,315,316,317,-50,318,-3,-110,319,-215]]},{"type":"Polygon","properties":{"name":"Yucatán","fips":"MX31","scalerank":4,"country":"MEX","latitude":20.663,"longitude":-88.9836,"type":"Estado","iso":"MX-YUC"},"id":"YU","arcs":[[320,321,322,323,324,325,326,327,-128,-178]]},{"type":"Polygon","properties":{"name":"Veracruz","fips":"MX30","scalerank":4,"country":"MEX","latitude":19.0926,"longitude":-96.5953,"type":"Estado","iso":"MX-VER"},"id":"VE","arcs":[[328,329,330,331,332,333,334,335,336,337,338,339,340,341,342,343,344,345,346,347,-182,-196,348,349,350,351,-122]]},{"type":"Polygon","properties":{"name":"Jalisco","fips":"MX14","scalerank":4,"country":"MEX","latitude":20.3026,"longitude":-103.602,"type":"Estado","iso":"MX-JAL"},"id":"JA","arcs":[[352,353,354,355,356,357,358,359,360,361,362,-218,363,364,365,366,367,-202]]},{"type":"Polygon","properties":{"name":"Michoacán","fips":"MX16","scalerank":4,"country":"MEX","latitude":19.2458,"longitude":-101.936,"type":"Estado","iso":"MX-MIC"},"id":"MI","arcs":[[368,369,370,371,372,-203,-368,373,374,375,376]]},{"type":"Polygon","properties":{"name":"Guerrero","fips":"MX12","scalerank":4,"country":"MEX","latitude":17.7608,"longitude":-100.091,"type":"Estado","iso":"MX-GRO"},"id":"GR","arcs":[[377,378,379,380,381,382,383,384,385,386,387,388,389,390,-377,391,392,393,394]]},{"type":"Polygon","properties":{"name":"Oaxaca","fips":"MX20","scalerank":4,"country":"MEX","latitude":16.94,"longitude":-96.2087,"type":"Estado","iso":"MX-OAX"},"id":"OA","arcs":[[395,396,397,398,399,400,401,402,403,404,405,406,407,408,-395,409,-349,-195,410,411,412,413]]},{"type":"Polygon","properties":{"name":null,"fips":null,"scalerank":11,"country":"MEX","latitude":22.3858,"longitude":-89.6633,"type":null,"iso":"MX-X01~"},"arcs":[[414]]},{"type":"Polygon","properties":{"name":"México","fips":"MX15","scalerank":4,"country":"MEX","latitude":19.3275,"longitude":-99.7416,"type":"Estado","iso":"MX-MEX"},"id":"MX","arcs":[[415,416,417,418,-392,-376,419,420,421]]},{"type":"Polygon","properties":{"name":"Puebla","fips":"MX21","scalerank":4,"country":"MEX","latitude":18.549,"longitude":-97.8889,"type":"Estado","iso":"MX-PUE"},"id":"PU","arcs":[[-416,422,423,-350,-410,-394,424]]},{"type":"Polygon","properties":{"name":"Morelos","fips":"MX17","scalerank":4,"country":"MEX","latitude":18.742,"longitude":-99.0785,"type":"Estado","iso":"MX-MOR"},"id":"MO","arcs":[[-425,-393,-419,425,-417]]},{"type":"Polygon","properties":{"name":"Querétaro","fips":"MX22","scalerank":4,"country":"MEX","latitude":20.7392,"longitude":-99.9663,"type":"Estado","iso":"MX-QUE"},"id":"QT","arcs":[[426,-420,-375,427,428]]},{"type":"Polygon","properties":{"name":"Hidalgo","fips":"MX13","scalerank":4,"country":"MEX","latitude":20.5354,"longitude":-98.9221,"type":"Estado","iso":"MX-HID"},"id":"HG","arcs":[[-427,429,-351,-424,430,-421]]},{"type":"Polygon","properties":{"name":"Guanajuato","fips":"MX11","scalerank":4,"country":"MEX","latitude":20.8141,"longitude":-100.904,"type":"Estado","iso":"MX-GUA"},"id":"GJ","arcs":[[-428,-374,-367,431]]},{"type":"Polygon","properties":{"name":"San Luis Potosí","fips":"MX24","scalerank":4,"country":"MEX","latitude":22.4465,"longitude":-100.324,"type":"Estado","iso":"MX-SLP"},"id":"SL","arcs":[[-126,-123,-352,-430,-429,-432,432]]},{"type":"Polygon","properties":{"name":"Zacatecas","fips":"MX32","scalerank":4,"country":"MEX","latitude":23.3785,"longitude":-102.579,"type":"Estado","iso":"MX-ZAC"},"id":"ZA","arcs":[[-433,-366,433,-364,-217,434,-113]]},{"type":"Polygon","properties":{"name":"Aguascalientes","fips":"MX01","scalerank":4,"country":"MEX","latitude":22.0375,"longitude":-102.351,"type":"Estado","iso":"MX-AGU"},"id":"AG","arcs":[[-365,-434]]},{"type":"Polygon","properties":{"name":"Durango","fips":"MX10","scalerank":4,"country":"MEX","latitude":24.566,"longitude":-104.808,"type":"Estado","iso":"MX-DUR"},"id":"DG","arcs":[[-320,-109,-114,-435,-216]]},{"type":"Polygon","properties":{"name":"Tlaxcala","fips":"MX29","scalerank":4,"country":"MEX","latitude":19.3956,"longitude":-98.161,"type":"Estado","iso":"MX-TLA"},"id":"TL","arcs":[[-431,-423,-422]]},{"type":"Polygon","properties":{"name":"Distrito Federal","fips":"MX09","scalerank":4,"country":"MEX","latitude":19.3266,"longitude":-99.1369,"type":"Distrito Federal","iso":"MX-DIF"},"id":"DF","arcs":[[-418,-426]]}]},"places":{"type":"GeometryCollection","name":"MEX_places","crs":{"type":"name","properties":{"name":"urn:ogc:def:crs:OGC:1.3:CRS84"}},"geometries":[{"type":"Point","properties":{"name":"Vicente Guerrero","scalerank":8,"subregion":"Baja California","latitude":30.764051,"longitude":-116.00926},"id":"Q7925156","coordinates":[1777,6954]},{"type":"Point","properties":{"name":"Loreto","scalerank":8,"subregion":"Baja California Sur","latitude":26.013333,"longitude":-111.351664},"id":"Q1020758","coordinates":[1907,6681]},{"type":"Point","properties":{"name":"Ciudad Constitución","scalerank":8,"subregion":"Baja California Sur","latitude":25.040008,"longitude":-111.659991},"id":"Q599087","coordinates":[1898,6625]},{"type":"Point","properties":{"name":"Allende","scalerank":8,"subregion":"Coahuila","latitude":28.329988,"longitude":-100.849979},"id":"Q2448272","coordinates":[2198,6814]},{"type":"Point","properties":{"name":"Nueva Rosita","scalerank":8,"subregion":"Coahuila","latitude":27.949959,"longitude":-101.219982},"id":"Q2014880","coordinates":[2188,6792]},{"type":"Point","properties":{"name":"Hidalgo del Parral","scalerank":8,"subregion":"Chihuahua","latitude":26.933355,"longitude":-105.666636},"id":"Q771214","coordinates":[2065,6734]},{"type":"Point","properties":{"name":"Ascensión","scalerank":8,"subregion":"Chihuahua","latitude":31.100026,"longitude":-107.979983},"id":"Q2450325","coordinates":[2000,6974]},{"type":"Point","properties":{"name":"Gómez Palacio","scalerank":8,"subregion":"Durango","latitude":25.570053,"longitude":-103.500024},"id":"Q1775128","coordinates":[2125,6655]},{"type":"Point","properties":{"name":"Canatlan","scalerank":8,"subregion":"Durango","latitude":24.519988,"longitude":-104.779997},"id":"Q5124140","coordinates":[2089,6595]},{"type":"Point","properties":{"name":"Villa Unión","scalerank":8,"subregion":"Sinaloa","latitude":23.199991,"longitude":-106.230038},"id":"Q9093922","coordinates":[2049,6519]},{"type":"Point","properties":{"name":"Altata","scalerank":8,"subregion":"Sinaloa","latitude":24.636045,"longitude":-107.916215},"id":"Q4736195","coordinates":[2002,6602]},{"type":"Point","properties":{"name":"Esperanza","scalerank":8,"subregion":"Sonora","latitude":27.580008,"longitude":-109.929993},"id":"Q27940770","coordinates":[1946,6771]},{"type":"Point","properties":{"name":"Magdalena","scalerank":8,"subregion":"Sonora","latitude":30.616618,"longitude":-111.049951},"id":"Q1572516","coordinates":[1917,6946]},{"type":"Point","properties":{"name":"Nacozari de García","scalerank":8,"subregion":"Sonora","latitude":30.420015,"longitude":-109.649984},"id":"Q123329","coordinates":[1954,6935]},{"type":"Point","properties":{"name":"Villanueva","scalerank":8,"subregion":"Zacatecas","latitude":22.350017,"longitude":-102.88001},"id":"Q2991562","coordinates":[2142,6470]},{"type":"Point","properties":{"name":"Montemorelos","scalerank":8,"subregion":"Nuevo León","latitude":25.189999,"longitude":-99.839989},"id":"Q765472","coordinates":[2226,6633]},{"type":"Point","properties":{"name":"Sabinas Hidalgo","scalerank":8,"subregion":"Nuevo León","latitude":26.510021,"longitude":-100.179968},"id":"Q2391830","coordinates":[2217,6709]},{"type":"Point","properties":{"name":"Cardenas","scalerank":8,"subregion":"San Luis Potosí","latitude":22.000012,"longitude":-99.669999},"id":"Q2991521","coordinates":[2231,6450]},{"type":"Point","properties":{"name":"Ciudad Valles","scalerank":8,"subregion":"San Luis Potosí","latitude":21.979988,"longitude":-99.020013},"id":"Q1002537","coordinates":[2249,6449]},{"type":"Point","properties":{"name":"Rio Verde","scalerank":8,"subregion":"San Luis Potosí","latitude":21.929991,"longitude":-99.980006},"id":"Q1925390","coordinates":[2223,6446]},{"type":"Point","properties":{"name":"Ciudad Mante","scalerank":8,"subregion":"Tamaulipas","latitude":22.733353,"longitude":-98.950017},"id":"Q736594","coordinates":[2251,6492]},{"type":"Point","properties":{"name":"Reynosa","scalerank":8,"subregion":"Tamaulipas","latitude":26.079996,"longitude":-98.300031},"id":"Q738303","coordinates":[2269,6685]},{"type":"Point","properties":{"name":"Ciudad Madero","scalerank":8,"subregion":"Tamaulipas","latitude":22.318908,"longitude":-97.836106},"id":"Q985365","coordinates":[2282,6468]},{"type":"Point","properties":{"name":"Autlan","scalerank":8,"subregion":"Jalisco","latitude":19.770019,"longitude":-104.369997},"id":"Q2589446","coordinates":[2101,6321]},{"type":"Point","properties":{"name":"Ciudad Hidalgo","scalerank":8,"subregion":"Michoacán","latitude":19.679973,"longitude":-100.569996},"id":"Q1962248","coordinates":[2206,6316]},{"type":"Point","properties":{"name":"Apatzingán","scalerank":8,"subregion":"Michoacán","latitude":19.079984,"longitude":-102.350017},"id":"Q94758","coordinates":[2157,6282]},{"type":"Point","properties":{"name":"Santiago Ixcuintla","scalerank":8,"subregion":"Nayarit","latitude":21.819998,"longitude":-105.220048},"id":"Q3849467","coordinates":[2077,6439]},{"type":"Point","properties":{"name":"Juchitan","scalerank":8,"subregion":"Oaxaca","latitude":16.429991,"longitude":-95.019999},"id":"Q1710837","coordinates":[2360,6129]},{"type":"Point","properties":{"name":"Miahuatlán","scalerank":8,"subregion":"Oaxaca","latitude":16.329997,"longitude":-96.600006},"id":"Q2449310","coordinates":[2316,6123]},{"type":"Point","properties":{"name":"Atlixco","scalerank":8,"subregion":"Puebla","latitude":18.900021,"longitude":-98.449996},"id":"Q757401","coordinates":[2265,6271]},{"type":"Point","properties":{"name":"Acatlan","scalerank":8,"subregion":"Puebla","latitude":18.19996,"longitude":-98.049995},"id":"Q2651821","coordinates":[2276,6231]},{"type":"Point","properties":{"name":"Paraíso","scalerank":8,"subregion":"Tabasco","latitude":18.400026,"longitude":-93.229979},"id":"Q2072540","coordinates":[2410,6242]},{"type":"Point","properties":{"name":"Balancán","scalerank":8,"subregion":"Tabasco","latitude":17.799959,"longitude":-91.529979},"id":"Q2669506","coordinates":[2457,6208]},{"type":"Point","properties":{"name":"Tlaxcala","scalerank":8,"subregion":"Tlaxcala","latitude":19.319995,"longitude":-98.23001},"id":"Q614072","coordinates":[2271,6295]},{"type":"Point","properties":{"name":"Irapuato","scalerank":8,"subregion":"Guanajuato","latitude":20.670016,"longitude":-101.499991},"id":"Q816845","coordinates":[2184,6373]},{"type":"Point","properties":{"name":"Celaya","scalerank":8,"subregion":"Guanajuato","latitude":20.530025,"longitude":-100.800008},"id":"Q580649","coordinates":[2200,6365]},{"type":"Point","properties":{"name":"Chilpancingo","scalerank":8,"subregion":"Guerrero","latitude":17.549974,"longitude":-99.50001},"id":"Q207935","coordinates":[2236,6193]},{"type":"Point","properties":{"name":"Iguala","scalerank":8,"subregion":"Guerrero","latitude":18.370001,"longitude":-99.539981},"id":"Q607167","coordinates":[2235,6241]},{"type":"Point","properties":{"name":"Tecpan","scalerank":8,"subregion":"Guerrero","latitude":17.249992,"longitude":-100.679989},"id":"Q4453847","coordinates":[2203,6176]},{"type":"Point","properties":{"name":"Atoyac","scalerank":8,"subregion":"Guerrero","latitude":17.199995,"longitude":-100.43003},"id":"Q2279115","coordinates":[2210,6173]},{"type":"Point","properties":{"name":"Nezahualcoyotl","scalerank":8,"subregion":"México","latitude":19.410016,"longitude":-99.029987},"id":"Q210307","coordinates":[2249,6301]},{"type":"Point","properties":{"name":"San Juan del Río","scalerank":8,"subregion":"Querétaro","latitude":20.379982,"longitude":-100.000031},"id":"Q1815099","coordinates":[2222,6356]},{"type":"Point","properties":{"name":"Jaltipan","scalerank":8,"subregion":"Veracruz","latitude":17.939976,"longitude":-94.73999},"id":"Q2447248","coordinates":[2368,6216]},{"type":"Point","properties":{"name":"Orizaba","scalerank":8,"subregion":"Veracruz","latitude":18.850024,"longitude":-97.129999},"id":"Q993904","coordinates":[2302,6268]},{"type":"Point","properties":{"name":"Xalapa","scalerank":8,"subregion":"Veracruz","latitude":19.529982,"longitude":-96.919986},"id":"Q221051","coordinates":[2308,6307]},{"type":"Point","properties":{"name":"Nautla","scalerank":8,"subregion":"Veracruz","latitude":20.216581,"longitude":-96.783354},"id":"Q3846099","coordinates":[2311,6347]},{"type":"Point","properties":{"name":"San Cristobal de Las Casas","scalerank":8,"subregion":"Chiapas","latitude":16.749997,"longitude":-92.633375},"id":"Q524894","coordinates":[2427,6147]},{"type":"Point","properties":{"name":"Escuintla","scalerank":8,"subregion":"Chiapas","latitude":15.330006,"longitude":-92.62999},"id":"Q1477389","coordinates":[2427,6066]},{"type":"Point","properties":{"name":"Motul","scalerank":8,"subregion":"Yucatán","latitude":21.09999,"longitude":-89.279987},"id":"Q944292","coordinates":[2520,6398]},{"type":"Point","properties":{"name":"Tekax","scalerank":8,"subregion":"Yucatán","latitude":20.199993,"longitude":-89.279987},"id":"Q1880859","coordinates":[2520,6346]},{"type":"Point","properties":{"name":"Peto","scalerank":8,"subregion":"Yucatán","latitude":20.129972,"longitude":-88.919984},"id":"Q1949370","coordinates":[2530,6342]},{"type":"Point","properties":{"name":"Halachó","scalerank":8,"subregion":"Yucatán","latitude":20.479976,"longitude":-90.080016},"id":"Q3008522","coordinates":[2498,6362]},{"type":"Point","properties":{"name":"San Quintín","scalerank":7,"subregion":"Baja California","latitude":30.483732,"longitude":-115.949987},"id":"Q2249597","coordinates":[1779,6943]},{"type":"Point","properties":{"name":"Punta Prieta","scalerank":7,"subregion":"Baja California","latitude":28.933698,"longitude":-114.166582},"id":"Q959021","coordinates":[1829,6849]},{"type":"Point","properties":{"name":"San Felipe","scalerank":7,"subregion":"Baja California","latitude":31.024113,"longitude":-114.849615},"id":"Q586007","coordinates":[1810,6969]},{"type":"Point","properties":{"name":"Santa Rosalía","scalerank":7,"subregion":"Baja California Sur","latitude":27.317078,"longitude":-112.283364},"id":"Q1640231","coordinates":[1881,6756]},{"type":"Point","properties":{"name":"Guerrero Negro","scalerank":7,"subregion":"Baja California Sur","latitude":27.990422,"longitude":-114.169967},"id":"Q957163","coordinates":[1828,6795]},{"type":"Point","properties":{"name":"Piedras Negras","scalerank":7,"subregion":"Coahuila","latitude":28.707639,"longitude":-100.531652},"id":"Q1856408","coordinates":[2207,6836]},{"type":"Point","properties":{"name":"San Pedro de las Colonias","scalerank":7,"subregion":"Coahuila","latitude":25.759215,"longitude":-102.982691},"id":"Q2449386","coordinates":[2139,6666]},{"type":"Point","properties":{"name":"Sierra Mojada","scalerank":7,"subregion":"Coahuila","latitude":27.287571,"longitude":-103.287195},"id":"Q2000131","coordinates":[2119,6754]},{"type":"Point","properties":{"name":"Parras","scalerank":7,"subregion":"Coahuila","latitude":25.420398,"longitude":-102.179949},"id":"Q1861513","coordinates":[2161,6647]},{"type":"Point","properties":{"name":"Cuauhtémoc","scalerank":7,"subregion":"Chihuahua","latitude":28.425744,"longitude":-106.869586},"id":"Q2656480","coordinates":[2031,6820]},{"type":"Point","properties":{"name":"Nuevo Casas Grandes","scalerank":7,"subregion":"Chihuahua","latitude":30.418491,"longitude":-107.911899},"id":"Q1858936","coordinates":[2002,6934]},{"type":"Point","properties":{"name":"Ojinaga","scalerank":7,"subregion":"Chihuahua","latitude":29.540405,"longitude":-104.41002},"id":"Q1971351","coordinates":[2100,6884]},{"type":"Point","properties":{"name":"Villa Ahumada","scalerank":7,"subregion":"Chihuahua","latitude":30.610443,"longitude":-106.509995},"id":"Q20148488","coordinates":[2041,6946]},{"type":"Point","properties":{"name":"Santa Barbara","scalerank":7,"subregion":"Chihuahua","latitude":26.800443,"longitude":-105.820037},"id":"Q522152","coordinates":[2060,6726]},{"type":"Point","properties":{"name":"Ciudad Camargo","scalerank":7,"subregion":"Chihuahua","latitude":27.690414,"longitude":-105.170051},"id":"Q2528602","coordinates":[2078,6777]},{"type":"Point","properties":{"name":"Cuencame","scalerank":7,"subregion":"Durango","latitude":24.870406,"longitude":-103.699986},"id":"Q933194","coordinates":[2119,6615]},{"type":"Point","properties":{"name":"Papasquiaro","scalerank":7,"subregion":"Durango","latitude":24.830408,"longitude":-105.339989},"id":"Q2465593","coordinates":[2074,6613]},{"type":"Point","properties":{"name":"Escuinapa","scalerank":7,"subregion":"Sinaloa","latitude":22.850426,"longitude":-105.799987},"id":"Q7467918","coordinates":[2061,6499]},{"type":"Point","properties":{"name":"Guamúchil","scalerank":7,"subregion":"Sinaloa","latitude":25.470369,"longitude":-108.090002},"id":"Q1552698","coordinates":[1997,6650]},{"type":"Point","properties":{"name":"Guasave","scalerank":7,"subregion":"Sinaloa","latitude":25.570492,"longitude":-108.469979},"id":"Q588515","coordinates":[1987,6655]},{"type":"Point","properties":{"name":"El Fuerte","scalerank":7,"subregion":"Sinaloa","latitude":26.420414,"longitude":-108.619996},"id":"Q1324181","coordinates":[1983,6704]},{"type":"Point","properties":{"name":"Eldorado","scalerank":7,"subregion":"Sinaloa","latitude":24.330465,"longitude":-107.369994},"id":"Q5351160","coordinates":[2017,6584]},{"type":"Point","properties":{"name":"La Cruz","scalerank":7,"subregion":"Sinaloa","latitude":23.920412,"longitude":-106.900023},"id":"Q2012391","coordinates":[2030,6560]},{"type":"Point","properties":{"name":"Agua Prieta","scalerank":7,"subregion":"Sonora","latitude":31.322338,"longitude":-109.563039},"id":"Q397759","coordinates":[1956,6987]},{"type":"Point","properties":{"name":"Ciudad Obregon","scalerank":7,"subregion":"Sonora","latitude":27.466604,"longitude":-109.924981},"id":"Q681340","coordinates":[1946,6765]},{"type":"Point","properties":{"name":"Navajoa","scalerank":7,"subregion":"Sonora","latitude":27.081899,"longitude":-109.454622},"id":"Q1001522","coordinates":[1959,6742]},{"type":"Point","properties":{"name":"Caborca","scalerank":7,"subregion":"Sonora","latitude":30.716147,"longitude":-112.16425},"id":"Q1024929","coordinates":[1884,6952]},{"type":"Point","properties":{"name":"Mazatlán","scalerank":7,"subregion":"Sonora","latitude":29.017104,"longitude":-110.13334},"id":"Q3311957","coordinates":[1941,6854]},{"type":"Point","properties":{"name":"Cananea","scalerank":7,"subregion":"Sonora","latitude":30.99042,"longitude":-110.300048},"id":"Q176924","coordinates":[1936,6967]},{"type":"Point","properties":{"name":"Huatabampo","scalerank":7,"subregion":"Sonora","latitude":26.830415,"longitude":-109.630037},"id":"Q1632892","coordinates":[1955,6728]},{"type":"Point","properties":{"name":"Zacatecas","scalerank":7,"subregion":"Zacatecas","latitude":22.770431,"longitude":-102.580003},"id":"Q139242","coordinates":[2150,6494]},{"type":"Point","properties":{"name":"Juan Aldama","scalerank":7,"subregion":"Zacatecas","latitude":24.290415,"longitude":-103.389979},"id":"Q6298792","coordinates":[2128,6582]},{"type":"Point","properties":{"name":"Valparaíso","scalerank":7,"subregion":"Zacatecas","latitude":22.770431,"longitude":-103.569968},"id":"Q2651632","coordinates":[2123,6494]},{"type":"Point","properties":{"name":"Fresnillo","scalerank":7,"subregion":"Zacatecas","latitude":23.170432,"longitude":-102.859985},"id":"Q1816543","coordinates":[2143,6517]},{"type":"Point","properties":{"name":"Linares","scalerank":7,"subregion":"Nuevo León","latitude":24.860381,"longitude":-99.570031},"id":"Q991413","coordinates":[2234,6614]},{"type":"Point","properties":{"name":"Matehuala","scalerank":7,"subregion":"San Luis Potosí","latitude":23.660376,"longitude":-100.650017},"id":"Q665723","coordinates":[2204,6545]},{"type":"Point","properties":{"name":"Tamuín","scalerank":7,"subregion":"San Luis Potosí","latitude":21.980375,"longitude":-98.750004},"id":"Q2655761","coordinates":[2257,6449]},{"type":"Point","properties":{"name":"Tamazunchale","scalerank":7,"subregion":"San Luis Potosí","latitude":21.270419,"longitude":-98.77995},"id":"Q2471832","coordinates":[2256,6408]},{"type":"Point","properties":{"name":"Tula","scalerank":7,"subregion":"Tamaulipas","latitude":23.000391,"longitude":-99.719996},"id":"Q2000148","coordinates":[2230,6507]},{"type":"Point","properties":{"name":"Aldama","scalerank":7,"subregion":"Tamaulipas","latitude":22.920421,"longitude":-98.069968},"id":"Q3851217","coordinates":[2276,6503]},{"type":"Point","properties":{"name":"San Fernando","scalerank":7,"subregion":"Tamaulipas","latitude":24.850433,"longitude":-98.160014},"id":"Q745811","coordinates":[2273,6614]},{"type":"Point","properties":{"name":"Tecoman","scalerank":7,"subregion":"Colima","latitude":18.920381,"longitude":-103.879975},"id":"Q3850513","coordinates":[2114,6272]},{"type":"Point","properties":{"name":"Puerto Vallarta","scalerank":7,"subregion":"Jalisco","latitude":20.677096,"longitude":-105.244982},"id":"Q853258","coordinates":[2076,6374]},{"type":"Point","properties":{"name":"La Barca","scalerank":7,"subregion":"Jalisco","latitude":20.280376,"longitude":-102.560004},"id":"Q568688","coordinates":[2151,6351]},{"type":"Point","properties":{"name":"Ciudad Guzman","scalerank":7,"subregion":"Jalisco","latitude":19.710411,"longitude":-103.46},"id":"Q1094355","coordinates":[2126,6318]},{"type":"Point","properties":{"name":"Lagos de Moreno","scalerank":7,"subregion":"Jalisco","latitude":21.370413,"longitude":-101.929991},"id":"Q1962295","coordinates":[2168,6413]},{"type":"Point","properties":{"name":"Morelia","scalerank":7,"subregion":"Michoacán","latitude":19.733381,"longitude":-101.189493},"id":"Q200252","coordinates":[2189,6319]},{"type":"Point","properties":{"name":"Lázaro Cárdenas","scalerank":7,"subregion":"Michoacán","latitude":17.958709,"longitude":-102.199974},"id":"Q1785340","coordinates":[2161,6217]},{"type":"Point","properties":{"name":"Zamora","scalerank":7,"subregion":"Michoacán","latitude":19.980368,"longitude":-102.280021},"id":"Q145865","coordinates":[2159,6333]},{"type":"Point","properties":{"name":"Coalcoman","scalerank":7,"subregion":"Michoacán","latitude":18.78039,"longitude":-103.149968},"id":"Q3847177","coordinates":[2135,6264]},{"type":"Point","properties":{"name":"Uruapan","scalerank":7,"subregion":"Michoacán","latitude":19.420377,"longitude":-102.070008},"id":"Q399270","coordinates":[2165,6301]},{"type":"Point","properties":{"name":"Tuxpan","scalerank":7,"subregion":"Nayarit","latitude":21.930404,"longitude":-105.269968},"id":"Q2652089","coordinates":[2076,6446]},{"type":"Point","properties":{"name":"Tepic","scalerank":7,"subregion":"Nayarit","latitude":21.505392,"longitude":-104.879991},"id":"Q207972","coordinates":[2086,6421]},{"type":"Point","properties":{"name":"Compostela","scalerank":7,"subregion":"Nayarit","latitude":21.230421,"longitude":-104.89999},"id":"Q2651919","coordinates":[2086,6405]},{"type":"Point","properties":{"name":"Tecuala","scalerank":7,"subregion":"Nayarit","latitude":22.400427,"longitude":-105.459982},"id":"Q2449012","coordinates":[2070,6473]},{"type":"Point","properties":{"name":"Ciudad del Carmen","scalerank":7,"subregion":"Campeche","latitude":18.653659,"longitude":-91.82448},"id":"Q991435","coordinates":[2449,6257]},{"type":"Point","properties":{"name":"Champotón","scalerank":7,"subregion":"Campeche","latitude":19.350433,"longitude":-90.720003},"id":"Q584115","coordinates":[2480,6297]},{"type":"Point","properties":{"name":"Salina Cruz","scalerank":7,"subregion":"Oaxaca","latitude":16.167061,"longitude":-95.199988},"id":"Q1640261","coordinates":[2355,6114]},{"type":"Point","properties":{"name":"Puerto Escondido","scalerank":7,"subregion":"Oaxaca","latitude":15.85918,"longitude":-97.065888},"id":"Q1752991","coordinates":[2303,6096]},{"type":"Point","properties":{"name":"Pochutla","scalerank":7,"subregion":"Oaxaca","latitude":15.730395,"longitude":-96.469988},"id":"Q602726","coordinates":[2320,6089]},{"type":"Point","properties":{"name":"Mitla","scalerank":7,"subregion":"Oaxaca","latitude":16.917041,"longitude":-96.399992},"id":"Q1366027","coordinates":[2322,6157]},{"type":"Point","properties":{"name":"Tlaxiaco","scalerank":7,"subregion":"Oaxaca","latitude":17.270405,"longitude":-97.680017},"id":"Q2652096","coordinates":[2286,6177]},{"type":"Point","properties":{"name":"Huajuapan de León","scalerank":7,"subregion":"Oaxaca","latitude":17.810372,"longitude":-97.789985},"id":"Q1005759","coordinates":[2283,6208]},{"type":"Point","properties":{"name":"Tehuacan","scalerank":7,"subregion":"Puebla","latitude":18.450358,"longitude":-97.379984},"id":"Q842261","coordinates":[2295,6245]},{"type":"Point","properties":{"name":"Teziutlán","scalerank":7,"subregion":"Puebla","latitude":19.82043,"longitude":-97.359985},"id":"Q7708625","coordinates":[2295,6324]},{"type":"Point","properties":{"name":"Frontera","scalerank":7,"subregion":"Tabasco","latitude":18.580376,"longitude":-92.649988},"id":"Q2448297","coordinates":[2426,6253]},{"type":"Point","properties":{"name":"Tenosique","scalerank":7,"subregion":"Tabasco","latitude":17.480366,"longitude":-91.429985},"id":"Q2656511","coordinates":[2460,6189]},{"type":"Point","properties":{"name":"Salamanca","scalerank":7,"subregion":"Guanajuato","latitude":20.57041,"longitude":-101.200009},"id":"Q1801321","coordinates":[2189,6367]},{"type":"Point","properties":{"name":"Guanajuato","scalerank":7,"subregion":"Guanajuato","latitude":21.020408,"longitude":-101.279979},"id":"Q61306","coordinates":[2186,6393]},{"type":"Point","properties":{"name":"Taxco","scalerank":7,"subregion":"Guerrero","latitude":18.570377,"longitude":-99.619951},"id":"Q990095","coordinates":[2233,6252]},{"type":"Point","properties":{"name":"Ayutla","scalerank":7,"subregion":"Guerrero","latitude":16.900375,"longitude":-99.220001},"id":"Q957478","coordinates":[2247,6160]},{"type":"Point","properties":{"name":"Ciudad Altamirano","scalerank":7,"subregion":"Guerrero","latitude":18.320392,"longitude":-100.650017},"id":"Q2000092","coordinates":[2204,6238]},{"type":"Point","properties":{"name":"Petatlán","scalerank":7,"subregion":"Guerrero","latitude":17.520415,"longitude":-101.270031},"id":"Q4360151","coordinates":[2187,6192]},{"type":"Point","properties":{"name":"Pachuca","scalerank":7,"subregion":"Hidalgo","latitude":20.170434,"longitude":-98.730031},"id":"Q160750","coordinates":[2257,6341]},{"type":"Point","properties":{"name":"Toluca","scalerank":7,"subregion":"México","latitude":19.332328,"longitude":-99.671945},"id":"Q209034","coordinates":[2232,6294]},{"type":"Point","properties":{"name":"Zumpango","scalerank":7,"subregion":"México","latitude":19.810405,"longitude":-99.109982},"id":"Q1115965","coordinates":[2247,6324]},{"type":"Point","properties":{"name":"Minatitlán","scalerank":7,"subregion":"Veracruz","latitude":17.980465,"longitude":-94.530003},"id":"Q991006","coordinates":[2374,6218]},{"type":"Point","properties":{"name":"Coatzacoalcos","scalerank":7,"subregion":"Veracruz","latitude":18.120404,"longitude":-94.42001},"id":"Q502023","coordinates":[2377,6226]},{"type":"Point","properties":{"name":"Poza Rica de Hidalgo","scalerank":7,"subregion":"Veracruz","latitude":20.550437,"longitude":-97.469979},"id":"Q1010503","coordinates":[2293,6365]},{"type":"Point","properties":{"name":"Córdoba","scalerank":7,"subregion":"Veracruz","latitude":18.920381,"longitude":-96.919986},"id":"Q989492","coordinates":[2308,6272]},{"type":"Point","properties":{"name":"Santiago Tuxtla","scalerank":7,"subregion":"Veracruz","latitude":18.470383,"longitude":-95.299982},"id":"Q4769997","coordinates":[2353,6246]},{"type":"Point","properties":{"name":"Tuxpam","scalerank":7,"subregion":"Veracruz","latitude":20.960412,"longitude":-97.409982},"id":"Q1010971","coordinates":[2294,6390]},{"type":"Point","properties":{"name":"Pánuco","scalerank":7,"subregion":"Veracruz","latitude":22.060448,"longitude":-98.189986},"id":"Q2991100","coordinates":[2272,6453]},{"type":"Point","properties":{"name":"Pijijiapan","scalerank":7,"subregion":"Chiapas","latitude":15.690398,"longitude":-93.220031},"id":"Q2571410","coordinates":[2410,6086]},{"type":"Point","properties":{"name":"Isla Mujeres","scalerank":7,"subregion":"Quintana Roo","latitude":21.208391,"longitude":-86.711455},"id":"Q927815","coordinates":[2591,6404]},{"type":"Point","properties":{"name":"Felipe Carrillo Puerto","scalerank":7,"subregion":"Quintana Roo","latitude":19.580393,"longitude":-88.049985},"id":"Q1403187","coordinates":[2554,6310]},{"type":"Point","properties":{"name":"Tizimín","scalerank":7,"subregion":"Yucatán","latitude":21.130427,"longitude":-88.149979},"id":"Q2085590","coordinates":[2551,6400]},{"type":"Point","properties":{"name":"Valladolid","scalerank":7,"subregion":"Yucatán","latitude":20.670404,"longitude":-88.200002},"id":"Q1024731","coordinates":[2550,6373]},{"type":"Point","properties":{"name":"Izamal","scalerank":7,"subregion":"Yucatán","latitude":20.930414,"longitude":-89.020055},"id":"Q1020762","coordinates":[2527,6388]},{"type":"Point","properties":{"name":"Ticul","scalerank":7,"subregion":"Yucatán","latitude":20.400394,"longitude":-89.530024},"id":"Q2657301","coordinates":[2513,6358]},{"type":"Point","properties":{"name":"Ensenada","scalerank":6,"subregion":"Baja California","latitude":31.869979,"longitude":-116.619998},"id":"Q656189","coordinates":[1760,7018]},{"type":"Point","properties":{"name":"Saltillo","scalerank":6,"subregion":"Coahuila","latitude":25.421905,"longitude":-101.006928},"id":"Q53077","coordinates":[2194,6647]},{"type":"Point","properties":{"name":"Ciudad Juárez","scalerank":6,"subregion":"Chihuahua","latitude":31.692323,"longitude":-106.491994},"id":"Q26590","coordinates":[2042,7008]},{"type":"Point","properties":{"name":"Delicias","scalerank":6,"subregion":"Chihuahua","latitude":28.19997,"longitude":-105.499979},"id":"Q1962715","coordinates":[2069,6807]},{"type":"Point","properties":{"name":"Durango","scalerank":6,"subregion":"Durango","latitude":24.031103,"longitude":-104.67003},"id":"Q112813","coordinates":[2092,6567]},{"type":"Point","properties":{"name":"Los Mochis","scalerank":6,"subregion":"Sinaloa","latitude":25.789988,"longitude":-108.999998},"id":"Q752460","coordinates":[1972,6668]},{"type":"Point","properties":{"name":"Ciudad Victoria","scalerank":6,"subregion":"Tamaulipas","latitude":23.719959,"longitude":-99.129981},"id":"Q331661","coordinates":[2246,6549]},{"type":"Point","properties":{"name":"Aguascalientes","scalerank":6,"subregion":"Aguascalientes","latitude":21.881406,"longitude":-102.292359},"id":"Q200805","coordinates":[2158,6443]},{"type":"Point","properties":{"name":"Manzanillo","scalerank":6,"subregion":"Colima","latitude":19.049587,"longitude":-104.323085},"id":"Q739908","coordinates":[2102,6280]},{"type":"Point","properties":{"name":"Tehuantepec","scalerank":6,"subregion":"Oaxaca","latitude":16.329997,"longitude":-95.229986},"id":"Q629479","coordinates":[2354,6123]},{"type":"Point","properties":{"name":"Villahermosa","scalerank":6,"subregion":"Tabasco","latitude":17.999972,"longitude":-92.899973},"id":"Q210886","coordinates":[2419,6219]},{"type":"Point","properties":{"name":"Cuernavaca","scalerank":6,"subregion":"Morelos","latitude":18.921105,"longitude":-99.24},"id":"Q204245","coordinates":[2243,6272]},{"type":"Point","properties":{"name":"Querétaro","scalerank":6,"subregion":"Querétaro","latitude":20.631964,"longitude":-100.381928},"id":"Q173121","coordinates":[2211,6368]},{"type":"Point","properties":{"name":"Tapachula","scalerank":6,"subregion":"Chiapas","latitude":14.899981,"longitude":-92.269986},"id":"Q988225","coordinates":[2437,6041]},{"type":"Point","properties":{"name":"Chetumal","scalerank":6,"subregion":"Quintana Roo","latitude":18.500019,"longitude":-88.299996},"id":"Q459553","coordinates":[2547,6248]},{"type":"Point","properties":{"name":"Progreso","scalerank":6,"subregion":"Yucatán","latitude":21.283312,"longitude":-89.666579},"id":"Q657637","coordinates":[2509,6408]},{"type":"Point","properties":{"name":"Cabo San Lucas","scalerank":6,"subregion":"Baja California Sur","latitude":22.892756,"longitude":-109.904516},"id":"Q1020776","coordinates":[1947,6501]},{"type":"Point","properties":{"name":"Monclova","scalerank":6,"subregion":"Coahuila","latitude":26.899998,"longitude":-101.419996},"id":"Q990007","coordinates":[2183,6732]},{"type":"Point","properties":{"name":"Ometepec","scalerank":6,"subregion":"Guerrero","latitude":16.680053,"longitude":-98.420024},"id":"Q2991571","coordinates":[2266,6143]},{"type":"Point","properties":{"name":"Cozumel","scalerank":6,"subregion":"Quintana Roo","latitude":20.51,"longitude":-86.95},"id":"Q929946","coordinates":[2584,6364]},{"type":"Point","properties":{"name":"Mexicali","scalerank":4,"subregion":"Baja California","latitude":32.651928,"longitude":-115.481962},"id":"Q199440","coordinates":[1792,7063]},{"type":"Point","properties":{"name":"La Paz","scalerank":4,"subregion":"Baja California Sur","latitude":24.139959,"longitude":-110.319995},"id":"Q214215","coordinates":[1935,6573]},{"type":"Point","properties":{"name":"Torreón","scalerank":4,"subregion":"Coahuila","latitude":25.571999,"longitude":-103.421949},"id":"Q386991","coordinates":[2127,6655]},{"type":"Point","properties":{"name":"Culiacán","scalerank":4,"subregion":"Sinaloa","latitude":24.831941,"longitude":-107.381914},"id":"Q211760","coordinates":[2017,6613]},{"type":"Point","properties":{"name":"Nogales","scalerank":4,"subregion":"Sonora","latitude":31.305,"longitude":-110.944996},"id":"Q79783","coordinates":[1918,6986]},{"type":"Point","properties":{"name":"Hermosillo","scalerank":4,"subregion":"Sonora","latitude":29.098881,"longitude":-110.954065},"id":"Q189138","coordinates":[1918,6859]},{"type":"Point","properties":{"name":"Guaymas","scalerank":4,"subregion":"Sonora","latitude":27.930012,"longitude":-110.889986},"id":"Q985521","coordinates":[1920,6791]},{"type":"Point","properties":{"name":"San Luis Potosí","scalerank":4,"subregion":"San Luis Potosí","latitude":22.171922,"longitude":-101.001941},"id":"Q204271","coordinates":[2194,6460]},{"type":"Point","properties":{"name":"Matamoros","scalerank":4,"subregion":"Tamaulipas","latitude":25.879982,"longitude":-97.500003},"id":"Q738353","coordinates":[2291,6673]},{"type":"Point","properties":{"name":"Nuevo Laredo","scalerank":4,"subregion":"Tamaulipas","latitude":27.499987,"longitude":-99.550007},"id":"Q328846","coordinates":[2235,6766]},{"type":"Point","properties":{"name":"Colima","scalerank":4,"subregion":"Colima","latitude":19.229975,"longitude":-103.72001},"id":"Q61320","coordinates":[2119,6290]},{"type":"Point","properties":{"name":"Campeche","scalerank":4,"subregion":"Campeche","latitude":19.82999,"longitude":-90.499991},"id":"Q61301","coordinates":[2486,6325]},{"type":"Point","properties":{"name":"Oaxaca","scalerank":4,"subregion":"Oaxaca","latitude":17.08269,"longitude":-96.66995},"id":"Q131429","coordinates":[2314,6167]},{"type":"Point","properties":{"name":"León","scalerank":4,"subregion":"Guanajuato","latitude":21.151933,"longitude":-101.701976},"id":"Q189128","coordinates":[2175,6401]},{"type":"Point","properties":{"name":"Tijuana","scalerank":3,"subregion":"Baja California","latitude":32.501963,"longitude":-117.081942},"id":"Q124739","coordinates":[1748,7054]},{"type":"Point","properties":{"name":"Chihuahua","scalerank":3,"subregion":"Chihuahua","latitude":28.646927,"longitude":-106.086928},"id":"Q61302","coordinates":[2053,6832]},{"type":"Point","properties":{"name":"Mazatlán","scalerank":3,"subregion":"Sinaloa","latitude":23.221101,"longitude":-106.420001},"id":"Q40194","coordinates":[2044,6520]},{"type":"Point","properties":{"name":"Tampico","scalerank":3,"subregion":"Tamaulipas","latitude":22.30002,"longitude":-97.870006},"id":"Q273014","coordinates":[2281,6467]},{"type":"Point","properties":{"name":"Acapulco","scalerank":3,"subregion":"Guerrero","latitude":16.849991,"longitude":-99.915979},"id":"Q81398","coordinates":[2224,6153]},{"type":"Point","properties":{"name":"Veracruz","scalerank":3,"subregion":"Veracruz","latitude":19.177342,"longitude":-96.159981},"id":"Q173270","coordinates":[2329,6287]},{"type":"Point","properties":{"name":"Tuxtla Gutiérrez","scalerank":3,"subregion":"Chiapas","latitude":16.749997,"longitude":-93.15001},"id":"Q207429","coordinates":[2412,6147]},{"type":"Point","properties":{"name":"Cancún","scalerank":3,"subregion":"Quintana Roo","latitude":21.16996,"longitude":-86.830008},"id":"Q8969","coordinates":[2588,6402]},{"type":"Point","properties":{"name":"Mérida","scalerank":3,"subregion":"Yucatán","latitude":20.968585,"longitude":-89.618579},"id":"Q165204","coordinates":[2510,6390]},{"type":"Point","properties":{"name":"Guadalajara","scalerank":2,"subregion":"Jalisco","latitude":20.671962,"longitude":-103.33198},"id":"Q9022","coordinates":[2129,6373]},{"type":"Point","properties":{"name":"Puebla","scalerank":2,"subregion":"Puebla","latitude":19.051906,"longitude":-98.201983},"id":"Q125293","coordinates":[2272,6279]},{"type":"Point","properties":{"name":"Monterrey","scalerank":1,"subregion":"Nuevo León","latitude":25.671941,"longitude":-100.331931},"id":"Q81033","coordinates":[2213,6661]},{"type":"Point","properties":{"name":"Mexico City","scalerank":0,"subregion":"Distrito Federal","latitude":19.444388,"longitude":-99.132934},"id":"Q1489","coordinates":[2246,6303]}]},"land":{"type":"GeometryCollection","name":"MEX_land","crs":{"type":"name","properties":{"name":"urn:ogc:def:crs:OGC:1.3:CRS84"}},"geometries":[{"type":"MultiPolygon","properties":{"scalerank":0},"arcs":[[[435]],[[436,437,189,438,439,192,440,411,441,442,443,396,444,445,446,447,448,402,449,450,451,452,453,454,378,455,456,381,457,458,384,459,460,461,462,389,463,369,464,371,465,466,467,468,469,470,471,472,473,474,359,475,476,477,478,479,207,480,209,481,482,483,484,485,295,486,297,487,488,300,489,490,491,304,492,306,493,494,495,496,311,497,498,499,500,501,502,503,504,505,506,507,508,509,510,511,512,513,14,514,515,516,18,517,518,519,22,520,521,25,522,27,523,29,524,31,525,526,527,528,36,529,38,530,51,531,532,54,533,534,57,535,59,536,537,538,539,540,541,542,67,543,544,545,546,547,229,548,549,550,551,234,552,553,554,238,555,556,241,557,243,558,559,560,247,561,249,562,563,252,564,254,565,566,257,567,568,569,261,570,571,572,573,266,574,268,575,576,577,578,579,580,275,581,277,582,583,584,585,586,283,587,588,589,590,591,592,593,594,595,596,72,597,74,598,599,77,600,601,80,602,603,604,605,85,606,607,88,608,609,610,611,612,94,613,614,116,615,118,616,617,329,618,619,620,333,621,622,623,624,338,625,340,626,342,627,344,628,346,629,183,630,631,632,633,634,635,636,637,638,167,639,640,641,171,642,643,644,175,645,646,647,648,649,650,326,651,129,652,131,653,654,655,656,657,658,659,139,660,661,662,663,664,665,146,666,667,149,668,669,670]],[[671]],[[672]],[[673],[674]],[[675]],[[676]],[[677]],[[678]],[[679]],[[680]],[[681]],[[682]],[[683]],[[684]],[[685]],[[686]],[[687]],[[688]],[[689]],[[690]],[[691]],[[692]],[[693]],[[694]],[[695]],[[696]],[[697]],[[698]],[[699]],[[700]],[[701]],[[702]],[[703]],[[704]],[[705]],[[706]],[[707]],[[708]],[[709]],[[710]],[[711]],[[712]],[[713]],[[714]],[[715]],[[716]],[[717]],[[718]],[[719]],[[720]],[[721]],[[722]],[[723]],[[724]],[[725]],[[726]],[[727]],[[728]],[[729]],[[730]],[[731]],[[732]],[[733]],[[734]],[[735]],[[736]],[[737]],[[738]],[[739]],[[740]],[[741]],[[742]],[[743]],[[744]],[[745]],[[746]],[[747]],[[748]],[[749]],[[750]],[[751]],[[752]],[[753]],[[754]],[[755]],[[756]]]},{"type":"MultiPolygon","properties":{"scalerank":6},"arcs":[[[757]],[[758]],[[759]],[[760]],[[761]],[[762]],[[763]],[[764]]]},{"type":"MultiPolygon","properties":{"scalerank":5},"arcs":[[[765]],[[766]],[[767]],[[768]],[[769]],[[770]],[[771]],[[772]],[[773]],[[774]],[[775,97,776]],[[777]],[[778]],[[779]],[[780]],[[781]],[[782]],[[783]],[[784]],[[785]],[[786]],[[787]],[[788]],[[789]],[[790]],[[791]],[[792]],[[793]],[[794]],[[795]],[[796]],[[797]],[[798,799,800,801]],[[802]],[[803]],[[804]],[[805]],[[806]],[[807]],[[808]],[[809]],[[810]],[[811]],[[812]],[[813]],[[814]],[[815]],[[816]],[[817]],[[818]],[[819]],[[820]],[[821]],[[822]],[[823]],[[824]],[[825]],[[826]],[[827]],[[828]],[[829]],[[830]],[[831]],[[832]],[[833]],[[834]],[[835]],[[836]],[[837]],[[838]],[[839]],[[840]],[[841]],[[842]],[[843]],[[844]],[[845]],[[846]],[[847]],[[848]],[[849]],[[850]],[[851]],[[852]],[[853]],[[854]],[[855]],[[856]],[[857]],[[858]],[[859]],[[860]],[[861]],[[862]],[[863]],[[864]],[[865]],[[866]],[[867]],[[868]],[[869]],[[870]],[[871]],[[872]],[[873]],[[874]],[[875]],[[876]],[[877]],[[878]],[[879]],[[880]],[[881]],[[882]],[[883]],[[884]],[[885]],[[886]],[[887]],[[888]],[[889]],[[890]],[[891]],[[892]],[[893]],[[894]],[[895]],[[896]],[[897]],[[898]],[[899]],[[900]],[[901]],[[902]],[[903]],[[904]],[[905]],[[906]],[[907]],[[908]],[[909]],[[910]],[[911]],[[912]],[[913]],[[914]],[[915]],[[916]],[[917]],[[918]],[[919]],[[920]],[[921]],[[922]],[[923]],[[924]],[[925]],[[926]],[[927]],[[928]],[[929]],[[930]],[[931]],[[932]],[[933]],[[934]],[[935]],[[936]],[[937]],[[938]],[[939]],[[940]],[[941]],[[942]],[[943]],[[944]],[[945]],[[946]],[[947]],[[948]],[[949]],[[950]],[[951]],[[952]],[[953]],[[954]],[[955]],[[956]],[[957]],[[958]],[[959]],[[960]],[[961]],[[962]],[[963]],[[964]],[[965]],[[966]],[[967]],[[968]],[[969]],[[970]],[[971]],[[972]],[[973]],[[974]],[[975]],[[976]],[[977]],[[978]],[[979]],[[980]],[[981]],[[982]],[[983]],[[984]],[[985]],[[986]]]},{"type":"MultiPolygon","properties":{"scalerank":6},"arcs":[[[987]],[[988]],[[989]],[[990]],[[991]],[[992]]]},{"type":"MultiPolygon","properties":{"scalerank":5},"arcs":[[[993]],[[994]],[[995]],[[996]],[[997]],[[998]],[[999]],[[1000]],[[1001]],[[1002]],[[1003]],[[1004]],[[1005]],[[1006]],[[1007]],[[1008]],[[1009]],[[1010]],[[1011]],[[1012]]]},{"type":"MultiPolygon","properties":{"scalerank":3},"arcs":[[[1013]],[[1014]],[[1015]],[[1016]],[[1017]],[[1018]],[[1019]],[[1020]],[[1021,1022,1023,1024,1025,1026]],[[1027]],[[1028]],[[1029]],[[1030]],[[1031]],[[1032]],[[1033]],[[1034]],[[1035]],[[1036]],[[1037]],[[1038]],[[1039]],[[1040]],[[1041]],[[1042]],[[1043]],[[1044]],[[1045]],[[1046]],[[1047]],[[1048]],[[1049]],[[1050]],[[1051]],[[1052]],[[1053]],[[1054]],[[1055]],[[1056]],[[1057]],[[1058]],[[1059]],[[1060]],[[1061]],[[1062]],[[1063]],[[1064]],[[1065]],[[1066]],[[1067]],[[1068]],[[1069]],[[1070]],[[1071]],[[1072]],[[1073]],[[1074]],[[1075]],[[1076]],[[1077]],[[1078]],[[1079]],[[1080]],[[1081]],[[1082]],[[1083]],[[1084]],[[1085]],[[1086]],[[1087]],[[1088]],[[1089]],[[1090]],[[1091]],[[1092]],[[1093]],[[1094]],[[1095]],[[1096]],[[1097]],[[1098]],[[1099]],[[1100]],[[1101]],[[1102]],[[1103]],[[1104]],[[1105]],[[1106]],[[1107]],[[1108]],[[1109]],[[1110]],[[1111]],[[1112]],[[1113]],[[1114]],[[1115]],[[1116]],[[1117]],[[1118]],[[1119]],[[1120]],[[1121]],[[1122]],[[1123]],[[1124]],[[1125]],[[1126]],[[1127]],[[1128]],[[1129]],[[1130]],[[1131]],[[1132]],[[1133]],[[1134]],[[1135]],[[1136]],[[1137]],[[1138]],[[1139]],[[1140]],[[1141]],[[1142]],[[1143]],[[1144]],[[1145]],[[1146]],[[1147]],[[1148]],[[1149]],[[1150]],[[1151]],[[1152]],[[1153]],[[1154]],[[1155]],[[1156]],[[1157]],[[1158]],[[1159]],[[1160]],[[1161]],[[1162]],[[1163]],[[1164]],[[1165]],[[1166]],[[1167]],[[1168]],[[1169]],[[1170]],[[1171]],[[1172]],[[1173]],[[1174]],[[1175]],[[1176]],[[1177]],[[1178]],[[1179]],[[1180]],[[1181]],[[1182]],[[1183]],[[1184]],[[1185]],[[1186]],[[1187]],[[1188]],[[1189]],[[1190]],[[1191]],[[1192]],[[1193]],[[1194]],[[1195]],[[1196]],[[1197]],[[1198]],[[1199]],[[1200]],[[1201]],[[1202]],[[1203]],[[1204]],[[1205]],[[1206]],[[1207]],[[1208]],[[1209]],[[1210]],[[1211]],[[1212]],[[1213]],[[1214]],[[1215]],[[1216]],[[1217]],[[1218]],[[1219]],[[1220]],[[1221]],[[1222]],[[1223]],[[1224]],[[1225]],[[1226]],[[1227]],[[1228]],[[1229]],[[1230]],[[1231]],[[1232]],[[1233]],[[1234]],[[1235]],[[1236]],[[1237]],[[1238]],[[1239]],[[1240]],[[1241]],[[1242]],[[1243]],[[1244]],[[1245]],[[1246]],[[1247]],[[1248]],[[1249]],[[1250]],[[1251]],[[1252]],[[1253]],[[1254]],[[1255]],[[1256]],[[1257]],[[1258]],[[1259]],[[1260]],[[1261]],[[1262]]]},{"type":"MultiPolygon","properties":{"scalerank":0},"arcs":[[[1263]],[[1264]],[[1265]],[[1266,1267,43,1268,45]],[[1269]],[[1270]],[[1271]],[[1272]],[[1273]],[[1274]],[[1275]],[[1276]],[[1277]],[[1278]],[[1279]],[[1280]],[[1281]],[[1282]],[[1283]],[[1284]],[[1285]],[[1286]],[[1287]],[[1288]],[[1289]],[[1290]],[[1291]],[[1292]],[[1293]],[[1294]],[[1295]],[[1296]],[[1297]],[[1298]],[[1299]],[[1300]],[[1301]],[[1302]],[[1303]],[[1304]],[[1305]],[[1306]],[[1307]],[[1308]],[[1309]],[[1310]],[[1311]],[[1312]],[[1313]],[[1314]],[[1315]],[[1316]],[[1317]],[[1318]],[[1319]],[[1320]],[[1321]],[[1322]],[[1323]],[[1324]],[[1325]],[[1326]],[[1327]]]},{"type":"MultiPolygon","properties":{"scalerank":1},"arcs":[[[1328]],[[1329]],[[1330]],[[1331]],[[1332]],[[1333]],[[1334]],[[1335]],[[1336]],[[1337]],[[1338]],[[1339]],[[1340]],[[1341]],[[1342]],[[1343]],[[1344]],[[1345]],[[1346]],[[1347]],[[1348]],[[1349]],[[1350]],[[1351]],[[1352]],[[1353]]]},{"type":"MultiPolygon","properties":{"scalerank":5},"arcs":[[[1354]],[[1355]],[[1356]],[[1357]],[[1358]],[[1359]],[[1360]],[[1361]],[[1362]],[[1363]],[[1364]],[[1365]],[[1366]],[[1367]],[[1368]],[[1369]],[[1370]],[[1371]],[[1372]],[[1373]],[[1374]],[[1375]],[[1376]],[[1377]],[[1378]],[[1379]],[[1380]]]}]}},"arcs":[[[1810,7054],[24,-15],[23,-15],[23,-14],[22,-15],[13,-8],[1,0],[14,0],[15,0],[26,0],[2,0]],[[1973,6987],[-2,-29],[0,-2],[7,-9],[3,-2],[3,-5],[1,-27],[-1,-3],[-1,-34],[-3,0],[2,-36],[1,-2],[-1,-8],[3,-16],[-3,-5],[-7,3],[-5,-1],[-2,-3],[0,-3],[3,-15],[4,-4],[1,-5],[3,-4],[-1,-4],[3,-4],[1,-4],[-1,-5],[1,-4],[-1,-4],[0,-4],[3,-8],[2,-1],[1,-3]],[[1987,6736],[-1,-10],[-9,-13],[-9,-13],[0,-1]],[[1968,6699],[0,2],[-3,-1],[0,4],[0,5]],[[1965,6709],[-2,4],[-3,6]],[[1960,6719],[0,2],[-3,1]],[[1957,6722],[-2,-2],[-2,-1]],[[1953,6719],[-2,2],[-3,5]],[[1948,6726],[-1,9],[0,6]],[[1947,6741],[-2,3],[-3,0],[-6,2]],[[1936,6746],[-1,2],[-2,4],[-1,3],[-2,5],[-1,0]],[[1929,6760],[-1,4],[0,3],[-1,6]],[[1927,6773],[1,6],[0,7]],[[1928,6786],[-2,3],[-4,2]],[[1922,6791],[-2,-3]],[[1920,6788],[-3,5],[-2,-1]],[[1915,6792],[-3,3],[-2,3]],[[1910,6798],[-6,15],[-1,4]],[[1903,6817],[-6,5],[-2,7],[-4,8],[1,3]],[[1892,6840],[-2,4],[-2,1],[-2,5],[-1,1]],[[1885,6851],[-1,7],[0,1],[-2,5],[1,3],[-2,5]],[[1881,6872],[-2,-1],[-2,3]],[[1877,6874],[1,7]],[[1878,6881],[-1,4],[-2,3]],[[1875,6888],[-1,4],[-4,13]],[[1870,6905],[-2,1]],[[1868,6906],[0,5],[0,3],[0,7]],[[1868,6921],[-3,6],[0,8]],[[1865,6935],[-4,6],[-2,8]],[[1859,6949],[-2,8]],[[1857,6957],[1,6],[0,4],[1,3],[1,7]],[[1860,6977],[-2,4]],[[1858,6981],[-3,0],[-1,4],[-1,-3],[-7,3]],[[1846,6985],[-2,3],[-1,9]],[[1843,6997],[-4,3],[-2,2]],[[1837,7002],[-3,-2],[-2,-4]],[[1832,6996],[-3,0]],[[1829,6996],[-4,4],[-1,2],[-5,5]],[[1819,7007],[-2,5]],[[1817,7012],[-3,0],[-3,3],[-4,5]],[[1807,7020],[0,6],[-1,4],[1,4],[-1,4],[-2,4],[2,3],[0,5],[2,4],[2,0]],[[1873,6846],[1,2],[1,3]],[[1875,6851],[0,6],[0,5],[2,2]],[[1877,6864],[4,2]],[[1881,6866],[0,-5],[2,-7]],[[1883,6854],[-2,-15],[-3,1],[-5,6]],[[1811,7014],[4,-4],[-2,-2],[-2,4],[0,2]],[[1966,6695],[0,4]],[[1966,6699],[2,-1]],[[1968,6698],[-2,-3]],[[1807,7020],[3,-7]],[[1810,7013],[1,-7],[-2,-8]],[[1809,6998],[0,-8],[0,-3],[-1,-10]],[[1808,6977],[1,-4],[2,-2],[-1,-3]],[[1810,6968],[3,-3]],[[1813,6965],[1,-12],[0,-6]],[[1814,6947],[1,-5],[1,-7]],[[1816,6935],[-1,-14]],[[1815,6921],[2,-6],[1,-6]],[[1818,6909],[3,-4],[1,-7]],[[1822,6898],[2,-2],[2,1]],[[1826,6897],[6,-10],[2,-1],[4,-8],[2,-2]],[[1840,6876],[4,-9],[-1,-2],[3,-9],[-1,-2],[1,-7],[2,3]],[[1848,6850],[2,-3],[1,-6],[3,3]],[[1854,6844],[1,-3],[1,-3],[1,-8],[1,-6]],[[1858,6824],[3,-3],[3,2]],[[1864,6823],[1,-6],[-1,-5]],[[1864,6812],[3,-6]],[[1867,6806],[-1,-4],[1,-7]],[[1867,6795],[-24,0],[-12,0]],[[1831,6795],[-1,7]],[[1830,6802],[2,5],[-2,3]],[[1830,6810],[2,12]],[[1832,6822],[-2,6],[-1,0],[0,4]],[[1829,6832],[-3,1]],[[1826,6833],[0,2],[-3,4],[-1,6]],[[1822,6845],[-2,4],[-2,0]],[[1818,6849],[-2,9],[-3,2]],[[1813,6860],[-1,4],[-1,0],[-5,11]],[[1806,6875],[-4,2],[-2,0]],[[1800,6877],[-3,6]],[[1797,6883],[-2,2],[-2,4],[-1,-1]],[[1792,6888],[-3,5],[-3,3]],[[1786,6896],[0,5],[-1,6],[-2,2],[1,7],[-1,3],[0,5],[-1,6]],[[1782,6930],[-3,3],[-2,-2],[-1,7]],[[1776,6938],[1,9]],[[1777,6947],[0,5],[-1,5]],[[1776,6957],[-3,3],[-2,5]],[[1771,6965],[-3,0],[1,12]],[[1769,6977],[-1,4],[-3,6],[-2,6]],[[1763,6993],[-2,3],[-2,4]],[[1759,7000],[1,6],[-1,2],[1,4],[0,5]],[[1760,7017],[-3,3],[-1,4],[-2,1]],[[1754,7025],[-1,3],[0,5],[-2,7]],[[1751,7040],[-2,2],[-2,10]],[[1747,7052],[-1,4],[17,3],[20,3],[15,2],[15,3],[-2,-7],[-1,-6]],[[1800,6815],[1,-5],[0,-5]],[[1801,6805],[-1,-8],[-4,5]],[[1796,6802],[3,7],[-1,3],[0,4],[2,-1]],[[1857,6857],[1,-5],[-3,4]],[[1855,6856],[-2,5],[-2,2],[-6,13]],[[1845,6876],[1,8],[2,-1]],[[1848,6883],[2,-4],[1,-4]],[[1851,6875],[0,-4],[3,-2],[2,0]],[[1856,6869],[0,-9],[1,-3]],[[1715,6858],[1,-4],[0,-6],[-2,-1],[0,6],[-2,4],[0,4],[2,3],[1,-6]],[[1973,6987],[21,0],[0,26],[17,0],[12,0],[18,0],[0,-1],[2,0],[2,-3],[2,-8],[3,-6],[1,-1],[4,-3],[4,-6],[3,-7],[5,-6],[1,-4],[4,-6],[1,-3],[4,-2],[2,-3],[2,-3],[2,-2],[3,-7],[1,-6],[3,-10],[2,-4],[-1,-10],[1,-5],[2,-6],[1,-3],[1,-7],[3,-4],[2,-3],[2,-1],[3,-4],[3,-7],[4,-2],[4,-1],[0,-3],[3,-3],[4,-2],[1,-3],[3,-4],[2,0]],[[2130,6854],[-9,-32],[-7,-24],[-2,-7],[2,-17],[4,-33],[3,-24]],[[2121,6717],[-8,7],[-2,1],[-3,0],[-4,-3],[-8,-21],[-2,-1],[-2,4],[-4,4],[-5,1],[-1,-2],[-2,5],[-6,-5],[-6,6],[-4,7],[-3,0],[-6,8],[-2,-6],[-2,1],[0,-8],[-2,-3],[1,-4],[-1,-3],[-5,-3],[-1,-5],[2,-5],[0,-4],[-1,-6],[-2,0],[-1,-2],[0,-11],[-1,-2],[-5,-8],[-1,-1],[-5,1]],[[2029,6659],[-4,5],[-1,4],[-4,5],[0,4],[-1,1],[-1,7],[-2,3],[-9,3],[-1,1],[-2,23],[0,2],[-4,10],[-1,5],[0,2],[-5,2],[-1,4],[-4,2],[-2,-6]],[[2130,6854],[5,-2],[1,4],[2,4],[1,3],[3,2],[0,8],[1,1],[0,4],[2,9],[2,9],[2,0],[3,2],[3,0],[1,4],[2,2],[5,-5],[4,1],[10,-3],[2,2],[4,-2],[1,-5],[4,-4],[0,-3],[2,-3],[3,-3],[1,-4],[5,-7],[2,-5],[2,-3],[2,-12],[3,-6],[0,-6],[3,-7],[1,-5],[2,-12],[3,-5],[3,-3],[2,-8],[3,-6],[1,-6],[1,-2]],[[2227,6782],[-4,-7],[-6,8],[-4,-5],[-2,-6],[-1,-12],[-5,-3],[-2,-3],[-3,-4],[-1,-2],[1,-7],[2,-2],[1,4],[3,-2],[1,-1],[0,-10],[-1,-6],[-2,-5],[-2,-3],[-1,6],[-13,-20],[3,-6],[2,-7],[1,0],[2,-4],[0,-5],[2,-2],[0,-10],[2,-5],[2,-5],[2,0],[0,-5],[2,-7],[2,-1],[1,-3],[5,0],[2,-3],[-1,-2],[0,-2],[-4,-1],[-4,2],[-3,-1],[-3,-4],[-2,-6],[3,-5],[-2,-4],[1,-8],[-2,-11]],[[2199,6597],[-3,3],[-2,0],[-2,2],[-3,9],[-2,1],[-2,0],[-4,-4],[-4,0],[1,3],[0,5],[-5,3],[-3,8],[-8,5],[-12,-2],[-2,-3]],[[2148,6627],[-4,-10],[-1,0],[0,-10],[-4,4],[-4,3],[-3,2],[0,2],[-1,9],[-3,4],[-3,9],[0,3],[2,4],[-2,3],[0,4],[2,2],[3,7],[0,7],[-1,11],[0,6],[2,8],[0,6],[-1,3],[-9,13]],[[2230,6776],[2,-2],[1,1],[3,-4],[0,-5],[1,-4],[-1,-5],[2,-7],[-1,-9],[2,-3],[0,-3],[4,-7],[2,-12],[0,-5],[2,-1],[0,-6],[4,-1],[2,-2],[2,0],[2,-3],[3,-4],[1,1],[6,-4],[2,-5],[2,-2],[8,-1],[4,1],[1,-2],[2,0],[5,-7],[2,-1],[1,-2],[2,0],[-1,3],[3,3],[3,0],[0,-8],[0,-6]],[[2301,6664],[-3,-13],[-2,-6]],[[2296,6645],[-3,-12],[-6,-38],[-2,-30],[0,-15]],[[2285,6550],[-1,-17],[0,-11]],[[2284,6522],[1,-16]],[[2285,6506],[-2,-10],[-1,-2],[-1,-8]],[[2281,6486],[2,-11],[0,-6],[1,-4]],[[2284,6465],[-3,-3],[-1,3],[0,2],[-1,3],[-4,1],[-3,6],[-2,0],[-1,-4],[-2,0],[-2,2],[-5,-1]],[[2260,6474],[-4,-1],[-1,-2],[-4,0],[-8,5],[-4,13],[-2,-2],[-1,3],[-2,-5],[-2,2],[-10,7],[-1,6],[3,5],[0,3],[-2,5],[-2,8]],[[2220,6521],[0,4],[-1,3],[2,3],[4,-2],[-2,9],[2,7],[1,5],[7,1],[3,8],[1,0],[0,3],[-4,7],[0,4],[0,5],[1,7],[-1,9],[-3,-2],[-1,6],[3,4],[3,0],[1,2],[0,3],[2,3],[3,1],[1,1],[3,-2],[-1,5],[2,4],[-1,3],[1,1],[3,6],[2,-3],[2,2],[12,19],[0,2],[-2,1],[-1,1],[0,7],[0,20],[0,2],[-7,4],[-1,-1],[-1,-5],[-4,7],[-3,0],[-1,11],[-2,1],[-3,6],[-2,0],[0,4],[1,6],[-1,3],[-4,4],[-1,2],[1,6],[-2,3],[-2,1],[-1,2],[1,3],[1,8],[-1,4],[-1,11],[-1,5],[-3,1],[0,5],[5,5]],[[2227,6782],[2,-3],[1,-3]],[[2220,6521],[-7,1],[0,-4],[-3,2],[-1,11],[0,6],[-1,8],[1,6],[-1,4],[-2,6],[-1,5],[0,15],[-6,16]],[[2523,6217],[0,4],[3,7],[1,3],[-1,8],[0,5],[0,4],[0,5],[-1,6],[0,11],[0,5],[2,4],[0,10],[-1,5],[-2,6],[-4,6],[-3,5],[-1,3]],[[2516,6314],[1,6],[0,4],[5,1],[1,3],[3,3],[4,1],[2,3],[1,1],[3,3],[2,3],[5,3],[2,7],[3,2],[1,5],[2,2],[1,-2],[3,1],[3,3],[5,7],[1,2],[2,7],[1,4],[1,7],[0,3],[-1,6],[0,5],[1,5],[0,12]],[[2568,6421],[2,-2]],[[2570,6419],[6,-1]],[[2576,6418],[2,1],[1,3],[0,3],[-3,-2],[-2,0],[5,5],[3,-1],[1,-2]],[[2583,6425],[2,-7],[3,-1],[0,-13]],[[2588,6404],[1,-3],[1,1]],[[2590,6402],[-2,-9],[-1,-9]],[[2587,6384],[-2,-6],[-4,-8]],[[2581,6370],[-3,-4],[-1,-3]],[[2577,6363],[-4,-10],[0,-3],[-2,-4]],[[2571,6346],[-1,-7],[0,-11]],[[2570,6328],[-1,-3],[-1,-1],[-2,-3],[0,-3]],[[2566,6318],[-3,-2]],[[2563,6316],[0,-4],[2,-3]],[[2565,6309],[2,1],[2,-1],[2,0]],[[2571,6309],[0,-4],[-3,-5]],[[2568,6300],[-1,2],[-2,-4],[-1,-7],[1,-1],[2,5],[2,1]],[[2569,6296],[-1,-11],[-2,-7]],[[2566,6278],[0,-7],[-1,-7]],[[2565,6264],[-2,-5]],[[2563,6259],[0,-9],[-1,-7]],[[2562,6243],[-2,-4],[0,-5]],[[2560,6234],[-3,11],[-4,3]],[[2553,6248],[0,2],[2,9]],[[2555,6259],[0,6],[-1,5]],[[2554,6270],[-2,-4],[-5,-18],[0,-1],[-5,0],[-2,-2],[0,-5],[-2,-6],[-2,-4],[-1,-8],[-4,-9],[-5,6],[-3,-2]],[[2590,6369],[-1,-7],[-2,-2],[-2,-7]],[[2585,6353],[-2,-3],[0,4]],[[2583,6354],[0,6],[2,6]],[[2585,6366],[2,0],[3,3]],[[2523,6217],[0,-8],[-12,0],[-18,0],[-20,0],[-1,-1]],[[2472,6208],[0,10],[-3,0],[-1,1],[-2,1],[-3,3],[-4,2],[-3,0],[-2,-8],[-5,0],[-2,0],[-7,11],[0,1],[0,17],[-6,0],[-1,2],[-1,5],[-1,4]],[[2431,6257],[2,1]],[[2433,6258],[10,2],[3,-1]],[[2446,6259],[2,-3],[-1,-2],[-3,1],[-1,-3],[1,-2]],[[2444,6250],[4,0],[1,-3]],[[2449,6247],[4,-2],[4,0]],[[2457,6245],[1,4],[5,3]],[[2463,6252],[1,4],[1,6]],[[2465,6262],[-1,2],[-2,0]],[[2462,6264],[-2,6]],[[2460,6270],[4,5],[3,3]],[[2467,6278],[3,4],[4,4]],[[2474,6286],[2,6],[1,1],[2,6]],[[2479,6299],[1,18],[1,5]],[[2481,6322],[4,6],[1,2]],[[2486,6330],[1,5],[-1,3]],[[2486,6338],[0,15],[1,5]],[[2487,6358],[-1,7],[1,12]],[[2487,6377],[2,5]],[[2489,6382],[0,-16],[0,-2],[4,0],[2,-5],[1,1],[2,-2],[1,3],[2,-4],[0,-4],[2,-3],[2,-8],[1,-2],[4,-4],[2,-8],[3,-6],[1,-8]],[[2455,6264],[-1,-5],[-3,1],[4,4]],[[2472,6208],[0,-32],[-12,0]],[[2460,6176],[0,4],[1,1],[-1,3],[-2,2],[0,2],[-3,3],[-1,2],[-1,6],[0,4],[-3,0],[0,8],[-6,3],[-2,-4],[0,-3],[-2,0],[-3,-3],[-3,-2],[0,-4],[-2,-1],[-7,-13],[-2,-1],[-2,3],[-2,6],[-2,2],[-1,11],[1,4],[0,5],[-3,0],[-3,4],[-2,1],[-1,-2],[-3,-19],[-3,-4],[-2,-11]],[[2400,6183],[-1,3],[0,7],[-1,3],[-2,4],[-4,5],[-2,0],[-1,5],[-2,3],[0,6],[-1,5],[0,4],[-1,3]],[[2385,6231],[8,6],[-1,-3],[3,2],[0,2],[2,2],[3,-1],[0,4],[4,2]],[[2404,6245],[14,0],[2,1]],[[2420,6246],[3,4],[2,5]],[[2425,6255],[2,0],[4,2]],[[2460,6176],[2,-3],[2,0],[3,-10],[2,0],[1,-6],[3,-2],[2,-3],[2,-1],[2,-4],[3,-9],[0,-3],[2,-3],[1,0],[2,-3],[2,-1],[0,-4],[-2,-5],[0,-10],[-1,-1],[-14,0],[-20,0],[-1,-1],[-10,-34],[-2,-10],[0,-3],[3,-9],[-1,-3],[-1,-2],[0,-5],[-1,-5],[1,-7],[-2,-7],[-1,-2]],[[2437,6020],[-1,4],[-6,11],[-5,12]],[[2425,6047],[-4,7],[0,3]],[[2421,6057],[-4,5]],[[2417,6062],[-3,5],[-4,8]],[[2410,6075],[-7,12],[-5,8]],[[2398,6095],[-8,10]],[[2390,6105],[3,1],[-2,3],[-4,2],[-1,2]],[[2386,6113],[2,7],[-1,4],[-2,9],[3,9],[-1,7],[1,2],[3,4],[0,7],[1,0],[0,8]],[[2392,6170],[7,9],[1,4]],[[1918,6265],[1,-4],[-2,0],[-2,3],[1,5],[2,-4]],[[2118,6259],[-1,3],[-6,8]],[[2111,6270],[-5,5],[-4,3]],[[2102,6278],[0,4],[-1,1],[-3,0]],[[2098,6283],[-4,3]],[[2094,6286],[2,5],[3,3],[1,-1],[3,2],[2,0],[2,5],[1,4],[1,4],[1,-3],[6,-5],[2,2],[2,3],[1,0],[1,-5],[3,-5],[0,-7],[-1,-6],[1,-7]],[[2125,6275],[-3,-5],[-1,-4],[-1,-2],[-2,-5]],[[2041,6427],[-1,-3],[-2,3],[0,5],[3,-2],[0,-3]],[[2075,6374],[-2,4]],[[2073,6378],[-1,-1],[-3,2]],[[2069,6379],[3,9],[1,2],[2,4]],[[2075,6394],[2,2]],[[2077,6396],[0,7],[0,1],[-1,8]],[[2076,6412],[2,6]],[[2078,6418],[0,3],[-2,1],[-4,5]],[[2072,6427],[-4,13],[-2,7]],[[2066,6447],[-1,5],[0,12]],[[2065,6464],[-2,15]],[[2063,6479],[3,2],[2,-3],[2,0],[1,3],[-1,8],[-3,4],[0,2],[4,7],[-1,4],[1,3],[1,0]],[[2072,6509],[5,0],[2,-1],[6,-6],[1,-7],[-3,-6],[0,-8],[1,0],[5,8],[3,-3],[1,-7],[2,-3],[3,-2],[4,3],[0,-9]],[[2102,6468],[0,-3]],[[2102,6465],[-2,-10],[0,-1],[5,-9],[3,-8],[-1,-11],[-2,-4],[7,-8],[-1,-6],[-2,-4],[-4,0],[0,-2],[0,-7],[0,-4],[-2,-7],[0,-9],[-5,8],[-2,4],[-2,1],[-3,5],[-2,0],[-4,-5],[-4,-1],[-2,-3],[-3,-9],[-1,-1]],[[1949,6578],[1,-4],[-2,-1],[-1,3],[-1,8],[3,-6]],[[1896,6591],[1,-5],[0,-3],[-8,12],[3,0],[2,-3],[2,-1]],[[1935,6595],[1,-3],[-1,-4],[-1,4],[-1,6],[1,1],[1,-4]],[[1925,6628],[1,-2],[2,-2],[0,-4],[0,-4],[-2,3],[-1,4],[-1,1],[1,4]],[[1886,6600],[-2,4],[1,3],[-4,6],[2,10],[0,-7],[0,-2],[2,-9],[1,-5]],[[1914,6680],[-3,-6],[0,2],[1,3],[0,4],[3,0],[-1,-3]],[[1867,6795],[0,-8]],[[1867,6787],[2,-2],[0,-4],[3,-6]],[[1872,6775],[3,-2],[3,-3]],[[1878,6770],[1,-3],[2,-8]],[[1881,6759],[2,-7],[0,-2],[1,-3]],[[1884,6747],[4,-3]],[[1888,6744],[2,-2],[-2,-6]],[[1888,6736],[2,-5],[2,-3]],[[1892,6728],[1,-3],[-2,-3],[5,-11],[2,3],[-4,6],[-1,11],[1,1]],[[1894,6732],[2,-3],[2,-6],[3,-3]],[[1901,6720],[0,-7]],[[1901,6713],[0,-1],[3,-2]],[[1904,6710],[-1,-3],[1,-4]],[[1904,6703],[2,-4],[-1,-4],[3,-11]],[[1908,6684],[-2,-6],[2,-11]],[[1908,6667],[2,-3],[1,-6]],[[1911,6658],[2,-5],[3,-1],[0,-3]],[[1916,6649],[3,-18]],[[1919,6631],[3,-7],[1,-1]],[[1923,6623],[3,-12]],[[1926,6611],[-1,-6],[-1,-1],[0,-7]],[[1924,6597],[1,-5],[0,-6]],[[1925,6586],[2,-7],[2,-2]],[[1929,6577],[4,-2]],[[1933,6575],[0,-4],[2,0],[1,6],[-1,3],[0,4],[3,1],[1,-6]],[[1939,6579],[5,-4],[1,-7]],[[1945,6568],[1,-1],[3,1]],[[1949,6568],[1,-2],[-1,-4]],[[1949,6562],[4,-9]],[[1953,6553],[-1,-3],[1,-5]],[[1953,6545],[6,-5]],[[1959,6540],[0,-4],[1,-2],[0,-10]],[[1960,6524],[-1,-5],[-2,-5]],[[1957,6514],[-5,-5]],[[1952,6509],[0,-2],[-5,-7]],[[1947,6500],[-1,0],[-3,4],[-1,4]],[[1942,6508],[-2,12],[0,6]],[[1940,6526],[-4,12]],[[1936,6538],[-3,4],[-5,5]],[[1928,6547],[-2,3],[-4,10],[-7,11]],[[1915,6571],[-5,6],[-6,7]],[[1904,6584],[-2,4],[-3,4]],[[1899,6592],[-1,7],[-4,-5]],[[1894,6594],[0,4],[-1,5]],[[1893,6603],[-3,7]],[[1890,6610],[-2,-3],[-2,2]],[[1886,6609],[-1,6],[1,4],[-2,1],[1,3],[0,4]],[[1885,6627],[0,5],[2,5]],[[1887,6637],[0,21],[0,6]],[[1887,6664],[-2,5],[-2,11]],[[1883,6680],[-1,2],[-1,1]],[[1881,6683],[-2,7]],[[1879,6690],[-3,5],[-1,-1],[-3,4],[-2,1],[-2,2]],[[1868,6701],[-9,14]],[[1859,6715],[0,2],[-2,7]],[[1857,6724],[-2,2],[2,3],[0,5],[-1,0],[-1,-5],[-1,-2],[-1,-4],[-2,3],[-4,0]],[[1847,6726],[-1,-5],[-3,1]],[[1843,6722],[-2,4],[-3,9]],[[1838,6735],[-1,2],[-3,1],[-1,-2]],[[1833,6736],[-3,8]],[[1830,6744],[-3,2],[-2,0],[-3,2],[-2,3]],[[1820,6751],[0,5],[-1,5]],[[1819,6761],[-2,4],[-4,3]],[[1813,6768],[-2,4],[-1,3],[-1,3]],[[1809,6778],[-4,1],[-1,6],[4,1]],[[1808,6786],[3,-1],[5,-3],[3,0]],[[1819,6782],[2,2],[3,4]],[[1824,6788],[1,-2],[-1,-3],[1,-3],[4,-4],[1,-3],[2,4],[2,-2],[1,4],[-2,2],[-3,-3],[-1,2],[-1,5]],[[1828,6785],[1,3],[-1,3],[-2,1],[1,3],[2,0],[1,0],[1,0]],[[2063,6479],[-1,1],[-1,6]],[[2061,6486],[-4,9],[-3,3]],[[2054,6498],[-5,12]],[[2049,6510],[-1,2],[-5,9]],[[2043,6521],[-2,10]],[[2041,6531],[-3,3],[-3,9],[-2,1]],[[2033,6544],[0,4],[-2,3],[-1,5]],[[2030,6556],[-3,8]],[[2027,6564],[-4,5],[-6,8]],[[2017,6577],[-1,2],[-4,6],[2,3],[-1,6],[-3,-3]],[[2010,6591],[-1,3],[-2,0],[-2,5]],[[2005,6599],[-5,3],[-1,8]],[[1999,6610],[2,0],[-1,7],[-1,-4],[-2,-1],[-2,4]],[[1995,6616],[0,6]],[[1995,6622],[1,0],[1,2],[2,-1],[1,1],[-3,5]],[[1997,6629],[-2,0],[-1,3],[-3,0]],[[1991,6632],[0,4],[-1,2],[-1,-3],[-2,3]],[[1987,6638],[-3,2],[-2,5],[-2,1]],[[1980,6646],[-2,7]],[[1978,6653],[-3,2],[0,-4]],[[1975,6651],[-3,0],[-1,-2],[-2,4]],[[1969,6653],[1,3],[3,0],[2,3],[0,4],[-3,-2],[-1,-4],[-2,-1],[-2,4]],[[1967,6660],[-1,1],[-2,-1],[0,4],[-4,4]],[[1960,6668],[0,6],[0,7]],[[1960,6681],[3,7],[1,6],[2,1]],[[1968,6698],[-1,-3],[2,-2],[-1,6]],[[2029,6659],[-3,-8],[-1,-4],[-1,-14],[3,-15],[2,-3],[0,-4],[3,-1],[1,-3],[1,-2],[4,-12],[1,-7],[2,-4],[3,0],[4,5],[2,0],[4,-6],[3,-12],[2,-2],[-1,-6],[0,-4],[0,-9],[2,-8],[2,-1],[1,-5],[0,-5],[1,-5],[4,-7],[2,-1],[2,0],[0,-7]],[[2489,6382],[-1,0],[2,10]],[[2490,6392],[1,2],[6,8]],[[2497,6402],[3,2],[2,2],[4,3]],[[2506,6409],[5,1],[4,1],[9,2]],[[2524,6413],[7,3],[5,3]],[[2536,6419],[2,4],[5,2]],[[2543,6425],[4,-1],[5,4],[4,-1]],[[2556,6427],[3,-2],[3,-1],[-1,-2],[5,0],[2,-1]],[[2284,6465],[0,-10]],[[2284,6455],[4,-15]],[[2288,6440],[3,-6],[5,-7],[1,-3],[-1,-8],[-2,-4],[-1,0],[-1,5],[3,4],[0,3],[-3,5],[-4,9],[-1,5],[-2,4],[1,-7],[1,-11]],[[2287,6429],[2,-8],[3,-1],[0,-5]],[[2292,6415],[2,-11],[2,-9]],[[2296,6395],[4,-14]],[[2300,6381],[0,-4],[1,-5]],[[2301,6372],[3,-8],[3,-4],[0,-2],[3,-7],[4,-7]],[[2314,6344],[5,-14],[1,-3]],[[2320,6327],[2,-7],[1,-12],[1,-3],[0,-3],[1,-7]],[[2325,6295],[4,-5]],[[2329,6290],[0,1],[2,-7],[1,-3]],[[2332,6281],[2,-1]],[[2334,6280],[1,-7],[1,-3],[1,-9]],[[2337,6261],[4,2],[6,-3],[8,0]],[[2355,6260],[4,-5],[2,-4]],[[2361,6251],[5,-1]],[[2366,6250],[1,-3],[2,-6],[2,-5],[2,-6]],[[2373,6230],[3,-2]],[[2376,6228],[9,3]],[[2392,6170],[-17,2],[-12,2],[-1,1],[-1,8],[-2,1],[-5,11],[1,4],[0,5],[-2,-1],[-1,-2],[-4,-3],[0,-2],[-4,-5],[-1,1],[-2,-1],[-2,2],[-3,11],[0,3],[2,7],[1,5],[-1,7],[-4,3],[-3,0],[-1,-1],[-3,3],[-1,5],[-2,4],[-1,4],[-1,6],[-5,5],[-2,3],[1,-8],[-1,-3],[-2,-4]],[[2313,6243],[-2,4],[0,4],[-5,-2],[-1,-2],[-3,1],[1,3],[-1,5],[-3,2],[-2,1],[-1,4],[0,3],[3,6],[-1,11],[0,3],[3,2],[1,-1],[2,2],[2,5],[-2,1],[-2,-1],[-3,2],[-1,4],[-2,1],[0,4],[-2,5],[1,5],[1,2],[1,6],[0,5],[1,4],[3,7],[0,4],[-4,3],[-3,3],[-2,-1],[-2,-6],[-1,0],[0,3],[-3,0],[-1,4],[-1,1],[0,4],[0,6],[2,1],[2,-3],[2,6],[-1,4],[-2,1],[-2,7],[0,3],[-1,2],[-4,0],[-1,-4],[0,-11],[-1,-4]],[[2278,6362],[-1,4],[1,2],[-1,5],[-3,1],[-6,-14],[-1,1],[-2,-5],[-1,-1],[-2,7],[1,8],[2,4],[-1,5],[2,1],[0,5],[1,0],[4,-3],[0,7],[3,7],[-2,5],[-2,-1],[-4,2],[-2,5],[1,5],[-2,3]],[[2263,6415],[0,7],[-2,2],[-1,3],[0,5],[4,3],[1,4],[-2,2],[0,7],[2,1],[3,9],[0,4],[-1,3],[-7,9]],[[2094,6286],[-2,2],[-1,2],[-3,0]],[[2088,6290],[0,4],[-2,-1],[-3,5]],[[2083,6298],[-2,5],[0,6]],[[2081,6309],[-2,2],[-3,4]],[[2076,6315],[-3,8],[-2,5],[-2,8]],[[2069,6336],[-1,4],[0,6]],[[2068,6346],[-3,7],[-1,5]],[[2064,6358],[3,5]],[[2067,6363],[3,0],[4,1]],[[2074,6364],[2,4],[1,3]],[[2077,6371],[-2,3]],[[2102,6465],[5,4],[3,1],[2,2],[1,6],[-2,5],[0,11],[6,-2],[0,-6],[-2,-4],[0,-4],[-1,-1],[1,-4],[-1,-3],[0,-7],[1,-2],[3,21],[0,2],[2,0],[2,-4],[-1,-5],[-1,-7],[0,-5],[0,-5],[1,-2],[2,2],[2,-1],[1,7],[1,1],[1,4],[1,1],[-2,4],[1,5],[7,-10],[2,-5],[-2,-6],[1,-1],[-2,-7],[-1,-2],[-2,1],[-1,-2],[-2,-1],[-4,-7],[0,-12],[-2,-3],[-1,-3],[-1,-1],[-2,2],[1,-8],[-1,-5],[0,-4],[3,2],[1,-4],[3,0],[1,-2],[3,0],[3,-4],[3,-1],[1,-1],[1,1],[0,11],[1,2],[3,-1],[2,4],[2,0],[2,3],[2,8],[0,2],[-4,2],[0,8]],[[2145,6435],[4,2],[3,-4],[7,-2],[1,0],[2,4],[2,1],[1,6],[4,5],[2,4]],[[2171,6451],[2,-3],[2,0],[2,-2],[3,-5]],[[2180,6441],[-2,-4],[0,-3],[1,-5],[-2,-3],[0,-4],[1,-5],[0,-5],[-1,-3],[-2,-3],[-2,-1],[-3,-4],[-5,-16],[-1,-5],[0,-3],[3,-6],[0,-4],[-2,-6],[-1,-4]],[[2164,6357],[-4,-3],[-2,1],[-3,-1],[-2,-1],[-5,-6],[-11,-6],[-1,-2],[1,-5],[1,-1],[3,1],[1,-2],[3,0],[1,-7],[-2,-1],[0,-7],[2,-7],[0,-6],[3,1],[2,-6],[-3,-9],[-2,2],[-4,-3],[-2,-3],[-1,-6],[-4,-3],[-1,-2],[-1,3],[-3,2],[-1,-4],[-4,-1]],[[2162,6215],[-4,2],[-8,5]],[[2150,6222],[-4,1],[-8,7]],[[2138,6230],[-2,0],[-3,3],[-4,2]],[[2129,6235],[-4,4]],[[2125,6239],[-2,9],[-4,6],[1,2],[-2,3]],[[2164,6357],[3,1],[1,-2],[0,-7],[1,-3],[6,0],[1,2],[1,5],[4,1],[3,-3],[-2,-4],[1,-1],[0,-8],[6,-1],[1,3],[1,-1],[3,1],[1,-4],[-2,-2],[1,-2],[3,-2],[2,3],[1,-4],[2,2],[4,0],[1,-2],[2,3],[2,0],[0,3],[0,4],[3,8]],[[2214,6347],[1,-1],[2,-7],[0,-6],[2,-2]],[[2219,6331],[-2,-11],[0,-2],[-1,-9],[2,-8],[-5,-5],[1,-4],[-4,-10],[-3,-6],[0,-2],[-2,-5]],[[2205,6269],[-2,-4],[-1,4],[-1,-1],[-1,-4],[1,-2],[0,-3],[1,-10],[3,-6],[0,-2],[-2,-3],[-1,3],[1,2],[-4,5],[-5,0],[0,2],[-2,0],[-5,0],[-6,-3],[-3,2],[-2,4],[-3,0],[-2,0],[-1,-4],[-1,-3],[1,-8],[-2,-7],[-5,-1],[-1,-1],[-1,-8],[1,-4],[0,-2]],[[2262,6123],[-1,2],[-3,6],[-2,5]],[[2256,6136],[-2,-1]],[[2254,6135],[-8,4],[-7,4]],[[2239,6143],[-3,1],[-3,0]],[[2233,6144],[-4,2]],[[2229,6146],[-3,5],[-4,6]],[[2222,6157],[-9,6],[-11,8],[-8,5]],[[2194,6176],[-5,10]],[[2189,6186],[-2,2],[-5,4]],[[2182,6192],[0,2],[-2,3]],[[2180,6197],[-2,1],[-2,2]],[[2176,6200],[0,4],[-2,3],[-2,6]],[[2172,6213],[-7,6]],[[2165,6219],[-1,-1],[-2,-3]],[[2205,6269],[4,-1],[1,-4],[0,-3],[0,-4],[2,-7],[0,-4],[1,-3],[1,-1],[4,6],[2,6],[6,4],[2,-3],[1,4],[2,4],[3,-4],[2,-1]],[[2236,6258],[2,-8],[2,-2],[1,-3],[2,0],[0,5],[3,1],[0,-3],[2,-8]],[[2248,6240],[1,-6],[2,-4],[1,1],[0,-4],[3,-1],[1,-5],[2,-2],[4,-2],[4,0],[2,-4]],[[2268,6213],[0,-2],[0,-4],[-1,-8],[0,-3],[0,-4],[1,-3],[0,-8],[2,-2],[1,-4],[2,-1],[4,-11],[-1,-7],[0,-7],[-3,-4],[-2,0],[0,-5],[0,-3],[-3,0],[0,-3],[1,-5],[-2,-3],[-4,-2],[-1,-1]],[[2376,6115],[-7,0],[0,2],[3,3],[1,3],[-3,2]],[[2370,6125],[-3,-4]],[[2367,6121],[-1,6],[-1,2]],[[2365,6129],[-2,-2],[-1,-4],[-2,0],[-1,-3],[5,-2],[0,-2],[-5,-1],[-2,0],[-3,-2]],[[2354,6113],[-2,-3],[-1,-1],[0,-3],[-2,-3]],[[2349,6103],[-4,-1],[-3,-3],[-2,-1],[-1,-1],[-5,-3]],[[2334,6094],[-4,-4],[-3,-4]],[[2327,6086],[-6,1]],[[2321,6087],[-1,-2],[-2,0]],[[2318,6085],[-4,2],[-4,2]],[[2310,6089],[-3,3],[-2,1],[-4,6],[-3,1]],[[2298,6100],[-5,1],[-2,1],[-7,1]],[[2284,6103],[-5,6],[-4,5],[-1,2]],[[2274,6116],[-5,3],[-4,1],[-3,3]],[[2268,6213],[1,2],[2,-1],[2,6],[5,1],[2,0],[1,-5],[2,0],[2,4],[-1,3],[-1,4],[2,10],[4,1],[-1,-9],[2,-4],[2,-6],[1,0],[2,4],[2,5],[3,2],[5,-4],[1,2],[3,5],[2,3],[2,7]],[[2386,6113],[-1,4]],[[2385,6117],[-3,-1]],[[2382,6116],[-2,2],[-1,3]],[[2379,6121],[-2,0],[0,-3],[2,-4],[2,-2],[1,2],[2,-3],[2,-1],[-1,-3],[-9,8]],[[2509,6471],[-1,3],[1,3],[2,-1],[-1,-4],[-1,-1]],[[2260,6304],[-1,-5],[1,-11],[-1,-1],[1,-9]],[[2260,6278],[-2,-3],[-3,0],[-1,5],[-3,2]],[[2251,6282],[0,2],[0,5],[0,3],[-1,4],[-1,2],[0,4],[-3,8],[-3,-12],[-2,0],[0,-4],[0,-7],[1,-2]],[[2242,6285],[-1,-2],[0,-4],[0,-6],[-2,-2],[-2,-6],[-1,-7]],[[2219,6331],[3,9],[1,4],[2,2],[-1,3],[2,3]],[[2226,6352],[2,-1],[2,-6],[2,-1],[3,0],[1,-6],[-1,-6],[2,-3],[2,-5],[0,-4],[3,8],[2,1],[0,4],[5,4],[2,-3],[0,-10],[1,-1],[2,5],[3,-3],[1,1],[3,-6],[0,-3],[-2,-6]],[[2259,6311],[1,-7]],[[2260,6304],[2,-2],[3,0],[1,-5],[1,-3],[1,-3],[4,-8],[3,2],[1,4],[4,-3],[2,3],[-1,4],[1,2],[5,-2],[1,2],[0,3],[-2,1],[-2,4],[-2,-1],[-1,4],[1,2],[-3,2],[-2,4],[0,3],[-3,-1]],[[2274,6316],[-3,9],[0,2],[2,6],[0,3],[2,3],[-1,8],[-3,-1],[-1,2],[1,5],[2,1],[1,3],[2,2],[2,3]],[[2248,6240],[3,3],[2,4],[2,1],[3,-4],[1,0],[-2,15],[2,1],[-2,6],[2,5],[1,7]],[[2242,6285],[1,-2],[3,-1],[3,-2],[2,2]],[[2249,6408],[0,-6],[-3,0],[-3,-3],[-1,2],[-2,-2],[0,-5],[-2,-8],[-2,-3],[-1,-6],[1,-4],[-3,-3],[-1,-3],[-2,-1],[-3,-2],[-1,-12]],[[2214,6347],[-2,3],[-1,3],[-2,7],[-1,6],[-2,6],[0,5],[1,4],[1,4],[1,4],[2,-2],[2,-1],[2,2],[2,-3],[2,2],[1,5],[1,9],[2,3],[2,-3],[2,0],[3,4],[0,3],[-2,1],[0,7]],[[2228,6416],[1,5],[1,1],[4,-7],[5,2],[2,5],[2,2],[1,4],[3,-14],[0,-5],[2,-1]],[[2249,6408],[2,1],[2,-5],[2,-2],[3,2],[3,0],[0,10],[2,1]],[[2274,6316],[-4,2],[-2,-6],[-6,1],[-3,-2]],[[2180,6441],[2,-2],[3,3],[1,-1],[1,-4],[2,-1],[3,1],[3,-2],[2,-3],[8,-12],[3,2],[1,7],[2,2],[4,-4],[5,-3],[3,-5],[2,-1],[3,-2]],[[2180,6441],[4,12],[1,3],[0,7],[-1,7],[0,3],[2,4],[-2,7],[-1,1],[-3,0],[-2,-2],[-1,-5],[-2,0],[-2,-2],[-2,1],[-3,10],[-2,1],[-3,5],[-2,5],[-2,8],[1,7],[-1,5],[-1,3],[2,2],[1,8],[2,-1],[1,-2],[4,5],[3,8],[3,3],[2,4],[3,4],[4,5],[2,5],[2,2],[3,7],[4,15],[2,4],[2,2],[1,5]],[[2171,6451],[-2,4],[-2,2],[0,7],[-5,5],[0,2],[-2,0],[-2,5],[-1,-3],[-3,-3],[-2,-3],[-3,0],[-1,-2],[0,-3],[-1,-4],[-1,-4],[-3,-8],[0,-5],[1,-4],[1,-2]],[[2102,6468],[3,19],[0,2],[1,25],[1,4],[1,14],[0,2],[5,6],[0,5],[3,0],[0,4],[-2,3],[1,4],[-1,5],[1,1],[0,8],[5,4],[3,7],[1,3],[3,1],[1,4],[2,3],[2,1],[12,-5],[3,1],[6,3],[0,20],[-1,2],[-3,10],[-1,3]],[[0,325],[1,0],[46,3],[64,-11],[23,5],[82,-6],[110,-8],[7,-7],[143,-6],[125,-13],[6,-4],[59,-3],[14,6],[-39,7],[36,10],[-73,3],[-156,13],[-43,11],[35,4],[-28,9],[4,4],[37,1],[-8,6],[-40,10],[-18,-3],[-55,4],[-15,13],[-23,7],[-128,28],[42,3],[31,-5],[19,-14],[27,-3],[46,-1],[21,4],[62,-1],[3,-7],[23,-4],[36,5],[19,-12],[88,4],[40,4],[18,9],[-44,6],[81,4],[15,15],[70,14],[-10,10],[-37,14],[-16,10],[28,15],[-34,12],[-57,8],[0,6],[17,6],[109,6],[136,7],[0,4],[-21,6],[-30,1],[13,8],[-18,4],[-9,7],[-18,7],[14,5],[-7,7],[43,-4],[10,6],[-2,8],[16,6],[-29,6],[-3,3],[-37,4],[-55,17],[5,9],[-23,-2],[-53,6],[-43,22],[13,10],[37,2],[12,4],[4,8],[-31,2],[-30,1],[-24,-4],[-31,17],[-9,6],[14,25],[-5,17],[11,4],[24,-17],[17,6],[-10,4],[14,7],[12,0],[11,-6],[16,4],[38,-9],[8,-11],[19,-3],[2,10],[27,-5],[43,-23],[36,8],[-3,5],[29,7],[-36,7],[5,12],[10,1],[18,-9],[4,-8],[23,9],[13,-14],[28,1],[-16,13],[19,2],[-8,17],[-29,23],[-13,5],[-26,-1],[-12,-3],[-33,4],[5,8],[12,0],[14,4],[-2,6],[11,2],[29,-8],[25,-11],[25,-1],[-5,7],[-27,13],[9,10],[7,2],[21,-1],[8,3],[20,3],[-4,9],[26,6],[20,-2],[5,8],[17,-5],[10,-14],[17,0],[2,4],[-11,5],[26,10],[4,5],[16,11],[58,4],[11,-6],[20,1],[-14,8],[0,12],[18,7],[14,1],[10,7],[23,-5],[-2,-5],[20,-11],[30,9],[6,-3],[14,3],[15,-4],[15,1],[28,-5],[42,8],[43,5],[23,-4],[10,3],[38,0],[9,-6],[51,3],[6,-1],[32,2],[19,4],[7,-1],[22,5],[4,11],[24,5],[12,-11],[27,-3],[18,4],[11,-2],[23,3],[-8,22],[11,10],[14,3],[17,-9],[5,-9],[-13,-3],[7,-20],[-9,-18],[5,-5],[24,6],[19,1],[19,3],[-10,11],[6,11],[-5,11],[18,2],[14,-7],[8,3],[9,-16],[-5,-14],[-11,-2],[-9,-10],[-14,-6],[1,-5],[29,0],[7,-3],[14,5],[44,-6],[7,-4],[39,1],[36,7],[37,2],[14,4],[20,-3],[29,-1],[-3,-9],[14,-4],[20,2],[8,-2],[20,4],[22,0],[-7,8],[-14,3],[2,9],[-16,2],[-5,5],[-2,21],[-22,-4],[-13,2],[3,12],[-8,17],[-37,9],[4,6],[-3,9],[42,-4],[6,-6],[14,-1],[5,3],[17,0],[27,8],[-17,2],[-8,11],[-58,3],[-28,0],[-11,9],[0,9],[-4,9],[11,8],[26,-4],[-3,-7],[7,-9],[18,4],[15,0],[11,-5],[19,3],[54,0],[9,-6],[26,-10],[17,-2],[5,5],[13,2],[18,-2],[6,-5],[22,9],[15,-1],[6,3],[23,-3],[24,-6],[16,1],[9,7],[26,3],[5,8],[-1,12],[-6,7],[31,-4],[3,-8],[-8,-4],[-1,-7],[-8,-5],[8,-8],[26,3],[16,-10],[13,3],[3,4],[19,5],[4,-11],[12,-7],[17,-5],[20,1],[-3,-6],[26,-3],[24,-10],[23,9],[4,9],[-6,5],[0,12],[14,1],[10,4],[-6,6],[8,8],[20,-5],[25,-19],[-3,-13],[18,2],[19,5],[23,-5],[-15,-15],[27,0],[28,11],[32,-5],[29,15],[15,-1],[8,5],[23,2],[15,5],[16,-2],[11,4],[16,3],[18,5],[6,4],[26,11],[8,13],[14,29],[-2,8],[-17,19],[-6,11],[6,26],[-6,8],[-1,13],[-8,18],[-15,15],[4,21],[-13,14],[5,3],[19,1],[12,-4],[8,10],[6,0],[7,11],[-3,6],[-11,2],[-3,8],[10,1],[2,32],[-9,15],[11,3],[2,6],[-6,4],[11,11],[-10,5],[-14,-5],[-5,4],[4,7],[0,13],[17,10],[1,-12],[12,-2],[-5,9],[5,11],[-2,13],[6,2],[14,-7],[4,19],[0,10],[11,15],[9,1],[7,-6],[15,24],[13,6],[-12,14],[8,14],[20,-8],[-4,12],[10,2],[10,11],[11,-3],[6,12],[8,1],[1,7],[13,3],[4,5],[3,15],[15,7],[10,-2],[1,6],[12,-2],[4,5],[12,8],[1,7],[21,5],[7,8],[16,5],[5,-1],[10,-19],[-9,-5],[-1,9],[-9,3],[-1,-7],[-8,-5],[-9,0],[-6,-6],[-12,-16],[-1,-14],[-6,-9],[-8,-1],[-4,7],[-9,-6],[-14,-5],[-3,-6],[-8,-4],[-11,-18],[-19,-4],[-13,-13],[7,-11],[-3,-11],[-8,-6],[-1,-7],[10,-11],[8,-2],[4,7],[7,-4],[2,10],[19,-1],[-12,-12],[4,-3],[-8,-6],[-3,8],[-12,-9],[-7,6],[-8,2],[-12,-3],[-3,-5],[6,-6],[-4,-5],[5,-5],[-7,-4],[-4,11],[-7,7],[-2,6],[-14,2],[0,-6],[-5,-11],[0,-11],[5,-5],[-2,-8],[-15,1],[-12,3],[-5,-10],[6,-16],[-16,-5],[-7,-9],[7,-6],[-6,-4],[-4,-10],[9,-7],[-12,-5],[1,-4],[21,5],[-4,-7],[-9,-6],[2,-4],[12,-2],[-10,-9],[5,-3],[22,-9],[8,4],[-2,10],[23,7],[-4,-8],[-8,-1],[-2,-8],[17,-7],[-18,-10],[15,-3],[10,-19],[8,0],[7,-7],[1,-10],[-4,-10],[14,-13],[4,-7],[-11,-1],[-3,-11],[12,-5],[15,0],[1,-4],[-18,-13],[0,-7],[13,4],[8,-3],[-2,-8],[11,-8],[-5,-14],[-17,-7],[5,-9],[12,9],[10,-13],[-9,-6],[-12,1],[-26,-4],[9,-5],[19,-3],[22,1],[-8,-7],[8,-5],[0,-10],[-20,-2],[9,-14],[15,1],[-3,-15],[10,-5],[10,2],[-6,-17],[-10,0],[-7,-6],[-12,5],[-6,6],[-19,4],[13,-12],[-4,-7],[26,-6],[2,-8],[-5,-11],[-25,0],[12,-9],[9,-3],[-10,-8],[15,0],[5,-4],[-11,-12],[-13,-1],[-22,5],[16,-15],[-10,-13],[-13,0],[-2,14],[-17,-1],[6,-10],[-14,1],[15,-16],[-13,0],[-22,-5],[-1,-7],[16,2],[16,-5],[-85,-34],[-52,-8],[2,-5],[-40,-6],[-20,-7],[6,-5],[-10,-8],[-12,-3],[-26,-2],[-20,5],[-42,2],[-4,-3],[-31,8],[-19,-4],[-17,6],[-12,-5],[-16,3],[-1,-10],[10,-5],[24,-26],[11,-4],[11,-12],[12,6],[66,-8],[-3,-7],[-22,-18],[-18,-6],[-27,-1],[-68,12],[-41,5],[-7,-2],[-23,5],[-15,0],[-23,-4],[64,-18],[52,-14],[2,-12],[-11,-6],[-71,-7],[-61,22],[-33,26],[0,-18],[-5,-5],[17,-20],[19,-10],[23,-7],[18,-8],[-6,-6],[5,-10],[18,-6],[2,19],[108,-4],[17,-12],[-5,-12],[-15,-12],[-22,-4],[-63,2],[37,-10],[19,-2],[39,6],[4,-11],[15,-7],[5,-8],[-8,-6],[24,-16],[22,7],[35,-10],[6,10],[36,8],[23,0],[1,-10],[12,-8],[44,-8],[89,-23],[77,-3],[6,-8],[-43,1],[-54,-2],[2,-4],[59,0],[-2,-5],[-62,-1],[-7,-18],[27,-12],[34,6],[38,3],[38,-5],[-47,-10],[24,-26],[27,0],[-2,-9],[-16,-11],[33,-9],[27,1],[49,31],[38,16],[11,9],[21,1],[12,9],[42,10],[16,-2],[53,12],[5,-2],[61,6],[26,-2],[11,-4],[21,5],[5,-18],[-16,-11],[4,-5],[28,-2],[27,9],[15,-1],[24,16],[-1,12],[33,17],[7,12],[17,10],[20,4],[46,17],[32,-7],[44,4],[22,13],[-4,4],[53,0],[40,11],[42,-3],[-21,11],[37,0],[5,7],[95,3],[4,2],[54,0],[5,4],[32,2],[4,3],[-27,6],[-27,2],[-110,8],[-55,4],[31,17],[-25,4],[-5,8],[-61,-10],[-39,7],[-1,3],[-55,13],[-6,14],[12,23],[12,3],[8,18],[18,-1],[-2,13],[11,10],[17,9],[17,3],[17,7],[16,-1],[6,10],[28,7],[15,13],[36,16],[42,10],[10,0],[29,14],[45,9],[29,2],[27,6],[31,-4],[22,14],[17,-5],[15,0],[20,8],[-10,9],[10,12],[20,16],[-4,8],[9,3],[5,14],[24,2],[23,-7],[15,4],[-3,8],[14,8],[13,13],[-10,4],[-27,-10],[-14,1],[0,6],[-12,11],[5,13],[13,6],[0,7],[12,7],[18,2],[11,-5],[11,-1],[6,9],[-10,9],[1,7],[15,-5],[13,-1],[9,9],[12,5],[30,10],[3,17],[6,3],[2,17],[-16,0],[-18,7],[-5,13],[14,8],[7,-9],[7,0],[8,-7],[13,1],[-3,8],[3,5],[14,7],[0,6],[-8,6],[9,3],[3,-8],[14,-3],[10,-5],[13,-29],[9,4],[13,-3],[7,5],[-5,9],[5,6],[0,10],[-9,11],[1,8],[16,2],[19,-7],[8,12],[8,2],[10,-3],[3,-7],[-5,-11],[-8,-4],[-3,-15],[26,2],[41,-3],[11,-2],[9,3],[3,6],[18,-7],[3,-6],[11,4],[12,1],[5,8],[9,-7],[-4,-14],[13,-7],[13,14],[7,9],[19,10],[15,3],[14,8],[15,5],[16,0],[20,6],[12,1],[22,8],[16,-1],[27,4],[28,4],[-4,18],[11,2],[3,-17],[14,-1],[20,10],[-8,5],[6,8],[9,-1],[16,-20],[20,-11],[32,-8],[6,6],[0,7],[7,10],[19,8],[8,-1],[15,-5],[19,3],[28,-3],[8,-2],[4,11],[15,3],[4,-3],[-1,-11],[7,-4],[25,-3],[9,-2],[11,2],[-5,10],[23,7],[4,-9],[-10,-22],[10,-10],[13,1],[18,-1],[22,6],[1,14],[11,17],[5,2],[22,-17],[-7,-13],[17,-4],[10,1],[12,24],[10,-1],[8,-7],[-2,-12],[18,-12],[41,-5],[21,8],[12,9],[23,3],[16,7],[11,10],[11,5],[31,5],[9,-1],[36,11],[8,6],[0,9],[3,7],[-1,19],[-11,12],[-1,11],[10,11],[10,4],[28,0],[4,-8],[-8,-2],[-8,-12],[4,-4],[12,0],[6,3],[17,-13],[-2,-9],[3,-16],[13,4],[29,2],[6,-9],[16,6],[14,-2],[3,-9],[16,-18],[10,1],[-8,10],[11,6],[1,11],[7,1],[7,6],[3,11],[-4,18],[5,14],[11,2],[6,4],[11,1],[4,7],[14,7],[13,4],[15,1],[0,8],[9,8],[15,4],[10,-1],[7,5],[23,0],[-6,6],[3,4],[18,5],[6,-2],[7,5],[10,0],[3,5],[-1,13],[5,4],[12,0],[4,-5],[11,-3],[-14,-6],[11,-3],[-2,-5],[25,0],[7,-6],[-7,-8],[6,-7],[7,8],[3,11],[-3,13],[15,5],[5,11],[-8,2],[-9,-4],[-8,2],[-2,10],[6,4],[21,3],[-1,-9],[14,1],[2,-5],[9,0],[11,-6],[9,6],[-12,4],[-2,5],[5,11],[-9,0],[-2,10],[3,11],[6,6],[23,4],[3,6],[8,5],[13,4],[17,0],[25,7],[40,-5],[12,-6],[21,-24],[12,3],[11,-8],[1,-10],[-20,2],[-3,-9],[6,-6],[-11,-8],[0,-15],[9,13],[12,4],[8,-2],[8,5],[8,-2],[8,-7],[21,-1],[4,-4],[-7,-6],[14,-8],[10,-2],[1,7],[26,-1],[15,-6],[3,-5],[10,3],[14,-1],[14,-6],[13,8],[15,2],[22,-6],[8,-3],[56,-8],[11,2],[6,-3],[20,-2],[9,-3],[20,3],[3,5],[9,1],[4,-7],[-1,-15],[13,-22],[-13,-4],[-1,-9],[-9,-6],[10,-9],[-10,-3],[12,-7],[0,-10],[-21,2],[-6,-5],[8,-10],[9,-3],[-6,-15],[-7,-7],[-8,-2],[-9,11],[-19,-10],[-4,-11],[6,-7],[11,-7],[19,6],[11,2],[3,-6],[-1,-15],[-6,-16],[-9,-15],[-9,-3],[-14,-16],[1,-7],[-12,-13],[2,-6],[-5,-8],[-10,-44],[-18,-13],[1,-5],[27,-5],[17,9],[4,11],[-5,14],[16,13],[15,3],[13,0],[12,20],[16,2],[6,6],[-1,6],[12,6],[-1,6],[3,17],[10,21],[8,7],[-1,7],[11,4],[18,13],[-6,14],[4,7],[12,5],[1,7],[6,4],[21,3],[1,-10],[6,-1],[21,3],[6,-4],[12,9],[-3,10],[1,5],[11,6],[17,4],[5,8],[24,5],[4,18],[4,3],[15,4],[-6,11],[8,14],[10,6],[45,16],[4,-1],[33,13],[8,-2],[6,6],[8,-2],[10,3],[5,9],[9,6],[15,6],[4,5],[15,3],[6,-5],[13,-1],[12,8],[18,-1],[11,7],[24,10],[7,-5],[14,4],[26,-3],[12,4],[8,-3],[21,14],[7,-1],[16,5],[11,-5],[11,-2],[6,3],[18,0],[4,-10],[6,1],[12,6],[3,5],[11,4],[11,-5],[9,-7],[21,5],[6,-1],[10,6],[7,0],[7,-7],[21,10],[8,0],[3,-9],[8,-10],[21,11],[7,5],[15,6],[10,1],[14,17],[0,8],[10,-1],[18,1],[10,5],[17,-4],[7,-4],[10,1],[44,-16],[35,-11],[10,-1],[18,-5],[3,-10],[7,6],[4,-7],[8,-3],[7,-10],[9,5],[7,-3],[13,5],[16,11],[8,15],[-7,5],[13,15],[19,7],[6,0],[38,10],[3,-5],[13,-6],[17,-17],[-2,-5],[10,-8],[12,0],[13,-7],[5,-11],[-5,-8],[-12,-8],[-11,-1],[-20,-6],[-5,-10],[5,-7],[17,8],[16,1],[3,6],[17,1],[15,4],[30,1],[22,4],[-3,-6],[11,-2],[19,3],[28,11],[0,-4],[-45,-16],[8,-7],[41,10],[12,6],[17,2],[9,5],[2,5],[9,4],[25,7],[10,-1],[6,6],[15,3],[10,-9],[14,5],[8,14],[8,2],[5,4],[6,-7],[21,-1],[-4,-8],[7,-12],[1,-8],[9,-2],[3,-6],[11,3],[19,-7],[7,7],[12,-4],[7,7],[-2,6],[5,7],[-1,8],[6,10],[10,9],[7,-1],[11,9],[3,-2],[25,-4],[20,5],[10,-2],[8,6],[19,-1],[13,-10],[4,-13],[9,8],[12,2],[5,13],[4,0],[4,-10],[14,2],[14,-12],[8,7],[22,-2],[8,-7],[20,-5],[14,0],[12,-3],[11,-6],[12,0],[14,-2],[7,-5],[9,4],[11,-1],[14,-13],[9,0],[18,10],[12,-5],[-1,-9],[18,5],[5,-6],[-10,-17],[-6,-2],[2,-8],[-7,-10],[-1,-10],[16,8],[13,4],[8,11],[14,-4],[9,1],[2,-10],[7,-9],[12,-5],[-7,-8],[14,1],[-9,-11],[15,-6],[10,3],[22,-6],[27,5],[11,-6],[3,4],[13,-1],[13,5],[7,-4],[-3,-17],[16,-12],[2,13],[8,2],[7,-4],[7,2],[23,-11],[4,7],[13,0],[-4,12],[0,15],[3,1],[25,-15],[8,-21],[8,0],[16,-5],[13,-12],[22,2],[7,-11],[7,9],[10,1],[12,-8],[10,0],[7,-10],[7,3],[13,-4],[16,-17],[-1,-3],[-15,-2],[24,-9],[10,-11],[5,-10],[7,-28],[16,-1],[3,-7],[9,0],[-10,21],[-2,12],[3,9],[14,2],[9,-13],[14,-9],[21,1],[1,8],[18,-4],[12,0],[17,-7],[12,6],[10,-2],[-7,-8],[26,0],[12,-6],[1,-9],[7,-5],[11,-3],[7,-7],[14,-6],[5,-6],[9,-2],[8,-8],[8,7],[13,-9],[4,-9],[-5,-6],[-15,0],[-6,-12],[-7,-4],[14,-5],[-1,-16],[-14,3],[-10,5],[-7,-1],[-12,7],[-11,-1],[16,-12],[12,0],[3,-4],[14,-5],[-9,-13],[-1,-7],[-9,-3],[-13,4],[-12,-6],[-32,1],[-9,-4],[30,-8],[-16,-2],[-9,-10],[-32,0],[11,-9],[-4,-5],[-13,1],[-11,-5],[-1,17],[-9,-4],[-9,-15],[8,-12],[11,-19],[-1,-5],[-18,-2],[-8,4],[-14,-7],[-9,17],[-8,-6],[2,-6],[-7,-9],[-12,-3],[-1,-12],[7,-2],[-7,-14],[-14,-1],[-7,4],[-19,-11],[30,-1],[1,-14],[19,-11],[-4,-14],[-18,-6],[19,-4],[3,-11],[-13,-12],[14,-4],[-9,-6],[-4,-11],[17,0],[18,-22],[5,-17],[17,-10],[0,-7],[-9,-14],[9,-5],[16,3],[16,0],[3,-9],[40,-11],[-4,-6],[-15,0],[-12,8],[-47,-2],[-16,-7],[-22,-1],[-4,-8],[-21,7],[-11,-4],[9,-13],[-26,1],[-21,-7],[9,-15],[-23,-14],[25,1],[-35,-13],[23,1],[14,-6],[-57,-17],[-16,-9],[10,-4],[60,6],[-3,-10],[16,-5],[-5,-7],[-24,-1],[21,-12],[0,-16],[15,-9],[-12,-7],[40,-8],[-2,-7],[40,-25],[-89,-11],[6,-4],[69,1],[-1,3],[38,5],[25,-9],[-5,-6],[20,-3],[33,-9],[4,-12],[32,1],[5,-11],[-28,-4],[25,-8],[20,4],[50,-7],[4,-6],[42,-6],[31,-13],[28,3],[20,-7],[52,-6],[28,-7],[22,-1],[-9981,-9]],[[2437,6020],[-12,27]],[[2425,6047],[-4,10]],[[2417,6062],[-7,13]],[[2410,6075],[-12,20]],[[2390,6105],[-5,12]],[[2382,6116],[-3,5]],[[2379,6121],[-3,-6]],[[2376,6115],[-6,10]],[[2367,6121],[-2,8]],[[2365,6129],[-11,-16]],[[2354,6113],[-5,-10]],[[2349,6103],[-15,-9]],[[2334,6094],[-7,-8]],[[2321,6087],[-3,-2]],[[2318,6085],[-8,4]],[[2310,6089],[-12,11]],[[2298,6100],[-14,3]],[[2284,6103],[-10,13]],[[2274,6116],[-12,7],[-6,13]],[[2254,6135],[-15,8]],[[2239,6143],[-6,1]],[[2229,6146],[-7,11]],[[2222,6157],[-28,19]],[[2189,6186],[-7,6]],[[2182,6192],[-2,5]],[[2180,6197],[-4,3]],[[2176,6200],[-4,13]],[[2165,6219],[-4,-4],[-11,7]],[[2138,6230],[-9,5]],[[2125,6239],[-6,18],[-8,13]],[[2111,6270],[-9,8]],[[2102,6278],[-4,5]],[[2098,6283],[-10,7]],[[2088,6290],[-5,8]],[[2083,6298],[-2,11]],[[2081,6309],[-5,6]],[[2076,6315],[-7,21]],[[2069,6336],[-1,10]],[[2068,6346],[-4,12]],[[2067,6363],[7,1]],[[2074,6364],[3,7]],[[2077,6371],[-4,7]],[[2073,6378],[-4,1]],[[2069,6379],[6,15]],[[2077,6396],[-1,16]],[[2078,6418],[-6,9]],[[2072,6427],[-6,20]],[[2066,6447],[-1,17]],[[2065,6464],[-4,22]],[[2061,6486],[-7,12]],[[2049,6510],[-6,11]],[[2041,6531],[-8,13]],[[2033,6544],[-3,12]],[[2027,6564],[-10,13]],[[2017,6577],[-7,14]],[[2010,6591],[-5,8]],[[1999,6610],[-4,6]],[[1995,6622],[2,7]],[[1997,6629],[-6,3]],[[1991,6632],[-4,6]],[[1987,6638],[-7,8]],[[1978,6653],[-3,-2]],[[1975,6651],[-6,2]],[[1969,6653],[-2,7]],[[1967,6660],[-7,8]],[[1960,6668],[0,13]],[[1960,6681],[5,9],[1,9]],[[1966,6699],[-1,10]],[[1965,6709],[-5,10]],[[1960,6719],[-3,3]],[[1957,6722],[-4,-3]],[[1953,6719],[-5,7]],[[1948,6726],[-1,15]],[[1947,6741],[-11,5]],[[1936,6746],[-7,14]],[[1929,6760],[-2,13]],[[1927,6773],[1,13]],[[1928,6786],[-6,5]],[[1920,6788],[-5,4]],[[1915,6792],[-5,6]],[[1910,6798],[-7,19]],[[1892,6840],[-7,11]],[[1885,6851],[-4,21]],[[1881,6872],[-4,2]],[[1878,6881],[-3,7]],[[1875,6888],[-5,17]],[[1868,6906],[0,15]],[[1865,6935],[-6,14]],[[1857,6957],[3,20]],[[1858,6981],[-12,4]],[[1846,6985],[-3,12]],[[1843,6997],[-6,5]],[[1837,7002],[-5,-6]],[[1829,6996],[-10,11]],[[1817,7012],[-7,1]],[[1809,6998],[-1,-21]],[[1808,6977],[2,-9]],[[1813,6965],[1,-18]],[[1814,6947],[2,-12]],[[1815,6921],[3,-12]],[[1822,6898],[4,-1]],[[1826,6897],[14,-21]],[[1840,6876],[8,-26]],[[1848,6850],[6,-6]],[[1854,6844],[4,-20]],[[1858,6824],[6,-1]],[[1864,6823],[0,-11]],[[1867,6806],[0,-19]],[[1867,6787],[5,-12]],[[1872,6775],[6,-5]],[[1878,6770],[3,-11]],[[1881,6759],[3,-12]],[[1888,6744],[0,-8]],[[1888,6736],[4,-8]],[[1892,6728],[2,4]],[[1894,6732],[7,-12]],[[1901,6713],[3,-3]],[[1904,6710],[0,-7]],[[1904,6703],[4,-19]],[[1908,6667],[3,-9]],[[1911,6658],[5,-9]],[[1919,6631],[4,-8]],[[1926,6611],[-2,-14]],[[1924,6597],[1,-11]],[[1925,6586],[4,-9]],[[1933,6575],[6,4]],[[1945,6568],[4,0]],[[1949,6568],[0,-6]],[[1953,6553],[0,-8]],[[1959,6540],[1,-16]],[[1960,6524],[-3,-10]],[[1952,6509],[-5,-9]],[[1947,6500],[-5,8]],[[1942,6508],[-2,18]],[[1936,6538],[-8,9]],[[1928,6547],[-13,24]],[[1915,6571],[-11,13]],[[1904,6584],[-5,8]],[[1894,6594],[-1,9]],[[1890,6610],[-4,-1]],[[1886,6609],[-1,18]],[[1885,6627],[2,10]],[[1887,6637],[0,27]],[[1887,6664],[-4,16]],[[1883,6680],[-2,3]],[[1879,6690],[-11,11]],[[1859,6715],[-2,9]],[[1857,6724],[-10,2]],[[1847,6726],[-4,-4]],[[1843,6722],[-5,13]],[[1838,6735],[-5,1]],[[1830,6744],[-10,7]],[[1820,6751],[-1,10]],[[1819,6761],[-6,7]],[[1813,6768],[-4,10]],[[1809,6778],[-1,8]],[[1808,6786],[11,-4]],[[1819,6782],[5,6]],[[1824,6788],[4,-3]],[[1828,6785],[4,12],[-2,5]],[[1830,6802],[0,8]],[[1832,6822],[-3,10]],[[1826,6833],[-4,12]],[[1822,6845],[-4,4]],[[1813,6860],[-7,15]],[[1806,6875],[-6,2]],[[1797,6883],[-5,5]],[[1792,6888],[-6,8]],[[1786,6896],[-4,34]],[[1782,6930],[-6,8]],[[1777,6947],[-1,10]],[[1776,6957],[-5,8]],[[1769,6977],[-6,16]],[[1763,6993],[-4,7]],[[1759,7000],[1,17]],[[1760,7017],[-6,8]],[[1754,7025],[-3,15]],[[1747,7052],[-1,9],[-3,5],[0,11],[-2,12],[-5,13],[-16,23],[-9,6],[-4,12],[-11,0],[-8,6],[-1,6],[-5,7],[-5,3],[-7,-1],[-7,4],[-10,-1],[-4,7],[1,7],[-2,12],[1,13],[-7,7],[0,9],[-3,3],[-5,10],[-3,2],[-5,12],[-1,6],[-11,19],[-2,10],[4,11],[1,7],[-4,10],[-6,0],[-7,13],[0,9],[-4,10],[1,14],[2,2],[2,-12],[6,-1],[-7,22],[5,5],[-5,6],[-3,-3],[-1,-16],[-11,12],[-1,13],[-4,11],[-4,3],[-11,20],[-1,10],[-4,19],[2,11],[-3,17],[-7,15],[-7,9],[-1,11],[4,15],[1,0],[3,18],[0,9],[2,15],[-5,24],[0,9],[-4,6],[-2,12],[1,20],[-4,10],[3,11],[2,18],[3,4],[3,27],[3,42],[0,12],[2,19],[0,17],[2,12],[-2,6],[1,18],[2,5],[7,2],[-2,6],[-7,-3],[-3,6],[4,5],[0,17],[-5,1],[2,13],[-4,4],[-1,10],[-3,8],[-3,22],[-6,10],[-3,15],[4,11],[15,-11],[10,-1],[25,-4],[9,-19],[-4,-4],[3,-10],[-2,-10],[-6,-8],[2,-6],[11,16],[-3,15],[3,18],[3,4],[-4,6],[-1,11],[-4,4],[3,11],[-3,11],[-3,0],[-4,7],[0,8],[-12,6],[-1,27],[-6,-5],[-2,-7],[-12,8],[-2,6],[1,6],[-4,3],[-7,-1],[-9,10],[4,17],[-3,5],[-10,0],[-2,6],[-7,4],[-9,-4],[-4,6],[-3,-3],[-8,1],[1,8],[5,1],[-4,11],[-9,-2],[-10,7],[-5,-7],[-11,7],[-10,13],[4,14],[-6,15],[0,15],[5,1],[1,8],[10,9],[4,7],[-2,6],[-16,-12],[-6,5],[-2,10],[-4,2],[3,12],[-10,6],[-2,16],[-9,10],[0,8],[3,6],[-1,13],[-2,3],[-10,-12],[0,-10],[-3,-3],[-21,31],[0,13],[-5,2],[0,9],[-5,0],[2,18],[5,3],[4,16],[-5,3],[-3,-8],[-6,-6],[-10,1],[-1,14],[-3,8],[6,8],[-1,21],[-8,13],[-7,4],[-8,-7],[-3,-12],[-4,-10],[-6,5],[-2,9],[5,6],[4,9],[-1,9],[4,2],[-4,9],[-14,14],[0,8],[-11,11],[3,2],[-9,7],[-13,6],[5,9],[-3,11],[-5,5],[3,5],[-8,14],[-18,23],[-8,3],[-1,6],[-9,19],[-2,17],[-4,-1],[-1,-9],[4,-11],[1,-9],[4,-17],[-7,-4],[-3,9],[-6,1],[-7,-2],[2,8],[-7,17],[-5,-3],[6,-22],[-16,-9],[-10,10],[-4,0],[-11,9],[-12,14],[-1,7],[-6,6],[-22,14],[-6,3],[-18,13],[6,2],[5,8],[-4,10],[-20,-11],[-15,2],[-11,6],[0,10],[-3,1],[-10,-4],[-7,4],[-23,4],[-22,-3],[-9,-3],[-12,12],[-6,-1],[-9,11],[-3,8],[-6,-9],[-10,5],[-10,0],[7,12],[-15,6],[-7,-4],[-1,7],[-5,4],[-3,8],[-8,-1],[-8,-7],[-15,1],[-7,7],[-4,-7],[1,-8],[9,-18],[-9,-10],[4,-3],[-7,-14],[-5,-1],[-21,3],[-7,-7],[-4,0],[-5,-10],[-12,-14],[-6,3],[-3,-6],[-12,-8],[-9,-2],[-9,-5],[-7,6],[3,8],[17,9],[-13,7],[-4,6],[5,14],[7,9],[5,20],[-4,10],[9,4],[18,15],[11,-7],[12,4],[-13,10],[3,5],[-13,0],[-5,3],[-12,-8],[-3,-6],[-11,-4],[-5,-4],[-3,-10],[-6,-4],[-8,-12],[-2,-10],[-8,-7],[3,-5],[-4,-10],[-8,-1],[-1,-11],[-7,-4],[-7,0],[-4,-10],[-10,-5],[-3,-17],[13,-1],[11,-7],[-3,-12],[-7,-6],[-6,-1],[-3,-13],[-8,-4],[4,-6],[-8,-4],[-4,-7],[-12,0],[-2,-7],[-7,-4],[-2,-6],[-11,-9],[-15,-9],[0,-14],[-6,-11],[-6,2],[-11,-14],[-6,0],[-15,-7],[1,-10],[-5,2],[-8,-2],[1,-17],[-4,-8],[-11,-2],[-6,-4],[-15,-7],[-6,2],[-9,-11],[-8,-5],[-1,-4],[-15,-4],[-7,-4],[-7,1],[4,11],[-7,2],[-2,-12],[-7,-16],[-9,-6],[-4,5],[-4,11],[-2,-17],[-6,-3],[-5,9],[-5,-3],[-3,4],[8,5],[2,-2],[9,11],[12,19],[11,11],[10,4],[9,0],[9,-12],[8,11],[-1,4],[5,16],[5,6],[13,11],[8,3],[14,12],[7,-3],[0,14],[10,16],[11,11],[6,4],[0,9],[6,43],[12,15],[-1,9],[-13,-8],[-16,-8],[-5,2],[-2,7],[-11,3],[-3,-7],[4,-10],[-2,-7],[-6,1],[-9,19],[-10,9],[-5,-8],[-4,7],[-6,1],[-2,9],[-9,-7],[-19,-12],[-6,-8],[-10,2],[6,7],[-2,13],[5,6],[-10,3],[-2,6],[2,9],[7,6],[-10,22],[-1,5],[-7,12],[-5,-10],[-15,-8],[-15,-3],[-13,1],[-3,12],[-8,9],[-14,9],[-9,13],[9,8],[-1,4],[10,3],[20,-3],[4,-3],[0,-8],[9,5],[1,5],[-9,7],[-22,-2],[-2,5],[-14,-1],[2,8],[-9,1],[-7,4],[0,8],[-8,7],[4,6],[-12,5],[8,6],[-5,7],[14,2],[-4,6],[1,9],[16,23],[7,1],[2,5],[-2,13],[8,17],[12,7],[11,-2],[4,-7],[7,-4],[8,1],[8,9],[5,4],[10,15],[5,-5],[14,0],[11,3],[11,14],[0,4],[-4,13],[-2,12],[-13,15],[12,0],[6,7],[-2,10],[-8,7],[-7,-9],[-8,1],[-10,-4],[-15,-12],[-12,0],[-3,-6],[-11,9],[-22,1],[-19,-8],[-32,8],[-9,8],[3,10],[-10,10],[14,11],[-2,3],[-17,4],[-13,1],[-19,11],[20,18],[8,-2],[10,11],[12,7],[15,-4],[-4,7],[3,5],[13,7],[10,1],[6,6],[21,3],[6,-6],[-4,-6],[0,-14],[6,-5],[16,0],[10,2],[3,-4],[13,2],[7,-2],[10,12],[13,-3],[-1,8],[-17,4],[-14,18],[-5,1],[-6,9],[9,4],[9,-11],[-2,-6],[6,-8],[7,-4],[15,2],[8,-7],[15,2],[0,7],[-18,8],[-7,-1],[-5,-7],[-7,2],[-8,8],[3,14],[-2,6],[-17,-3],[-35,6],[-3,13],[-10,17],[-19,13],[-17,12],[-13,5],[-5,6],[-12,6],[8,12],[0,18],[16,-1],[37,4],[20,11],[13,14],[6,25],[11,9],[2,6],[13,13],[18,-1],[14,5],[18,13],[7,4],[8,9],[8,-2],[37,4],[22,14],[12,13],[23,-6],[10,-1],[1,-7],[-14,-8],[5,-6],[10,3],[1,5],[9,5],[2,6],[15,-9],[1,-10],[12,-2],[6,7],[17,1],[21,-2],[9,-4],[-9,-7],[2,-8],[19,0],[-6,-6],[23,0],[18,3],[11,-4],[6,4],[15,0],[27,-11],[4,2],[12,-7],[19,-3],[8,1],[27,-1],[7,-5],[19,-6],[15,3],[32,5],[18,-6],[9,-9],[29,-11],[16,-3],[20,0],[22,-6],[14,-13],[15,-9],[25,-11],[15,-4],[16,1],[3,19],[4,5],[15,6],[4,4],[14,0],[6,10],[8,-6],[10,-3],[4,-6],[12,1],[6,6],[3,8],[9,5],[11,-3],[15,11],[10,4],[9,7],[17,4],[11,-4],[7,9],[7,-6],[-5,-8],[-27,-13],[-10,-11],[-4,4],[-25,-6],[-4,-10],[-18,-6],[-4,-7],[-8,-6],[0,-5],[10,-1],[-1,8],[14,5],[14,8],[7,11],[13,1],[11,-3],[8,8],[3,7],[33,7],[5,-9],[19,18],[-2,6],[9,12],[-4,9],[7,7],[14,-10],[8,-9],[12,-28],[13,-13],[9,-7],[13,-5],[8,7],[-7,9],[1,5],[10,3],[3,12],[-2,5],[17,6],[-4,-13],[0,-10],[12,-4],[-10,-11],[0,-6],[25,0],[10,7],[1,16],[6,4],[13,-3],[12,1],[17,-3],[17,-8],[15,-12],[45,-11],[5,-5],[12,-6],[51,-11],[1,8],[16,0],[17,-6],[22,-17],[4,-16],[-22,-2],[-2,-7],[-8,0],[-2,-6],[-7,-6],[11,-8],[9,1],[11,-4],[15,-3],[15,1],[8,-2],[17,0],[31,9],[8,-4],[17,11],[12,1],[8,-9],[17,-5],[4,-11],[9,5],[4,-11],[13,-9],[3,-13],[-9,-1],[15,-19],[-2,18],[7,-6],[7,10],[-8,7],[-4,10],[2,7],[-11,11],[1,9],[15,11],[14,5],[12,7],[6,8],[16,6],[-5,9],[-18,-7],[-2,-6],[-12,-3],[-3,-4],[-20,2],[3,-7],[-17,-3],[-1,6],[-12,0],[15,20],[27,5],[31,14],[12,-4],[8,-9],[2,-11],[-4,-4],[12,-11],[14,-2],[-2,-5],[5,-6],[17,-1],[10,6],[5,-6],[11,-6],[5,-6],[15,-5],[8,3],[12,-6],[7,5],[8,-1],[7,6],[15,0],[21,-3],[5,-4],[9,-1],[16,6],[-11,8],[6,5],[8,-7],[4,-9],[14,-9],[15,4],[-2,6],[-14,13],[-15,-7],[-8,11],[-3,15],[10,-2],[11,6],[-1,8],[16,-4],[7,-7],[15,-8],[-9,-8],[6,-2],[5,8],[11,4],[-6,-27],[1,-5],[-8,-8],[11,-19],[9,9],[6,-9],[8,2],[-6,22],[-6,4],[3,11],[9,10],[11,-3],[14,13],[4,7],[13,14],[4,14],[-8,9],[-6,-15],[-15,0],[2,8],[12,14],[-5,1],[2,11],[6,1],[9,-8],[7,8],[-3,10],[-10,-6],[-11,1],[-7,11],[-9,-4],[-15,7],[-6,5],[-9,1],[-14,17],[-2,13],[10,18],[-12,11],[4,12],[-2,6],[9,15],[6,1],[10,-7],[5,11],[-13,4],[12,10],[5,0],[3,13],[18,3],[4,-3],[-3,-10],[13,1],[7,-8],[16,-11],[7,-6],[3,-12],[-1,-14],[8,-12],[10,-4],[7,-17],[8,1],[5,-12],[-13,-1],[2,-6],[-9,-8],[-6,-11],[10,-8],[9,-2],[10,9],[9,-9],[13,1],[5,-5],[-9,-5],[-7,-8],[10,-8],[6,-11],[-1,-17],[-3,-9],[7,-4],[10,1],[4,9],[-3,4],[7,12],[1,13],[9,12],[11,-1],[6,-9],[13,-9],[7,-7],[6,-27],[-4,-8],[-10,-4],[-2,-9],[6,-17],[19,-18],[4,-11],[10,5],[5,9],[8,-2],[-1,18],[4,7],[14,14],[0,7],[5,13],[1,19],[12,-1],[13,21],[-12,3],[-4,4],[-5,15],[0,11],[5,8],[28,4],[16,-9],[33,-2],[-1,-6],[9,-9],[1,-10],[14,2],[11,-5],[0,-5],[-10,-11],[10,-3],[2,-13],[-10,-7],[-20,-9],[1,-12],[6,-2],[1,-12],[17,-16],[6,-9],[-5,-21],[-3,-6],[-12,-1],[-6,-12],[-5,-3],[-8,-9],[-11,-4],[-9,-8],[-6,1],[-3,9],[-8,-3],[8,-16],[-8,0],[-6,7],[-5,-8],[-25,6],[-4,16],[-9,-3],[-24,0],[-5,-5],[5,-6],[7,-2],[14,-7],[-3,-7],[-13,-8],[-1,-10],[-25,-23],[-16,0],[-7,4],[-11,14],[-11,3],[-20,14],[-4,-6],[10,-13],[3,-6],[9,-10],[56,-5],[3,-6],[-19,-34],[-4,-2],[-8,-19],[-19,-12],[-12,4],[-11,-1],[-7,-4],[-8,0],[4,-8],[-6,-9],[-16,-5],[-6,0],[-11,7],[-11,3],[-17,2],[-12,7],[-19,7],[-8,-2],[7,-8],[8,3],[17,-7],[14,-4],[9,0],[6,-8],[15,-6],[9,-11],[2,-12],[-5,-8],[-6,1],[-11,-10],[-15,4],[-13,-3],[7,-7],[8,-2],[-2,-6],[-8,2],[-13,-6],[4,-13],[-14,-4],[4,-4],[-16,-14],[6,-6],[-15,-11],[-4,-6],[4,-8],[-5,-5],[-6,-19],[-3,-3],[-10,-34],[0,-9],[-3,-8],[0,-18],[3,-16],[-3,-21],[9,-11],[3,-6],[7,3],[12,1],[14,-1],[2,-14],[9,-26],[1,-12],[9,-24],[0,-13],[-6,-13],[10,4],[2,-3],[33,14],[12,-2],[22,-14],[25,-7],[17,-18],[9,-6],[10,-20],[8,-8],[13,-2],[16,-11],[11,-4],[6,-4],[6,-9],[9,-8],[14,-3],[19,5],[5,-3],[15,-3],[8,0],[3,-4],[10,-1],[5,-5],[2,-12],[-6,-26],[0,-9],[5,-10],[3,-14],[-2,-12],[3,-19],[-4,-3],[-1,-15],[8,-10],[2,-7],[10,-12],[0,-8],[5,-11],[11,-8],[11,-16],[5,-21],[8,-3],[11,-10],[1,15],[5,6],[-1,4],[6,6],[13,-15],[2,12],[-4,3],[-2,8],[5,2],[7,15],[2,15],[0,7],[-8,10],[0,12],[-5,12],[2,7],[-2,15],[1,6],[-3,4],[1,13],[-3,15],[-7,5],[-3,6],[-1,16],[-5,6],[6,4],[14,6],[3,3],[13,7],[17,14],[19,23],[2,6],[10,17],[3,13],[2,28],[-3,28],[-6,23],[-7,17],[-15,17],[-12,7],[-8,11],[-6,2],[2,6],[-2,13],[7,1],[5,14],[8,5],[1,7],[-3,4],[5,8],[7,3],[5,21],[-8,1],[3,10],[-8,12],[4,4],[-6,8],[6,7],[-16,6],[10,13],[2,8],[-1,13],[2,9],[-6,5],[-4,11],[-2,23],[18,17],[21,-4],[4,-3],[21,-9],[14,0],[9,-2],[17,-1],[20,13],[3,-5],[10,-5],[4,-7],[12,-5],[1,-9],[10,-4],[8,-9],[8,-4],[-5,-13],[4,-8],[9,-8],[4,1],[8,-5],[9,-3],[8,4],[6,-2],[1,-12],[5,-2],[10,15],[4,-16],[-9,-7],[1,-7],[-2,-13],[4,-6],[0,-7],[-4,-8],[5,-5],[-2,-10],[2,-6],[-3,-8],[12,-8],[0,-5],[-8,-3],[2,-17],[-16,-4],[6,-12],[16,17],[13,1],[12,-8],[0,-9],[20,-22],[16,8],[3,7],[9,0],[0,5],[6,15],[8,-4],[4,8],[9,9],[-2,11],[9,8],[-4,19],[11,9],[1,6],[7,21],[12,-6],[-1,-11],[7,-1],[2,-8],[0,-13],[11,-10],[-2,-8],[8,-2],[4,-7],[-2,-6],[15,-17],[2,-9],[-9,-9],[4,-4],[12,4],[-2,-19],[10,-8],[5,-12],[3,-3],[4,-9],[-12,-6],[14,-8],[-2,-12],[14,-3],[-4,-8],[-8,-11],[-2,-9],[3,-8],[-2,-7],[8,-10],[5,2],[1,-15],[7,-2],[0,-5],[8,1],[5,-8],[3,5],[4,-14],[-2,-8],[4,-11],[10,0],[2,-6],[12,0],[5,4],[7,-3],[-1,-8],[4,-7],[6,-4],[13,-2],[2,-3],[8,0],[5,-6],[6,1],[1,-9],[-8,-7],[-14,-1],[-1,-6],[-6,-1],[-15,-15],[-6,-3],[-9,-6],[-7,2],[-9,-5],[0,-13],[2,-3],[15,4],[4,5],[8,2],[0,7],[6,8],[17,7],[-5,5],[5,5],[6,0],[18,-5],[6,-23],[-8,-6],[3,-3],[6,2],[4,6],[10,1],[0,-5],[16,-5],[0,-8],[6,-6],[2,-11],[-6,-7],[4,-11],[-7,-4],[4,-7],[-2,-7],[10,-4],[-5,-8],[4,-11],[-7,-11],[-8,-7],[-3,-1],[-18,-21],[-6,0],[-2,5],[-11,-4],[-2,1],[-7,-7],[-7,-3],[-6,2],[-6,-6],[-1,-6],[-7,-4],[-1,-14],[-12,-7],[-4,-11],[-7,-2],[-1,-8],[-6,-3],[-13,-2],[-8,2],[-9,-4],[-4,1],[-12,-6],[-3,7],[-28,4],[-9,0],[-8,-4],[-7,5],[-15,-2],[-6,3],[-12,-3],[-10,3],[-13,-4],[-6,2],[-6,-6],[-11,2],[-5,-10],[-6,-4],[-5,-9],[-3,-12],[0,-9],[-4,-7],[-21,-4],[-1,-8],[-6,1],[-7,-7],[-12,-15],[-2,-9],[-8,-18],[-6,-8],[-4,0],[-5,7],[-5,0],[-6,6],[-10,3],[0,-5],[7,0],[9,-6],[3,1],[9,-8],[-6,-20],[-7,-10],[-1,-6],[-8,-4],[-6,-18],[-6,-5],[-11,-17],[-10,-3],[-5,1],[-10,-8],[0,-5],[-6,-4],[-4,-6],[-11,-5],[-4,-8],[-4,-11],[-6,-9],[-7,-3],[-4,-8],[-5,-5],[3,-5],[8,4],[3,-1],[4,19],[5,6],[3,12],[11,7],[7,11],[6,3],[2,6],[10,8],[4,-2],[11,7],[4,5],[17,10],[4,6],[10,20],[7,9],[7,13],[3,8],[3,3],[8,11],[9,9],[14,15],[7,3],[11,10],[4,0],[22,15],[11,5],[18,3],[17,-3],[10,-5],[11,-14],[-2,-9],[3,-6],[-4,-12],[-11,-5],[-2,-7],[-14,-11],[-14,6],[-4,4],[-9,-11],[12,-5],[6,-14],[4,1],[7,8],[5,1],[6,-2],[4,-5],[-6,-9],[1,-5],[-3,-11],[-10,-11],[14,0],[1,-6],[-3,-6],[1,-6],[4,-6],[0,-6],[6,-19],[7,-1],[12,-5],[-2,-9],[2,-6],[10,-4],[7,-4],[4,2],[9,-1],[7,-8],[16,15],[0,-10],[8,-5],[4,4],[6,-14],[3,-5],[2,-8],[-7,0],[-2,-3],[-7,-5],[-25,-12],[-13,-10],[-7,-3],[-9,1],[2,-9],[-5,-3],[-6,3],[-1,6],[-11,-9],[0,-7],[-6,-15],[-7,-7],[-6,-14],[-6,-2],[-6,-9],[-5,-1],[-3,10],[-10,4],[-1,15],[-1,6],[2,13],[8,13],[1,8],[26,25],[10,5],[8,-7],[3,7],[8,3],[6,7],[-13,1],[-9,-3],[-5,3],[-4,-5],[-6,1],[3,8],[5,4],[6,9],[-4,7],[-5,-12],[-16,-9],[-6,-8],[-10,-7],[-6,4],[-2,-6],[-7,-5],[-1,4],[-7,-5],[-8,6],[-2,-8],[3,-12],[-7,-10],[-9,-6],[-7,2],[-2,-9],[-6,-2],[-5,6],[-13,-9],[-2,8],[-5,-3],[0,-7],[-3,-15],[-4,-6],[-3,5],[-3,-8],[-5,1],[-4,-10],[-5,8],[-7,-10],[1,-8],[-5,-2],[0,-7],[-4,-3],[-8,-27],[-1,-9],[5,-7],[-6,-3],[-5,-14],[7,-3],[5,-9],[2,-16],[8,-6],[5,3],[4,-5],[-14,-3],[-6,-6],[0,11],[-15,-14],[0,10],[-4,6],[-4,-22],[-10,-3],[-1,2],[-11,-4],[-14,-1],[-11,-5],[-13,-10],[-5,-9],[-3,-2],[-5,-9],[-3,-1],[-2,-8],[7,-4],[2,-6],[-5,-36],[-6,-9],[-8,-20],[-3,-8],[-7,9],[-4,-1],[-6,8],[-1,-16],[7,-15],[2,0],[1,-14],[-3,-18],[-8,-16],[-1,-8],[-11,-27],[-1,15],[6,12],[-3,18],[-3,8],[-3,-2],[-6,6],[-2,7],[5,11],[-6,4],[5,10],[1,12],[-4,2],[3,10],[-7,0],[-1,-7],[2,-10],[-5,-14],[1,-15],[4,-7],[-1,-4],[3,-11],[-8,1],[2,-7],[8,-7],[-3,-22],[3,-5],[-4,-10],[2,-7],[1,-11],[8,-3],[2,-11],[0,-18],[2,-14],[-5,2],[-5,-5],[-6,-1],[-3,-4],[-4,2],[-2,-6],[10,-1],[5,4],[4,-1],[2,-6],[4,6],[3,-9],[-1,-12],[-4,-2],[-7,-14],[-8,4],[-3,-17],[0,-7],[6,-5],[-4,-8],[-5,-3],[-6,1],[-9,-5],[-1,-3],[-8,-7],[-8,-15],[-2,-15],[-4,-3],[-6,1],[-8,-3],[-6,-5],[-5,-8],[-5,-13],[-2,-13],[-5,-10],[-6,0],[-1,-6],[-6,-9],[-5,-8],[-11,-8],[-1,-6],[-12,-17],[1,-4],[-6,-13],[-4,-4],[-4,-17],[2,-8],[-6,-18],[0,-15],[2,-1],[-1,-10],[6,-42],[2,-11],[7,-30],[9,-27],[-5,0],[1,7],[-3,4],[3,-24],[10,-41],[1,-9],[7,-31],[1,-9],[0,-15],[-2,-38],[-5,-16],[0,-14],[-3,-9],[-5,1],[-3,-5],[-4,2],[-7,-4],[-2,7],[1,9],[-5,23],[-2,4],[-8,7],[-4,7],[-1,20],[-5,4],[-1,9],[0,11],[-4,-4],[-3,3],[-7,25],[0,6],[-2,8],