{"type":"Topology","objects":{"subunits":{"type":"GeometryCollection","name":"SVN_subunits","crs":{"type":"name","properties":{"name":"urn:ogc:def:crs:OGC:1.3:CRS84"}},"geometries":[{"type":"Polygon","properties":{"name":"Piran","fips":"SIJ9","scalerank":10,"country":"SVN","latitude":45.4801,"longitude":13.6309,"type":"Opcine","iso":"SI-090"},"id":"PI","arcs":[[0,1,2]]},{"type":"Polygon","properties":{"name":"Moravske Toplice","fips":"SI78","scalerank":10,"country":"SVN","latitude":46.7159,"longitude":16.2705,"type":"Opcine","iso":"SI-078"},"id":"MT","arcs":[[3,4,5,6,7,8,9,10,11]]},{"type":"Polygon","properties":{"name":"Šalovci","fips":"SI33","scalerank":10,"country":"SVN","latitude":46.8451,"longitude":16.2448,"type":"Opcine","iso":"SI-033"},"id":"SA","arcs":[[12,-12,13,14,15]]},{"type":"Polygon","properties":{"name":"Hodoš","fips":"SI00","scalerank":10,"country":"SVN","latitude":46.8202,"longitude":16.3126,"type":"Opcine","iso":"SI-161"},"id":"HO","arcs":[[16,-16]]},{"type":"Polygon","properties":{"name":"Gornji Petrovci","fips":"SI31","scalerank":10,"country":"SVN","latitude":46.8091,"longitude":16.2128,"type":"Opcine","iso":"SI-031"},"id":"GP","arcs":[[17,-14,-11,18,19,20]]},{"type":"Polygon","properties":{"name":"Kuzma","fips":"SII2","scalerank":10,"country":"SVN","latitude":46.8461,"longitude":16.0916,"type":"Opcine","iso":"SI-056"},"id":"KU","arcs":[[-21,21,22,23]]},{"type":"Polygon","properties":{"name":"Lendava","fips":"SI59","scalerank":10,"country":"SVN","latitude":46.5693,"longitude":16.4217,"type":"Opcine","iso":"SI-059"},"id":"LE","arcs":[[24,25,26,27,28]]},{"type":"Polygon","properties":{"name":"Dobrovnik","fips":"SI00","scalerank":10,"country":"SVN","latitude":46.6539,"longitude":16.3581,"type":"Opcine","iso":"SI-156"},"id":"DO","arcs":[[29,-29,30,-6,31]]},{"type":"Polygon","properties":{"name":"Kobilje","fips":"SI47","scalerank":10,"country":"SVN","latitude":46.6809,"longitude":16.3831,"type":"Opcine","iso":"SI-047"},"id":"KO","arcs":[[-32,-5,32]]},{"type":"Polygon","properties":{"name":"Kranjska Gora","fips":"SI53","scalerank":10,"country":"SVN","latitude":46.4482,"longitude":13.8502,"type":"Opcine","iso":"SI-053"},"id":"KG","arcs":[[33,34,35,36,37]]},{"type":"Polygon","properties":{"name":"Bovec","fips":"SI06","scalerank":10,"country":"SVN","latitude":46.3725,"longitude":13.6184,"type":"Opcine","iso":"SI-006"},"id":"BO","arcs":[[38,-38,39,40]]},{"type":"Polygon","properties":{"name":"Kobarid","fips":"SI46","scalerank":10,"country":"SVN","latitude":46.2459,"longitude":13.5507,"type":"Opcine","iso":"SI-046"},"id":"KO","arcs":[[41,-41,42,43]]},{"type":"Polygon","properties":{"name":"Tolmin","fips":"SID2","scalerank":10,"country":"SVN","latitude":46.1456,"longitude":13.8136,"type":"Opcine","iso":"SI-128"},"id":"TO","arcs":[[44,-44,45,46,47,48,49,50]]},{"type":"Polygon","properties":{"name":"Kanal","fips":"SI44","scalerank":10,"country":"SVN","latitude":46.1084,"longitude":13.6455,"type":"Opcine","iso":"SI-044"},"id":"KA","arcs":[[51,-51,52,53]]},{"type":"Polygon","properties":{"name":"Brda","fips":"SI07","scalerank":10,"country":"SVN","latitude":46.0189,"longitude":13.5437,"type":"Opcine","iso":"SI-007"},"id":"BR","arcs":[[-54,54,55]]},{"type":"Polygon","properties":{"name":"Nova Goriška","fips":"SI84","scalerank":10,"country":"SVN","latitude":45.8796,"longitude":13.7337,"type":"Statisticna Regije","iso":"SI-084"},"id":"SP","arcs":[[56,-55,-53,-50,57,58,59,60,61]]},{"type":"Polygon","properties":{"name":"Šempeter-Vrtojba","fips":"SI00","scalerank":10,"country":"SVN","latitude":45.9187,"longitude":13.6431,"type":"Opcine","iso":"SI-183"},"id":"SV","arcs":[[62,-62,63]]},{"type":"Polygon","properties":{"name":"Miren-Kostanjevica","fips":"SIJ5","scalerank":10,"country":"SVN","latitude":45.8477,"longitude":13.6373,"type":"Opcine","iso":"SI-075"},"id":"MK","arcs":[[64,-64,-61,65]]},{"type":"Polygon","properties":{"name":"Komen","fips":"SI49","scalerank":10,"country":"SVN","latitude":45.8225,"longitude":13.7382,"type":"Opcine","iso":"SI-049"},"id":"KM","arcs":[[-66,-60,66,67,68,69]]},{"type":"Polygon","properties":{"name":"Sežana","fips":"SIB7","scalerank":10,"country":"SVN","latitude":45.7319,"longitude":13.8449,"type":"Opcine","iso":"SI-111"},"id":"SE","arcs":[[70,-69,71,72,73]]},{"type":"Polygon","properties":{"name":"Hrpelje-Kozina","fips":"SI35","scalerank":10,"country":"SVN","latitude":45.5679,"longitude":13.9929,"type":"Opcine","iso":"SI-035"},"id":"HK","arcs":[[74,-74,75,76,77,78]]},{"type":"Polygon","properties":{"name":"Koper","fips":"SI50","scalerank":10,"country":"SVN","latitude":45.5076,"longitude":13.8237,"type":"Opcine","iso":"SI-050"},"id":"KP","arcs":[[-79,79,-2,80,81]]},{"type":"Polygon","properties":{"name":"Rogašovci","fips":"SIA6","scalerank":10,"country":"SVN","latitude":46.799,"longitude":16.017,"type":"Opcine","iso":"SI-105"},"id":"RO","arcs":[[-23,82,83,84,85]]},{"type":"Polygon","properties":{"name":"Cankova","fips":"SI10","scalerank":10,"country":"SVN","latitude":46.7083,"longitude":16.0462,"type":"Opcine","iso":"SI-152"},"id":"CA","arcs":[[86,-85,87,88,89,90]]},{"type":"Polygon","properties":{"name":"Gornja Radgona","fips":"SI29","scalerank":10,"country":"SVN","latitude":46.6256,"longitude":15.9663,"type":"Opcine","iso":"SI-029"},"id":"GR","arcs":[[91,-91,92,93,94,95,96,97,98]]},{"type":"Polygon","properties":{"name":"Apace","fips":"SI29","scalerank":10,"country":"SVN","latitude":46.6914,"longitude":15.8873,"type":"Opcine","iso":"SI-195"},"id":"GR","arcs":[[99,-99,100,101]]},{"type":"Polygon","properties":{"name":"Šentilj","fips":"SIB3","scalerank":10,"country":"SVN","latitude":46.6904,"longitude":15.713,"type":"Opcine","iso":"SI-118"},"id":"SE","arcs":[[102,-102,103,104,105,106]]},{"type":"Polygon","properties":{"name":"Kungota","fips":"SI55","scalerank":10,"country":"SVN","latitude":46.6527,"longitude":15.5921,"type":"Opcine","iso":"SI-055"},"id":"KU","arcs":[[107,-107,108,109]]},{"type":"Polygon","properties":{"name":"Maribor","fips":"SI70","scalerank":10,"country":"SVN","latitude":46.556,"longitude":15.6414,"type":"Opcine","iso":"SI-070"},"id":"MB","arcs":[[110,-110,111,112,113,114,115,116,117]]},{"type":"Polygon","properties":{"name":"Selnica ob Dravi","fips":"SI00","scalerank":10,"country":"SVN","latitude":46.5799,"longitude":15.4976,"type":"Opcine","iso":"SI-178"},"id":"SD","arcs":[[118,-118,119,120,121]]},{"type":"Polygon","properties":{"name":"Radlje ob Dravi","fips":"SIA2","scalerank":10,"country":"SVN","latitude":46.6029,"longitude":15.2526,"type":"Opcine","iso":"SI-101"},"id":"RD","arcs":[[122,123,124,125,126]]},{"type":"Polygon","properties":{"name":"Muta","fips":"SI81","scalerank":10,"country":"SVN","latitude":46.6223,"longitude":15.1348,"type":"Opcine","iso":"SI-081"},"id":"MU","arcs":[[-127,127,128,129]]},{"type":"Polygon","properties":{"name":"Dravograd","fips":"SI25","scalerank":10,"country":"SVN","latitude":46.5906,"longitude":15.0226,"type":"Opcine","iso":"SI-025"},"id":"DR","arcs":[[130,-129,131,132,133]]},{"type":"Polygon","properties":{"name":"Podvelka","fips":"SI93","scalerank":10,"country":"SVN","latitude":46.6021,"longitude":15.3569,"type":"Opcine","iso":"SI-093"},"id":"PO","arcs":[[134,-122,135,136,-124]]},{"type":"Polygon","properties":{"name":"Ravne na Koroškem","fips":"SIA4","scalerank":10,"country":"SVN","latitude":46.5451,"longitude":14.9541,"type":"Opcine","iso":"SI-103"},"id":"RK","arcs":[[137,-134,138,139,140]]},{"type":"Polygon","properties":{"name":"Prevalje","fips":"SI00","scalerank":10,"country":"SVN","latitude":46.5675,"longitude":14.8823,"type":"Opcine","iso":"SI-175"},"id":"PR","arcs":[[141,-141,142,143]]},{"type":"Polygon","properties":{"name":"Mežica","fips":"SI74","scalerank":10,"country":"SVN","latitude":46.5281,"longitude":14.8493,"type":"Opcine","iso":"SI-074"},"id":"ME","arcs":[[144,-144,145]]},{"type":"Polygon","properties":{"name":"Črna na Koroškem","fips":"SI16","scalerank":10,"country":"SVN","latitude":46.4704,"longitude":14.819,"type":"Opcine","iso":"SI-016"},"id":"CK","arcs":[[146,-146,-143,-140,147,148,149,150,151]]},{"type":"Polygon","properties":{"name":"Tržič","fips":"SID5","scalerank":10,"country":"SVN","latitude":46.3883,"longitude":14.3377,"type":"Opcine","iso":"SI-131"},"id":"TR","arcs":[[152,153,154,155,156,157]]},{"type":"Polygon","properties":{"name":"Žirovnica","fips":"SI00","scalerank":10,"country":"SVN","latitude":46.4111,"longitude":14.1816,"type":"Opcine","iso":"SI-192"},"id":"ZV","arcs":[[158,-158,159,160,161]]},{"type":"Polygon","properties":{"name":"Jesenice","fips":"SIH4","scalerank":10,"country":"SVN","latitude":46.4477,"longitude":14.0702,"type":"Opcine","iso":"SI-041"},"id":"JS","arcs":[[162,-162,163,-35]]},{"type":"Polygon","properties":{"name":"Solcava","fips":"SI00","scalerank":10,"country":"SVN","latitude":46.4114,"longitude":14.6582,"type":"Opcine","iso":"SI-180"},"id":"SL","arcs":[[164,-152,165,166,167]]},{"type":"Polygon","properties":{"name":"Jezersko","fips":"SI00","scalerank":10,"country":"SVN","latitude":46.3897,"longitude":14.4871,"type":"Opcine","iso":"SI-163"},"id":"JZ","arcs":[[168,-168,169,170,-154]]},{"type":"Polygon","properties":{"name":"Črenšovci","fips":"SI15","scalerank":10,"country":"SVN","latitude":46.5592,"longitude":16.2936,"type":"Opcine","iso":"SI-015"},"id":"CR","arcs":[[171,172,173,174,175,176,-26]]},{"type":"Polygon","properties":{"name":"Ljutomer","fips":"SII6","scalerank":10,"country":"SVN","latitude":46.5112,"longitude":16.1653,"type":"Opcine","iso":"SI-063"},"id":"LJ","arcs":[[177,178,179,180,181,182,183,184,-173]]},{"type":"Polygon","properties":{"name":"Razkrižje","fips":"SI00","scalerank":10,"country":"SVN","latitude":46.5269,"longitude":16.2803,"type":"Opcine","iso":"SI-176"},"id":"RZ","arcs":[[185,-179]]},{"type":"Polygon","properties":{"name":"Ormož","fips":"SI87","scalerank":10,"country":"SVN","latitude":46.4411,"longitude":16.1469,"type":"Opcine","iso":"SI-087"},"id":"OR","arcs":[[186,187,188,189,190,-181]]},{"type":"Polygon","properties":{"name":"Zavrc","fips":"SIE9","scalerank":10,"country":"SVN","latitude":46.3824,"longitude":16.0599,"type":"Opcine","iso":"SI-143"},"id":"ZA","arcs":[[191,192,-188]]},{"type":"Polygon","properties":{"name":"Gorišnica","fips":"SI28","scalerank":10,"country":"SVN","latitude":46.3668,"longitude":16.0215,"type":"Opcine","iso":"SI-028"},"id":"GO","arcs":[[193,194,195,196,-189,-193]]},{"type":"Polygon","properties":{"name":"Videm","fips":"SIN2","scalerank":10,"country":"SVN","latitude":46.3704,"longitude":15.8973,"type":"Opcine","iso":"SI-135"},"id":"VI","arcs":[[197,198,199,200,201,202,203,204,-195]]},{"type":"Polygon","properties":{"name":"Podlehnik","fips":"SI00","scalerank":10,"country":"SVN","latitude":46.3116,"longitude":15.8719,"type":"Opcine","iso":"SI-172"},"id":"PO","arcs":[[205,206,-199]]},{"type":"Polygon","properties":{"name":"Žetale","fips":"SI00","scalerank":10,"country":"SVN","latitude":46.2837,"longitude":15.8193,"type":"Opcine","iso":"SI-191"},"id":"ZE","arcs":[[207,208,209,-200,-207]]},{"type":"Polygon","properties":{"name":"Rogatec","fips":"SIA8","scalerank":10,"country":"SVN","latitude":46.2383,"longitude":15.7385,"type":"Opcine","iso":"SI-107"},"id":"RO","arcs":[[210,211,212,-209]]},{"type":"Polygon","properties":{"name":"Rogaška Slatina","fips":"SIA7","scalerank":10,"country":"SVN","latitude":46.2433,"longitude":15.6536,"type":"Opcine","iso":"SI-106"},"id":"RS","arcs":[[213,214,215,216,217,-212]]},{"type":"Polygon","properties":{"name":"Bistrica ob Sotli","fips":"SI92","scalerank":10,"country":"SVN","latitude":46.1454,"longitude":15.5811,"type":"Opcine","iso":"SI-149"},"id":"BS","arcs":[[218,219,220,221,222,-215]]},{"type":"Polygon","properties":{"name":"Podcetrtek","fips":"SI00","scalerank":10,"country":"SVN","latitude":46.048,"longitude":15.6501,"type":"Opcine","iso":"SI-092"},"id":"PD","arcs":[[223,224,225,-220]]},{"type":"Polygon","properties":{"name":"Brežice","fips":"SI08","scalerank":10,"country":"SVN","latitude":45.9082,"longitude":15.6036,"type":"Opcine","iso":"SI-009"},"id":"BR","arcs":[[226,227,228,-225]]},{"type":"Polygon","properties":{"name":"Krško","fips":"SI54","scalerank":10,"country":"SVN","latitude":45.9397,"longitude":15.4671,"type":"Statisticna Regije","iso":"SI-054"},"id":"PS","arcs":[[229,230,231,232,233,234,235,-228]]},{"type":"Polygon","properties":{"name":"Šentjernej","fips":"SIB4","scalerank":10,"country":"SVN","latitude":45.8143,"longitude":15.3503,"type":"Opcine","iso":"SI-119"},"id":"SN","arcs":[[236,237,238,-231]]},{"type":"Polygon","properties":{"name":"Novo Mesto","fips":"SIJ7","scalerank":10,"country":"SVN","latitude":45.7779,"longitude":15.1945,"type":"Opcine","iso":"SI-085"},"id":"NM","arcs":[[239,240,241,242,243,244,245,246,-238]]},{"type":"Polygon","properties":{"name":"Metlika","fips":"SI73","scalerank":10,"country":"SVN","latitude":45.6501,"longitude":15.2985,"type":"Opcine","iso":"SI-073"},"id":"CR","arcs":[[247,248,249,-241]]},{"type":"Polygon","properties":{"name":"Crnomelj","fips":"SI17","scalerank":10,"country":"SVN","latitude":45.5229,"longitude":15.2135,"type":"Opcine","iso":"SI-017"},"id":"CR","arcs":[[250,251,252,-249]]},{"type":"Polygon","properties":{"name":"Kocevje","fips":"SIH7","scalerank":10,"country":"SVN","latitude":45.6418,"longitude":14.9161,"type":"Opcine","iso":"SI-048"},"id":"KC","arcs":[[253,254,255,256,257,258,259,260,-252]]},{"type":"Polygon","properties":{"name":"Kostel","fips":"SI00","scalerank":10,"country":"SVN","latitude":45.4814,"longitude":14.8204,"type":"Opcine","iso":"SI-165"},"id":"KS","arcs":[[261,262,-255]]},{"type":"Polygon","properties":{"name":"Loški Potok","fips":"SI66","scalerank":10,"country":"SVN","latitude":45.6506,"longitude":14.6363,"type":"Opcine","iso":"SI-066"},"id":"LP","arcs":[[263,264,265,266,267,-256,-263]]},{"type":"Polygon","properties":{"name":"Loška dolina","fips":"SII7","scalerank":10,"country":"SVN","latitude":45.6638,"longitude":14.4776,"type":"Opcine","iso":"SI-065"},"id":"LD","arcs":[[268,269,270,271,272,-265]]},{"type":"Polygon","properties":{"name":"Ilirska Bistrica","fips":"SI38","scalerank":10,"country":"SVN","latitude":45.5678,"longitude":14.2891,"type":"Opcine","iso":"SI-038"},"id":"IB","arcs":[[273,-77,274,275,-270]]},{"type":"Polygon","properties":{"name":"Izola","fips":"SI40","scalerank":10,"country":"SVN","latitude":45.5153,"longitude":13.643,"type":"Opcine","iso":"SI-040"},"id":"IZ","arcs":[[276,-81,-1]]},{"type":"Polygon","properties":{"name":"Pesnica","fips":"SI89","scalerank":10,"country":"SVN","latitude":46.6254,"longitude":15.7082,"type":"Opcine","iso":"SI-089"},"id":"PE","arcs":[[-112,-109,-106,277]]},{"type":"Polygon","properties":{"name":"Duplek","fips":"SI26","scalerank":10,"country":"SVN","latitude":46.512,"longitude":15.7689,"type":"Opcine","iso":"SI-026"},"id":"DU","arcs":[[-114,278,279,280,281]]},{"type":"Polygon","properties":{"name":"Miklavž na Dravskem polju","fips":"SI00","scalerank":10,"country":"SVN","latitude":46.4853,"longitude":15.7138,"type":"Opcine","iso":"SI-169"},"id":"MD","arcs":[[-115,-282,282,283,284]]},{"type":"Polygon","properties":{"name":"Hoce-Slivnica","fips":"SI00","scalerank":10,"country":"SVN","latitude":46.4943,"longitude":15.6245,"type":"Opcine","iso":"SI-160"},"id":"HS","arcs":[[-116,-285,285,286,287]]},{"type":"Polygon","properties":{"name":"Lenart","fips":"SII3","scalerank":10,"country":"SVN","latitude":46.5575,"longitude":15.8548,"type":"Opcine","iso":"SI-058"},"id":"LE","arcs":[[-105,288,289,-96,290,291,292,293,294,-279,-113,-278]]},{"type":"Polygon","properties":{"name":"Sveta Ana","fips":"SI00","scalerank":10,"country":"SVN","latitude":46.6459,"longitude":15.8405,"type":"Opcine","iso":"SI-181"},"id":"SA","arcs":[[-104,-101,-98,295,-289]]},{"type":"Polygon","properties":{"name":"Lovrenc na Pohorju","fips":"SI00","scalerank":10,"country":"SVN","latitude":46.5291,"longitude":15.3869,"type":"Opcine","iso":"SI-167"},"id":"LP","arcs":[[-136,-121,296,297,298,299,300]]},{"type":"Polygon","properties":{"name":"Ribnica na Pohorju","fips":"SIA5","scalerank":10,"country":"SVN","latitude":46.5309,"longitude":15.2558,"type":"Opcine","iso":"SI-177"},"id":"RP","arcs":[[-137,-301,301,302,303,-125]]},{"type":"Polygon","properties":{"name":"Slovenj Gradec","fips":"SIC2","scalerank":10,"country":"SVN","latitude":46.4914,"longitude":15.076,"type":"Statisticna Regije","iso":"SI-112"},"id":"KO","arcs":[[-139,-133,304,-303,305,306,307,-148]]},{"type":"Polygon","properties":{"name":"Vuzenica","fips":"SIE6","scalerank":10,"country":"SVN","latitude":46.5669,"longitude":15.1575,"type":"Opcine","iso":"SI-141"},"id":"VU","arcs":[[-126,-304,-305,-132,-128]]},{"type":"Polygon","properties":{"name":"Preddvor","fips":"SIK5","scalerank":10,"country":"SVN","latitude":46.3286,"longitude":14.46,"type":"Opcine","iso":"SI-095"},"id":"PR","arcs":[[308,309,-171,310,311]]},{"type":"Polygon","properties":{"name":"Šenčur","fips":"SIB2","scalerank":10,"country":"SVN","latitude":46.2408,"longitude":14.4252,"type":"Opcine","iso":"SI-117"},"id":"SE","arcs":[[-309,312,313,314,315]]},{"type":"Polygon","properties":{"name":"Cerklje na Gorenjskem","fips":"SI12","scalerank":10,"country":"SVN","latitude":46.2524,"longitude":14.5061,"type":"Opcine","iso":"SI-012"},"id":"CG","arcs":[[-312,316,317,318,-313]]},{"type":"Polygon","properties":{"name":"Kamnik","fips":"SIH6","scalerank":10,"country":"SVN","latitude":46.2285,"longitude":14.733,"type":"Opcine","iso":"SI-043"},"id":"KA","arcs":[[-311,-170,-167,319,320,321,322,323,324,325,326,327,-317]]},{"type":"Polygon","properties":{"name":"Medvode","fips":"SI71","scalerank":10,"country":"SVN","latitude":46.1236,"longitude":14.3971,"type":"Opcine","iso":"SI-071"},"id":"MD","arcs":[[328,-315,329,330,331,332]]},{"type":"Polygon","properties":{"name":"Kranj","fips":"SI52","scalerank":10,"country":"SVN","latitude":46.2382,"longitude":14.2919,"type":"Opcine","iso":"SI-052"},"id":"KR","arcs":[[-329,333,334,335,336,337,-155,-310,-316]]},{"type":"Polygon","properties":{"name":"Škofja Loka","fips":"SIB9","scalerank":10,"country":"SVN","latitude":46.1576,"longitude":14.2779,"type":"Opcine","iso":"SI-122"},"id":"SL","arcs":[[-334,-333,338,339,340]]},{"type":"Polygon","properties":{"name":"Železniki","fips":"SIF1","scalerank":10,"country":"SVN","latitude":46.2279,"longitude":14.1184,"type":"Opcine","iso":"SI-146"},"id":"ZE","arcs":[[-335,-341,341,342,-47,343]]},{"type":"Polygon","properties":{"name":"Bohinj","fips":"SI04","scalerank":10,"country":"SVN","latitude":46.2961,"longitude":13.9538,"type":"Opcine","iso":"SI-004"},"id":"BO","arcs":[[-336,-344,-46,-43,-40,-37,344,345]]},{"type":"Polygon","properties":{"name":"Naklo","fips":"SI62","scalerank":10,"country":"SVN","latitude":46.2932,"longitude":14.3004,"type":"Opcine","iso":"SI-082"},"id":"NA","arcs":[[-338,346,-156]]},{"type":"Polygon","properties":{"name":"Radovljica","fips":"SIA3","scalerank":10,"country":"SVN","latitude":46.3361,"longitude":14.1929,"type":"Statisticna Regije","iso":"SI-102"},"id":"GO","arcs":[[-337,-346,347,-160,-157,-347]]},{"type":"Polygon","properties":{"name":"Šoštanj","fips":"SIC7","scalerank":10,"country":"SVN","latitude":46.4223,"longitude":14.9905,"type":"Opcine","iso":"SI-126"},"id":"SS","arcs":[[-308,348,349,350,351,-149]]},{"type":"Polygon","properties":{"name":"Ljubno","fips":"SI62","scalerank":10,"country":"SVN","latitude":46.3721,"longitude":14.8415,"type":"Opcine","iso":"SI-062"},"id":"LJ","arcs":[[-352,352,353,354,-150]]},{"type":"Polygon","properties":{"name":"Luce","fips":"SII9","scalerank":10,"country":"SVN","latitude":46.3436,"longitude":14.7245,"type":"Opcine","iso":"SI-067"},"id":"LU","arcs":[[-355,355,-320,-166,-151]]},{"type":"Polygon","properties":{"name":"Lukovica","fips":"SI68","scalerank":10,"country":"SVN","latitude":46.1827,"longitude":14.7761,"type":"Opcine","iso":"SI-068"},"id":"LU","arcs":[[-325,356,357,358]]},{"type":"Polygon","properties":{"name":"Benedikt","fips":"SI00","scalerank":10,"country":"SVN","latitude":46.6136,"longitude":15.8981,"type":"Opcine","iso":"SI-148"},"id":"BE","arcs":[[-290,-296,-97]]},{"type":"Polygon","properties":{"name":"Laško","fips":"SI57","scalerank":10,"country":"SVN","latitude":46.1404,"longitude":15.248,"type":"Opcine","iso":"SI-057"},"id":"LA","arcs":[[359,360,361,362,363,364,365,366,367]]},{"type":"Polygon","properties":{"name":"Dobje","fips":"SI00","scalerank":10,"country":"SVN","latitude":46.1339,"longitude":15.4056,"type":"Opcine","iso":"SI-154"},"id":"DJ","arcs":[[-360,368]]},{"type":"Polygon","properties":{"name":"Ruše","fips":"SIL3","scalerank":10,"country":"SVN","latitude":46.5156,"longitude":15.486,"type":"Opcine","iso":"SI-108"},"id":"RU","arcs":[[-288,369,-297,-120,-117]]},{"type":"Polygon","properties":{"name":"Vodice","fips":"SIE3","scalerank":10,"country":"SVN","latitude":46.1726,"longitude":14.4982,"type":"Opcine","iso":"SI-138"},"id":"VO","arcs":[[-330,-314,-319,370,371,372]]},{"type":"Polygon","properties":{"name":"Komenda","fips":"SI00","scalerank":10,"country":"SVN","latitude":46.2055,"longitude":14.5417,"type":"Opcine","iso":"SI-164"},"id":"KM","arcs":[[-371,-318,-328,373]]},{"type":"Polygon","properties":{"name":"Mengeš","fips":"SI72","scalerank":10,"country":"SVN","latitude":46.1605,"longitude":14.552,"type":"Opcine","iso":"SI-072"},"id":"MN","arcs":[[-372,-374,-327,374,375,376]]},{"type":"Polygon","properties":{"name":"Vrhnika","fips":"SIE5","scalerank":10,"country":"SVN","latitude":45.9491,"longitude":14.2947,"type":"Opcine","iso":"SI-140"},"id":"VR","arcs":[[377,378,379,380,381,382,383]]},{"type":"Polygon","properties":{"name":"Horjul","fips":"SI00","scalerank":10,"country":"SVN","latitude":46.0249,"longitude":14.2917,"type":"Opcine","iso":"SI-162"},"id":"HO","arcs":[[-378,384]]},{"type":"Polygon","properties":{"name":"Cerkvenjak","fips":"SI00","scalerank":10,"country":"SVN","latitude":46.5598,"longitude":15.9531,"type":"Opcine","iso":"SI-153"},"id":"CE","arcs":[[-291,-95,385,386]]},{"type":"Polygon","properties":{"name":"Trzin","fips":"SI00","scalerank":10,"country":"SVN","latitude":46.1259,"longitude":14.5552,"type":"Opcine","iso":"SI-186"},"id":"TR","arcs":[[-376,387,388]]},{"type":"Polygon","properties":{"name":"Puconci","fips":"SI97","scalerank":10,"country":"SVN","latitude":46.7506,"longitude":16.132,"type":"Opcine","iso":"SI-097"},"id":"GP","arcs":[[-19,-10,389,-88,-84,390]]},{"type":"Polygon","properties":{"name":"Grad","fips":"SI00","scalerank":10,"country":"SVN","latitude":46.7969,"longitude":16.094,"type":"Opcine","iso":"SI-158"},"id":"GD","arcs":[[-391,-83,-22,-20]]},{"type":"Polygon","properties":{"name":"Murska Sobota","fips":"SI80","scalerank":10,"country":"SVN","latitude":46.6532,"longitude":16.1719,"type":"Statisticna Regije","iso":"SI-080"},"id":"PM","arcs":[[-390,-9,391,392,-89]]},{"type":"Polygon","properties":{"name":"Sveti Andraž v Slovenskih Goricah","fips":"SI00","scalerank":10,"country":"SVN","latitude":46.5244,"longitude":15.9658,"type":"Opcine","iso":"SI-182"},"id":"SS","arcs":[[-292,-387,393,394,395,396]]},{"type":"Polygon","properties":{"name":"Brezovica","fips":"SI09","scalerank":10,"country":"SVN","latitude":45.9479,"longitude":14.4279,"type":"Opcine","iso":"SI-008"},"id":"BR","arcs":[[397,398,399,400,-380,401]]},{"type":"Polygon","properties":{"name":"Dobrova-Polhov Gradec","fips":"SIG4","scalerank":10,"country":"SVN","latitude":46.0716,"longitude":14.3138,"type":"Opcine","iso":"SI-021"},"id":"DP","arcs":[[-402,-379,-385,-384,402,403,-339,-332,404]]},{"type":"Polygon","properties":{"name":"Gorenja vas-Poljane","fips":"SI32","scalerank":10,"country":"SVN","latitude":46.1241,"longitude":14.1223,"type":"Opcine","iso":"SI-027"},"id":"GV","arcs":[[-404,405,406,-342,-340]]},{"type":"Polygon","properties":{"name":"Logatec","fips":"SI64","scalerank":10,"country":"SVN","latitude":45.9399,"longitude":14.1998,"type":"Opcine","iso":"SI-064"},"id":"LO","arcs":[[-403,-383,407,408,409,410,411]]},{"type":"Polygon","properties":{"name":"Trnovska vas","fips":"SI00","scalerank":10,"country":"SVN","latitude":46.523,"longitude":15.8943,"type":"Opcine","iso":"SI-185"},"id":"TV","arcs":[[-293,-397,412]]},{"type":"Polygon","properties":{"name":"Destrnik","fips":"SI18","scalerank":10,"country":"SVN","latitude":46.4767,"longitude":15.8853,"type":"Opcine","iso":"SI-018"},"id":"DE","arcs":[[-294,-413,-396,413,414]]},{"type":"Polygon","properties":{"name":"Race-Fram","fips":"SI98","scalerank":10,"country":"SVN","latitude":46.4507,"longitude":15.6401,"type":"Opcine","iso":"SI-098"},"id":"RF","arcs":[[-284,415,416,417,-286]]},{"type":"Polygon","properties":{"name":"Starše","fips":"SIC8","scalerank":10,"country":"SVN","latitude":46.4544,"longitude":15.7678,"type":"Statisticna Regije","iso":"SI-115"},"id":"PD","arcs":[[-281,418,419,420,-416,-283]]},{"type":"Polygon","properties":{"name":"Vransko","fips":"SI00","scalerank":10,"country":"SVN","latitude":46.2348,"longitude":14.9474,"type":"Opcine","iso":"SI-189"},"id":"VR","arcs":[[-323,421,422,423,424]]},{"type":"Polygon","properties":{"name":"Velenje","fips":"SID7","scalerank":10,"country":"SVN","latitude":46.3749,"longitude":15.1364,"type":"Opcine","iso":"SI-133"},"id":"VE","arcs":[[-307,425,426,427,428,-349]]},{"type":"Polygon","properties":{"name":"Polzela","fips":"SI00","scalerank":10,"country":"SVN","latitude":46.3034,"longitude":15.087,"type":"Opcine","iso":"SI-173"},"id":"PL","arcs":[[-429,429,430,431,432]]},{"type":"Polygon","properties":{"name":"Šmartno ob Paki","fips":"SIC6","scalerank":10,"country":"SVN","latitude":46.3421,"longitude":15.0326,"type":"Opcine","iso":"SI-125"},"id":"SP","arcs":[[-350,-433,433,434]]},{"type":"Polygon","properties":{"name":"Mozirje","fips":"SI79","scalerank":10,"country":"SVN","latitude":46.3593,"longitude":14.9377,"type":"Opcine","iso":"SI-079"},"id":"MO","arcs":[[-353,-351,-435,435,436,437]]},{"type":"Polygon","properties":{"name":"Vitanje","fips":"SIE2","scalerank":10,"country":"SVN","latitude":46.4073,"longitude":15.2954,"type":"Opcine","iso":"SI-137"},"id":"VI","arcs":[[438,439,440,441]]},{"type":"Polygon","properties":{"name":"Vojnik","fips":"SIN3","scalerank":10,"country":"SVN","latitude":46.3188,"longitude":15.31,"type":"Opcine","iso":"SI-139"},"id":"VO","arcs":[[-439,442,443,444,445,446]]},{"type":"Polygon","properties":{"name":"Zrece","fips":"SIF3","scalerank":10,"country":"SVN","latitude":46.3914,"longitude":15.3705,"type":"Opcine","iso":"SI-144"},"id":"ZR","arcs":[[-442,447,-299,448,449,450,-443]]},{"type":"Polygon","properties":{"name":"Mislinja","fips":"SI76","scalerank":10,"country":"SVN","latitude":46.4442,"longitude":15.2253,"type":"Opcine","iso":"SI-076"},"id":"MI","arcs":[[-300,-448,-441,451,-426,-306,-302]]},{"type":"Polygon","properties":{"name":"Zasavska","fips":"SIE7","scalerank":10,"country":"SVN","latitude":46.1454,"longitude":14.924,"type":"Statisticna Regije","iso":"SI-05"},"id":"ZS","arcs":[[452,-357,-324,-425,453,454,455]]},{"type":"Polygon","properties":{"name":"Litija","fips":"SII5","scalerank":10,"country":"SVN","latitude":46.0752,"longitude":14.9182,"type":"Opcine","iso":"SI-060"},"id":"LI","arcs":[[-456,456,457,458,459,460,461,462,463]]},{"type":"Polygon","properties":{"name":"Gornji Grad","fips":"SI30","scalerank":10,"country":"SVN","latitude":46.2972,"longitude":14.7905,"type":"Opcine","iso":"SI-030"},"id":"GG","arcs":[[-354,-438,464,-321,-356]]},{"type":"Polygon","properties":{"name":"Cerknica","fips":"SI13","scalerank":10,"country":"SVN","latitude":45.7886,"longitude":14.3817,"type":"Opcine","iso":"SI-013"},"id":"CE","arcs":[[-400,465,466,-272,467,468,-408,-382,469]]},{"type":"Polygon","properties":{"name":"Velike Lašče","fips":"SID4","scalerank":10,"country":"SVN","latitude":45.8446,"longitude":14.5889,"type":"Opcine","iso":"SI-134"},"id":"VL","arcs":[[-466,470,471,472,473,474,475,476]]},{"type":"Polygon","properties":{"name":"Borovnica","fips":"SI05","scalerank":10,"country":"SVN","latitude":45.9095,"longitude":14.3756,"type":"Opcine","iso":"SI-005"},"id":"BO","arcs":[[-470,-381,-401]]},{"type":"Polygon","properties":{"name":"Postojna","fips":"SI94","scalerank":10,"country":"SVN","latitude":45.7924,"longitude":14.1802,"type":"Opcine","iso":"SI-094"},"id":"PO","arcs":[[-469,477,478,479,480,-409]]},{"type":"Polygon","properties":{"name":"Pivka","fips":"SI91","scalerank":10,"country":"SVN","latitude":45.6834,"longitude":14.2444,"type":"Statisticna Regije","iso":"SI-091"},"id":"NO","arcs":[[-468,-271,-276,481,-478]]},{"type":"Polygon","properties":{"name":"Dobrna","fips":"SI00","scalerank":10,"country":"SVN","latitude":46.3552,"longitude":15.2299,"type":"Opcine","iso":"SI-155"},"id":"DR","arcs":[[-447,482,483,-427,-452,-440]]},{"type":"Polygon","properties":{"name":"Celje","fips":"SI11","scalerank":10,"country":"SVN","latitude":46.2398,"longitude":15.2874,"type":"Opcine","iso":"SI-011"},"id":"CE","arcs":[[-483,-446,484,485,-366,486]]},{"type":"Polygon","properties":{"name":"Nazarje","fips":"SI83","scalerank":10,"country":"SVN","latitude":46.2864,"longitude":14.9127,"type":"Opcine","iso":"SI-083"},"id":"NA","arcs":[[-322,-465,-437,487,-422]]},{"type":"Polygon","properties":{"name":"Domžale","fips":"SIG7","scalerank":10,"country":"SVN","latitude":46.1493,"longitude":14.6294,"type":"Opcine","iso":"SI-023"},"id":"DM","arcs":[[-375,-326,-359,488,489,490,-388]]},{"type":"Polygon","properties":{"name":"Ivancna Gorica","fips":"SI39","scalerank":10,"country":"SVN","latitude":45.9017,"longitude":14.8211,"type":"Opcine","iso":"SI-039"},"id":"IV","arcs":[[491,492,493,494,495,496]]},{"type":"Polygon","properties":{"name":"Ljubljana","fips":"SI61","scalerank":10,"country":"SVN","latitude":46.0616,"longitude":14.5799,"type":"Statisticna Regije","iso":"SI-061"},"id":"LJ","arcs":[[-492,497,498,499,-398,-405,-331,-373,-377,-389,-491,500,-462,501]]},{"type":"Polygon","properties":{"name":"Šmartno in Litiji","fips":"SII5","scalerank":10,"country":"SVN","latitude":46.0231,"longitude":14.8692,"type":"Opcine","iso":"SI-194"},"id":"LI","arcs":[[-502,-461,502,-493]]},{"type":"Polygon","properties":{"name":"Ig","fips":"SI37","scalerank":10,"country":"SVN","latitude":45.9398,"longitude":14.5158,"type":"Opcine","iso":"SI-037"},"id":"IG","arcs":[[-500,503,-471,-399]]},{"type":"Polygon","properties":{"name":"Dol pri Ljubljani","fips":"SI22","scalerank":10,"country":"SVN","latitude":46.0996,"longitude":14.6741,"type":"Opcine","iso":"SI-022"},"id":"DL","arcs":[[-463,-501,-490,504]]},{"type":"Polygon","properties":{"name":"Prebold","fips":"SI00","scalerank":10,"country":"SVN","latitude":46.2214,"longitude":15.0943,"type":"Opcine","iso":"SI-174"},"id":"PR","arcs":[[-431,505,506,507,508]]},{"type":"Polygon","properties":{"name":"Moravce","fips":"SI77","scalerank":10,"country":"SVN","latitude":46.1337,"longitude":14.7576,"type":"Opcine","iso":"SI-077"},"id":"MO","arcs":[[-464,-505,-489,-358,-453]]},{"type":"Polygon","properties":{"name":"Dobrepolje","fips":"SI00","scalerank":10,"country":"SVN","latitude":45.8342,"longitude":14.7253,"type":"Opcine","iso":"SI-020"},"id":"DB","arcs":[[-496,509,-258,510,-474,511]]},{"type":"Polygon","properties":{"name":"Radece","fips":"SI99","scalerank":10,"country":"SVN","latitude":46.0658,"longitude":15.1559,"type":"Opcine","iso":"SI-099"},"id":"RA","arcs":[[-458,512,513,-363,514]]},{"type":"Polygon","properties":{"name":"Štore","fips":"SIC9","scalerank":10,"country":"SVN","latitude":46.1996,"longitude":15.3276,"type":"Opcine","iso":"SI-127"},"id":"ST","arcs":[[-486,515,-367]]},{"type":"Polygon","properties":{"name":"Slovenske Konjice","fips":"SIC4","scalerank":10,"country":"SVN","latitude":46.3232,"longitude":15.4612,"type":"Opcine","iso":"SI-114"},"id":"SK","arcs":[[-444,-451,516,517,518,519]]},{"type":"Polygon","properties":{"name":"Žiri","fips":"SIF2","scalerank":10,"country":"SVN","latitude":46.0459,"longitude":14.1084,"type":"Opcine","iso":"SI-147"},"id":"ZI","arcs":[[-406,-412,520]]},{"type":"Polygon","properties":{"name":"Oplotnica","fips":"SI00","scalerank":10,"country":"SVN","latitude":46.381,"longitude":15.456,"type":"Opcine","iso":"SI-171"},"id":"OP","arcs":[[-517,-450,521]]},{"type":"Polygon","properties":{"name":"Cerkno","fips":"SI14","scalerank":10,"country":"SVN","latitude":46.1335,"longitude":13.9799,"type":"Opcine","iso":"SI-014"},"id":"CE","arcs":[[-407,522,-48,-343]]},{"type":"Polygon","properties":{"name":"Bled","fips":"SI03","scalerank":10,"country":"SVN","latitude":46.3898,"longitude":14.0001,"type":"Opcine","iso":"SI-003"},"id":"BL","arcs":[[-345,-36,-164,-161,-348]]},{"type":"Polygon","properties":{"name":"Ajdovščina","fips":"SI01","scalerank":10,"country":"SVN","latitude":45.9043,"longitude":13.9294,"type":"Opcine","iso":"SI-001"},"id":"AJ","arcs":[[-410,-481,523,-67,-59,524]]},{"type":"Polygon","properties":{"name":"Divaca","fips":"SI19","scalerank":10,"country":"SVN","latitude":45.6927,"longitude":14.0149,"type":"Opcine","iso":"SI-019"},"id":"DI","arcs":[[-479,-482,-275,-76,-73,525]]},{"type":"Polygon","properties":{"name":"Idrija","fips":"SI36","scalerank":10,"country":"SVN","latitude":45.9922,"longitude":13.9955,"type":"Opcine","iso":"SI-036"},"id":"ID","arcs":[[-411,-525,-58,-49,-523,-521]]},{"type":"Polygon","properties":{"name":"Vipava","fips":"SIE1","scalerank":10,"country":"SVN","latitude":45.8271,"longitude":13.9723,"type":"Opcine","iso":"SI-136"},"id":"VI","arcs":[[-480,-526,-72,-68,-524]]},{"type":"Polygon","properties":{"name":"Bloke","fips":"SI00","scalerank":10,"country":"SVN","latitude":45.7836,"longitude":14.5092,"type":"Opcine","iso":"SI-150"},"id":"BL","arcs":[[-477,526,-266,-273,-467]]},{"type":"Polygon","properties":{"name":"Šentjur pri Celju","fips":"SIL7","scalerank":10,"country":"SVN","latitude":46.1784,"longitude":15.4424,"type":"Opcine","iso":"SI-120"},"id":"SC","arcs":[[-516,-485,-445,-520,527,-222,528,-234,529,-361,-369,-368]]},{"type":"Polygon","properties":{"name":"Kozje","fips":"SI08","scalerank":10,"country":"SVN","latitude":46.0666,"longitude":15.5721,"type":"Opcine","iso":"SI-051"},"id":"KO","arcs":[[-529,-221,-226,-229,530,-235]]},{"type":"Polygon","properties":{"name":"Šmarje pri Jelšah","fips":"SIC5","scalerank":10,"country":"SVN","latitude":46.2188,"longitude":15.5302,"type":"Opcine","iso":"SI-124"},"id":"SJ","arcs":[[-528,-519,531,-216,-223]]},{"type":"Polygon","properties":{"name":"Sevnica","fips":"SIB6","scalerank":10,"country":"SVN","latitude":46.0132,"longitude":15.2616,"type":"Opcine","iso":"SI-110"},"id":"SE","arcs":[[-530,-233,532,533,-459,-515,-362]]},{"type":"Polygon","properties":{"name":"Mirna Pec","fips":"SI00","scalerank":10,"country":"SVN","latitude":45.8487,"longitude":15.0911,"type":"Opcine","iso":"SI-170"},"id":"MP","arcs":[[-245,534,535]]},{"type":"Polygon","properties":{"name":"Trebnje","fips":"SID4","scalerank":10,"country":"SVN","latitude":45.9382,"longitude":15.0537,"type":"Opcine","iso":"SI-130"},"id":"TR","arcs":[[-536,536,-494,-503,-460,-534,-246]]},{"type":"Polygon","properties":{"name":"Žužemberk","fips":"SI00","scalerank":10,"country":"SVN","latitude":45.8184,"longitude":14.9443,"type":"Opcine","iso":"SI-193"},"id":"ZU","arcs":[[-535,-244,537,-259,-510,-495,-537]]},{"type":"Polygon","properties":{"name":"Turnišče","fips":"SID6","scalerank":10,"country":"SVN","latitude":46.6089,"longitude":16.3308,"type":"Opcine","iso":"SI-132"},"id":"TU","arcs":[[-28,538,-176,539,-7,-31]]},{"type":"Polygon","properties":{"name":"Radenci","fips":"SIA1","scalerank":10,"country":"SVN","latitude":46.6266,"longitude":16.0594,"type":"Opcine","iso":"SI-100"},"id":"RD","arcs":[[-93,-90,540,541]]},{"type":"Polygon","properties":{"name":"Sveti Jurij","fips":"SID1","scalerank":10,"country":"SVN","latitude":46.5629,"longitude":16.0294,"type":"Opcine","iso":"SI-116"},"id":"SJ","arcs":[[-94,-542,542,-182,543,-394,-386]]},{"type":"Polygon","properties":{"name":"Velika Polana","fips":"SI00","scalerank":10,"country":"SVN","latitude":46.5796,"longitude":16.363,"type":"Opcine","iso":"SI-187"},"id":"VP","arcs":[[-27,-177,-539]]},{"type":"Polygon","properties":{"name":"Beltinci","fips":"SI02","scalerank":10,"country":"SVN","latitude":46.6086,"longitude":16.2307,"type":"Opcine","iso":"SI-002"},"id":"BE","arcs":[[-392,-8,-540,544,-174,-185,545]]},{"type":"Polygon","properties":{"name":"Veržej","fips":"SI00","scalerank":10,"country":"SVN","latitude":46.5804,"longitude":16.1766,"type":"Opcine","iso":"SI-188"},"id":"VE","arcs":[[-546,-184,546]]},{"type":"Polygon","properties":{"name":"Odranci","fips":"SI86","scalerank":10,"country":"SVN","latitude":46.5874,"longitude":16.28,"type":"Opcine","iso":"SI-086"},"id":"OD","arcs":[[-545,-175]]},{"type":"Polygon","properties":{"name":"Grosuplje","fips":"SI32","scalerank":10,"country":"SVN","latitude":45.9421,"longitude":14.6714,"type":"Opcine","iso":"SI-032"},"id":"GR","arcs":[[-497,-512,-473,547,-498]]},{"type":"Polygon","properties":{"name":"Škofljica","fips":"SIC1","scalerank":10,"country":"SVN","latitude":45.9583,"longitude":14.5747,"type":"Opcine","iso":"SI-123"},"id":"SK","arcs":[[-472,-504,-499,-548]]},{"type":"Polygon","properties":{"name":"Hrastnik","fips":"SI34","scalerank":10,"country":"SVN","latitude":46.1289,"longitude":15.1268,"type":"Opcine","iso":"SI-034"},"id":"HR","arcs":[[-514,548,-364]]},{"type":"Polygon","properties":{"name":"Žalec","fips":"SIN5","scalerank":10,"country":"SVN","latitude":46.2587,"longitude":15.1651,"type":"Statisticna Regije","iso":"SI-190"},"id":"SA","arcs":[[-487,-365,549,-506,-430,-428,-484]]},{"type":"Polygon","properties":{"name":"Trbovlje","fips":"SI34","scalerank":10,"country":"SVN","latitude":46.078,"longitude":15.041,"type":"Statisticna Regije","iso":"SI-129"},"id":"ZS","arcs":[[-513,-457,-455,550,-507,-550,-549]]},{"type":"Polygon","properties":{"name":"Braslovce","fips":"SI00","scalerank":10,"country":"SVN","latitude":46.2889,"longitude":15.0327,"type":"Opcine","iso":"SI-151"},"id":"BR","arcs":[[-423,-488,-436,-434,-432,-509,551]]},{"type":"Polygon","properties":{"name":"Tabor","fips":"SI00","scalerank":10,"country":"SVN","latitude":46.2258,"longitude":15.0116,"type":"Opcine","iso":"SI-184"},"id":"TA","arcs":[[-424,-552,-508,-551,-454]]},{"type":"Polygon","properties":{"name":"Krsko","fips":null,"scalerank":10,"country":"SVN","latitude":46.0073,"longitude":15.5816,"type":"Opcine","iso":"SI-054"},"arcs":[[-236,-531]]},{"type":"Polygon","properties":{"name":"Hajdina","fips":"SI00","scalerank":10,"country":"SVN","latitude":46.4161,"longitude":15.8358,"type":"Opcine","iso":"SI-159"},"id":"HA","arcs":[[-420,552,-203,553]]},{"type":"Polygon","properties":{"name":"Ptuj","fips":"SIK7","scalerank":10,"country":"SVN","latitude":46.4273,"longitude":15.8673,"type":"Opcine","iso":"SI-096"},"id":"PT","arcs":[[-295,-415,554,555,556,-204,-553,-419,-280]]},{"type":"Polygon","properties":{"name":"Majšperk","fips":"SIJ1","scalerank":10,"country":"SVN","latitude":46.3148,"longitude":15.7455,"type":"Opcine","iso":"SI-069"},"id":"MJ","arcs":[[-213,-218,557,558,-201,-210]]},{"type":"Polygon","properties":{"name":"Slovenska Bistrica","fips":"SIL8","scalerank":10,"country":"SVN","latitude":46.4241,"longitude":15.5283,"type":"Opcine","iso":"SI-113"},"id":"SB","arcs":[[-518,-522,-449,-298,-370,-287,-418,559,-558,-217,-532]]},{"type":"Polygon","properties":{"name":"Markovci","fips":"SI00","scalerank":10,"country":"SVN","latitude":46.3928,"longitude":15.9513,"type":"Opcine","iso":"SI-168"},"id":"MK","arcs":[[-205,-557,560,-196]]},{"type":"Polygon","properties":{"name":"Kidricevo","fips":"SI45","scalerank":10,"country":"SVN","latitude":46.3982,"longitude":15.7544,"type":"Opcine","iso":"SI-045"},"id":"KI","arcs":[[-417,-421,-554,-202,-559,-560]]},{"type":"Polygon","properties":{"name":"Dornava","fips":"SI24","scalerank":10,"country":"SVN","latitude":46.4406,"longitude":15.9915,"type":"Opcine","iso":"SI-024"},"id":"DO","arcs":[[-197,-561,-556,561,-190]]},{"type":"Polygon","properties":{"name":"Križevci","fips":"SI00","scalerank":10,"country":"SVN","latitude":46.5723,"longitude":16.1282,"type":"Opcine","iso":"SI-166"},"id":"KR","arcs":[[-393,-547,-183,-543,-541]]},{"type":"Polygon","properties":{"name":"Juršinci","fips":"SI42","scalerank":10,"country":"SVN","latitude":46.4841,"longitude":15.9822,"type":"Opcine","iso":"SI-042"},"id":"DO","arcs":[[-395,-544,-191,-562,-555,-414]]},{"type":"Polygon","properties":{"name":"Semic","fips":"SIB1","scalerank":10,"country":"SVN","latitude":45.6477,"longitude":15.161,"type":"Opcine","iso":"SI-109"},"id":"SM","arcs":[[-242,-250,-253,-261,562]]},{"type":"Polygon","properties":{"name":"Dolenjske Toplice","fips":"SI00","scalerank":10,"country":"SVN","latitude":45.7205,"longitude":15.048,"type":"Statisticna Regije","iso":"SI-157"},"arcs":[[-243,-563,-260,-538]]},{"type":"Polygon","properties":{"name":"Sodražica","fips":"SI00","scalerank":10,"country":"SVN","latitude":45.7548,"longitude":14.6157,"type":"Opcine","iso":"SI-179"},"id":"SO","arcs":[[-476,563,-267,-527]]},{"type":"Polygon","properties":{"name":"Ribnica","fips":"SIL1","scalerank":10,"country":"SVN","latitude":45.7413,"longitude":14.7047,"type":"Opcine","iso":"SI-104"},"id":"RI","arcs":[[-475,-511,-257,-268,-564]]},{"type":"Polygon","properties":{"name":"Škocjan","fips":"SIB8","scalerank":10,"country":"SVN","latitude":45.9221,"longitude":15.3006,"type":"Opcine","iso":"SI-121"},"id":"SK","arcs":[[-247,-533,-232,-239]]}]},"places":{"type":"GeometryCollection","name":"SVN_places","crs":{"type":"name","properties":{"name":"urn:ogc:def:crs:OGC:1.3:CRS84"}},"geometries":[{"type":"Point","properties":{"name":"Maribor","scalerank":7,"subregion":"Maribor","latitude":46.540478,"longitude":15.650042},"id":"Q1010","coordinates":[72531,77540]},{"type":"Point","properties":{"name":"Ljubljana","scalerank":4,"subregion":"Osrednjeslovenska","latitude":46.055288,"longitude":14.514969},"id":"Q437","coordinates":[36498,43854]}]}},"arcs":[[[7799,7942],[976,-3364],[669,1209]],[[9444,5787],[967,-805],[-1055,-2459]],[[9356,2523],[-2237,2004],[680,3415]],[[93148,94136],[466,-2513],[1626,-3236]],[[95240,88387],[-290,-834]],[[94950,87553],[-1329,-2747]],[[93621,84806],[-523,189]],[[93098,84995],[-1813,398]],[[91285,85393],[-1181,687],[-789,2366]],[[89315,88446],[1010,3294]],[[90325,91740],[1498,2432]],[[91823,94172],[1325,-36]],[[93516,95386],[-368,-1250]],[[91823,94172],[34,2630],[-2519,2816]],[[89338,99618],[2938,381],[805,-1175]],[[93081,98824],[435,-3438]],[[93081,98824],[1029,-877],[-594,-2561]],[[87775,99495],[1563,123]],[[90325,91740],[-403,3376],[-1951,2486]],[[87971,97602],[-356,248]],[[87615,97850],[160,1645]],[[87615,97850],[-2197,-1177]],[[85418,96673],[-97,2083]],[[85321,98756],[2454,739]],[[95458,84196],[1841,-2218],[2241,-4137],[459,-2992],[-3461,2622],[-2095,302]],[[94443,77773],[-182,879]],[[94261,78652],[1999,1506],[-605,1500]],[[95655,81658],[-971,1080]],[[94684,82738],[774,1458]],[[96421,86054],[-963,-1858]],[[94684,82738],[-1063,2068]],[[94950,87553],[1471,-1499]],[[95240,88387],[1258,-656],[-77,-1677]],[[10177,72234],[480,3867],[2577,-831],[3451,278],[2904,-2074],[1035,43]],[[20624,73517],[-717,-2619]],[[19907,70898],[-4585,-4414]],[[15322,66484],[-197,66]],[[15125,66550],[-966,2138],[-2315,1895],[-1630,-592],[-37,2243]],[[964,61311],[1221,3273],[3045,2393],[2228,3771],[1860,172],[859,1314]],[[15125,66550],[-2464,-2576],[-1166,-3014]],[[11495,60960],[-1773,-470],[-3854,495],[-1107,-1722],[-3797,2048]],[[8321,52633],[-2169,165],[-1552,2074],[-2773,1015],[-403,-1431],[-1424,5715],[964,1140]],[[11495,60960],[295,-1080]],[[11790,59880],[-1630,-3618],[-1621,-441],[-218,-3188]],[[8756,51916],[-435,717]],[[11790,59880],[2674,-3076],[2351,-820],[3240,646]],[[20055,56630],[-246,-3104]],[[19809,53526],[-2084,-1657],[-1187,-2131],[685,-4419],[-408,-606]],[[16815,44713],[-1079,-619],[157,-3593]],[[15893,40501],[-1444,2014],[-649,4697],[-986,-142]],[[12814,47070],[-1916,1835],[-1334,3272],[-808,-261]],[[4994,45244],[2979,3453],[783,3219]],[[12814,47070],[-1167,-3035],[-1610,629],[-2460,-3751]],[[7577,40913],[-2583,4331]],[[7577,40913],[-102,-1968]],[[7475,38945],[-2898,-1191],[-1513,2706],[1930,4784]],[[7938,36261],[-463,2684]],[[15893,40501],[-433,-343]],[[15460,40158],[-3793,-6679],[3212,-4884]],[[14879,28595],[-2272,624],[-1690,1424]],[[10917,30643],[-2816,1461],[841,774]],[[8942,32878],[1247,1983],[-2251,1400]],[[7430,33929],[508,2332]],[[8942,32878],[-1512,1051]],[[6632,27451],[-155,3160],[953,3318]],[[10917,30643],[-1240,-2943],[-3045,-249]],[[14879,28595],[1649,-476]],[[16528,28119],[528,-1279]],[[17056,26840],[-5418,-1311],[-1015,-1445]],[[10623,24084],[-3991,3367]],[[16774,14588],[-1119,1083],[-2529,6530],[-2503,1883]],[[17056,26840],[2773,-3139]],[[19829,23701],[-1054,-1738],[355,-2410],[-937,-4348]],[[18193,15205],[-1419,-617]],[[15957,12395],[817,2193]],[[18193,15205],[3849,-2989],[959,1007]],[[23001,13223],[502,-3342],[-585,-3330],[938,-3124]],[[23856,3427],[-1590,505],[-2514,2197]],[[19752,6129],[-1119,2363],[-1326,422],[-1350,3481]],[[19752,6129],[-153,-2541],[-2973,-3588],[-2195,624],[-1922,2121],[-3153,-222]],[[9444,5787],[393,2621]],[[9837,8408],[2470,565],[-1307,2800],[2818,-830],[2139,1452]],[[85418,96673],[242,-3602]],[[85660,93071],[-256,-571]],[[85404,92500],[-2685,1326]],[[82719,93826],[527,3816],[2075,1114]],[[84171,86581],[-1102,3322],[-350,3923]],[[85404,92500],[-69,-2509],[1744,-2043]],[[87079,87948],[64,-4618]],[[87143,83330],[-2177,2698]],[[84966,86028],[-795,553]],[[82612,88237],[1559,-1656]],[[84966,86028],[-1080,-2075],[187,-2718]],[[84073,81235],[-1122,-537]],[[82951,80698],[-710,156]],[[82241,80854],[-719,569]],[[81522,81423],[-1434,3435]],[[80088,84858],[15,1174]],[[80103,86032],[1383,166],[1126,2039]],[[76803,89462],[2982,592],[2827,-1817]],[[80103,86032],[-2674,2567]],[[77429,88599],[-626,863]],[[71633,87100],[452,2735],[2943,-1012],[1775,639]],[[77429,88599],[-133,-3672]],[[77296,84927],[-936,-876]],[[76360,84051],[-1272,2713],[-1240,213],[-1453,-2336]],[[72395,84641],[-762,2459]],[[68413,84986],[1493,1946],[1727,168]],[[72395,84641],[44,-3379]],[[72439,81262],[-1788,2520],[-2238,1204]],[[68210,83932],[203,1054]],[[72439,81262],[2334,-1721],[1080,277]],[[75853,79818],[-30,-1827]],[[75823,77991],[-700,-2931]],[[75123,75060],[-1117,513]],[[74006,75573],[-4213,-158]],[[69793,75415],[-108,3628]],[[69685,79043],[-1475,4889]],[[65717,83561],[865,-871],[1628,1242]],[[69685,79043],[-2463,-1918],[-735,1078]],[[66487,78203],[-517,2408]],[[65970,80611],[-253,2950]],[[57373,84544],[5087,154]],[[62460,84698],[-115,-1691],[-1867,-3238]],[[60478,79769],[-2256,-3012]],[[58222,76757],[-754,928],[1143,4102],[-891,1236]],[[57720,83023],[-347,1521]],[[57720,83023],[-1832,-1264]],[[55888,81759],[-1271,3232]],[[54617,84991],[2756,-447]],[[49340,82715],[1513,-1025],[1182,2541],[2582,760]],[[55888,81759],[-710,-2167]],[[55178,79592],[-1370,-1981],[-1580,621]],[[52228,78232],[-95,1284],[-2793,3199]],[[62460,84698],[1757,139],[1500,-1276]],[[65970,80611],[-2137,279],[-1690,-5421]],[[62143,75469],[-69,1862],[-1596,2438]],[[48532,82035],[808,680]],[[52228,78232],[-380,-3100],[-1044,-1134]],[[50804,73998],[-1320,1064]],[[49484,75062],[718,3636],[-1670,3337]],[[46007,78294],[1139,3457],[1386,284]],[[49484,75062],[-778,-23]],[[48706,75039],[-1148,3297],[-1551,-42]],[[45440,76077],[567,2217]],[[48706,75039],[-3266,1038]],[[41500,71938],[1180,2272],[1625,262],[1135,1605]],[[50804,73998],[-295,-2056]],[[50509,71942],[-2051,-2520]],[[48458,69422],[-2782,109]],[[45676,69531],[-1572,-254]],[[44104,69277],[-2604,2661]],[[27843,70442],[5211,76],[973,-1420]],[[34027,69098],[-1006,-4668]],[[33021,64430],[-1458,-58],[-1055,-2045]],[[30508,62327],[-1877,332]],[[28631,62659],[-590,1889],[-330,4992]],[[27711,69540],[132,902]],[[24846,70594],[2997,-152]],[[27711,69540],[-1512,-2660],[-1685,-1026]],[[24514,65854],[-305,2407]],[[24209,68261],[637,2333]],[[20624,73517],[2098,-457],[2124,-2466]],[[24209,68261],[-834,-226],[-3468,2863]],[[37994,67213],[890,2964],[2616,1761]],[[44104,69277],[-369,-1984],[-2336,-1965],[-935,124]],[[40464,65452],[-2260,169]],[[38204,65621],[-210,1592]],[[34027,69098],[2065,-37],[1211,-2757],[691,909]],[[38204,65621],[-1040,-589]],[[37164,65032],[-3030,305],[-1113,-907]],[[94443,77773],[-940,-892]],[[93503,76881],[-2005,1588]],[[91498,78469],[586,1062]],[[92084,79531],[1097,1957]],[[93181,81488],[888,-938]],[[94069,80550],[192,-1898]],[[93503,76881],[-290,-271]],[[93213,76610],[-1289,-938]],[[91924,75672],[-849,-1991]],[[91075,73681],[-1026,-793],[-5763,2626]],[[84286,75514],[803,2359],[1020,-237]],[[86109,77636],[2423,-1141],[719,2404]],[[89251,78899],[1271,1672]],[[90522,80571],[976,-2102]],[[93213,76610],[-1289,-938]],[[91075,73681],[446,-4968],[1017,-2577],[-2808,-447],[-1913,1616],[-1362,-1387]],[[86455,65918],[-410,790]],[[86045,66708],[-1576,3322]],[[84469,70030],[442,2522],[-605,1532]],[[84306,74084],[-20,1430]],[[86455,65918],[-974,309],[-256,-4221]],[[85225,62006],[-584,3290],[1404,1412]],[[85225,62006],[-1785,-1814]],[[83440,60192],[-774,4950]],[[82666,65142],[925,773],[-487,3028]],[[83104,68943],[1365,1087]],[[83440,60192],[-2374,-1234]],[[81066,58958],[-267,4533],[-2321,490],[-389,-2547]],[[78089,61434],[-763,839]],[[77326,62273],[44,2386]],[[77370,64659],[920,2766]],[[78290,67425],[1208,-748]],[[79498,66677],[1097,666]],[[80595,67343],[2071,-2201]],[[81066,58958],[-1206,-937]],[[79860,58021],[-1771,3413]],[[79860,58021],[-2584,-745]],[[77276,57276],[-1320,932]],[[75956,58208],[1370,4065]],[[77276,57276],[-1579,-2627],[-2279,256]],[[73418,54905],[2011,3583]],[[75429,58488],[527,-280]],[[73418,54905],[-1632,-1336]],[[71786,53569],[-422,628]],[[71364,54197],[-1507,4819]],[[69857,59016],[700,721],[3079,-693]],[[73636,59044],[1793,-556]],[[71786,53569],[-1162,-3925],[1068,-4323]],[[71692,45321],[-510,-732]],[[71182,44589],[-728,2965],[-1542,1513]],[[68912,49067],[300,1722]],[[69212,50789],[2152,3408]],[[71692,45321],[2199,-2415]],[[73891,42906],[-798,-1058]],[[73093,41848],[-1527,1005],[-384,1736]],[[73891,42906],[-593,-3365],[43,-4721],[-512,-2523],[210,-3968],[-1269,-796],[-2423,242]],[[69347,27775],[-1269,3503],[1483,2365],[863,5955]],[[70424,39598],[2669,2250]],[[69347,27775],[-3126,-594],[-683,-2739]],[[65538,24442],[-911,2377],[-410,4628],[-861,497]],[[63356,31944],[64,3543]],[[63420,35487],[1940,4111],[-182,4813]],[[65178,44411],[2354,304]],[[67532,44715],[1774,-1636],[349,-1875]],[[69655,41204],[769,-1606]],[[65538,24442],[-3134,-1611]],[[62404,22831],[-1896,6207],[1030,1568]],[[61538,30606],[1818,1338]],[[62404,22831],[-2575,-2690]],[[59829,20141],[-691,-763]],[[59138,19378],[-1186,-1270],[-2794,-2]],[[55158,18106],[676,1555],[-2095,5156]],[[53739,24817],[888,1740]],[[54627,26557],[1866,4664]],[[56493,31221],[2064,34],[912,3509]],[[59469,34764],[1585,-1794],[484,-2364]],[[59829,20141],[1747,-2887],[820,861],[1365,-3079],[-2425,-1008],[-915,-1668],[432,-2095]],[[60853,10265],[-1814,2554]],[[59039,12819],[1882,2906],[-1783,3653]],[[60853,10265],[916,-4553],[1598,-1658],[-1503,-2188],[-4121,-1730],[-1427,309],[-2321,3047]],[[53995,3492],[1488,3221],[-1058,-402],[664,2506],[-856,3563]],[[54233,12380],[1891,-390],[1295,1464],[1620,-635]],[[53995,3492],[-2819,1235]],[[51176,4727],[-1062,2339],[-2335,339],[-1690,-2016],[-2472,3632],[-494,3014]],[[43123,12035],[258,3471]],[[43381,15506],[1235,-355],[1641,5970],[-842,1059]],[[45415,22180],[566,1011]],[[45981,23191],[2605,-871],[971,1672],[1769,-201]],[[51326,23791],[-320,-3800],[2083,-5572]],[[53089,14419],[1144,-2039]],[[51176,4727],[-2314,1577],[-725,-3100],[-2681,-319],[-508,1955],[-3577,2820],[-152,2515]],[[41219,10175],[1904,1860]],[[41219,10175],[-2216,3193],[-63,3276],[-724,61]],[[38216,16705],[-1003,4872]],[[37213,21577],[1227,63]],[[38440,21640],[2226,-1932]],[[40666,19708],[2695,-2790],[20,-1412]],[[38216,16705],[-2463,-5907]],[[35753,10798],[-1669,109],[-403,4395]],[[33681,15302],[-1272,4406]],[[32409,19708],[2927,2802]],[[35336,22510],[1877,-933]],[[35753,10798],[-717,-3719],[-3051,-3315],[-1461,-205],[-3431,1546],[-3237,-1678]],[[23001,13223],[25,705]],[[23026,13928],[3286,366],[4862,2963],[2507,-1955]],[[7799,7942],[2038,466]],[[76360,84051],[-507,-4233]],[[75823,77991],[989,-140],[996,-3307]],[[77808,74544],[-1104,-2054]],[[76704,72490],[-1537,2464]],[[75167,74954],[-44,106]],[[75167,74954],[-512,-3001]],[[74655,71953],[-236,345]],[[74419,72298],[-413,3275]],[[74419,72298],[-1611,-356],[-3586,1622]],[[69222,73564],[-202,987]],[[69020,74551],[773,864]],[[77296,84927],[1990,-2494]],[[79286,82433],[1122,-1851],[1114,841]],[[82241,80854],[-1152,-1589],[281,-1625]],[[81370,77640],[-138,-524]],[[81232,77116],[-1016,836],[-1195,-2784]],[[79021,75168],[-986,-789]],[[78035,74379],[-227,165]],[[80088,84858],[-802,-2425]],[[66487,78203],[-1634,-5021]],[[64853,73182],[-2321,-22]],[[62532,73160],[-615,332]],[[61917,73492],[-113,714]],[[61804,74206],[339,1263]],[[61804,74206],[-2838,312],[-857,969]],[[58109,75487],[-221,438]],[[57888,75925],[334,832]],[[55178,79592],[1266,-2532],[1444,-1135]],[[58109,75487],[-2290,-6173]],[[55819,69314],[-1089,311]],[[54730,69625],[-4221,2317]],[[34982,60264],[-1587,-190]],[[33395,60074],[-1458,317],[1084,4039]],[[37164,65032],[255,-3356]],[[37419,61676],[-2437,-1412]],[[34982,60264],[-720,-4754],[582,-1182]],[[34844,54328],[-133,-895]],[[34711,53433],[-1655,-104]],[[33056,53329],[-745,2275],[1084,4470]],[[37419,61676],[824,-3507],[-553,-1268]],[[37690,56901],[-1645,-2801]],[[36045,54100],[-1201,228]],[[40464,65452],[1449,-5550],[640,34]],[[42553,59936],[1502,-2262],[3232,-103]],[[47287,57571],[955,-855]],[[48242,56716],[799,-2083]],[[49041,54633],[-355,-129]],[[48686,54504],[-4769,-881],[-2083,221]],[[41834,53844],[-2951,-698]],[[38883,53146],[-236,621]],[[38647,53767],[-957,3134]],[[32652,51148],[404,2181]],[[34711,53433],[335,-3457]],[[35046,49976],[-1542,-1806],[-384,-2401]],[[33120,45769],[-2651,1073]],[[30469,46842],[405,2519],[1778,1787]],[[32652,51148],[-902,2446],[-2843,1059],[-866,2231]],[[28041,56884],[-2605,2663]],[[25436,59547],[398,197]],[[25834,59744],[3034,-642]],[[28868,59102],[1601,-1400],[39,4625]],[[30469,46842],[-1833,567],[-1783,-1274]],[[26853,46135],[-339,3671],[710,2070],[-1933,594]],[[25291,52470],[2174,2172],[576,2242]],[[25291,52470],[-2802,-1480]],[[22489,50990],[-2705,1569],[25,967]],[[20055,56630],[2804,323],[802,2594],[1775,0]],[[15322,66484],[3148,-1488],[3063,-3094],[2144,-592]],[[23677,61310],[2192,-551],[-35,-1015]],[[28868,59102],[-237,3557]],[[23677,61310],[1304,3134],[-467,1410]],[[54730,69625],[-720,-5192]],[[54010,64433],[-2118,1773]],[[51892,66206],[-202,1194],[-2900,-36]],[[48790,67364],[-332,2058]],[[48790,67364],[-1119,-5441]],[[47671,61923],[-2735,1595]],[[44936,63518],[829,3470],[-89,2543]],[[44936,63518],[-2383,-3582]],[[48686,54504],[-420,-2180],[-1817,-1180]],[[46449,51144],[-1788,561],[-2802,-1695]],[[41859,50010],[-1026,1216],[1001,2618]],[[63671,49440],[374,-1913]],[[64045,47527],[-453,-2504]],[[63592,45023],[-2423,-908],[-740,1430],[-2074,282],[-49,-1593]],[[58306,44234],[-1222,2203]],[[57084,46437],[794,1647],[-2385,4664]],[[55493,52748],[3271,1031]],[[58764,53779],[2700,-647]],[[61464,53132],[-241,-1629],[2206,1101]],[[63429,52604],[242,-3164]],[[63671,49440],[1295,1133],[906,-1632],[-1827,-1414]],[[69020,74551],[-1237,129],[-2930,-1498]],[[36045,54100],[1178,-1991]],[[37223,52109],[-758,-1988]],[[36465,50121],[-1419,-145]],[[38647,53767],[-1424,-1658]],[[38883,53146],[-10,-2877]],[[38873,50269],[-2197,-1062]],[[36676,49207],[-211,914]],[[27898,41421],[44,-1302],[3065,870]],[[31007,40989],[1373,1264]],[[32380,42253],[385,-1481],[-1010,-3154]],[[31755,37618],[-1011,-1539],[1350,-4985]],[[32094,31094],[-2447,988]],[[29647,32082],[-1911,4072],[-784,563],[177,2548],[-935,2465]],[[26194,41730],[1704,-309]],[[27898,41421],[271,1353],[2241,204],[597,-1989]],[[82951,80698],[266,-2728]],[[83217,77970],[-1847,-330]],[[38873,50269],[-650,-2770]],[[38223,47499],[-1547,1708]],[[89315,88446],[-2236,-498]],[[85660,93071],[1537,222],[774,4309]],[[91285,85393],[-2540,-3312]],[[88745,82081],[-1602,1249]],[[83217,77970],[659,-1546]],[[83876,76424],[-1911,-2585]],[[81965,73839],[-590,1175]],[[81375,75014],[-143,2102]],[[33764,42031],[918,-1643],[-401,-2171]],[[34281,38217],[691,-4729],[738,-1743]],[[35710,31745],[-2305,-693]],[[33405,31052],[-88,3592],[-1562,2974]],[[32380,42253],[1384,-222]],[[26194,41730],[-114,918]],[[26080,42648],[773,3487]],[[33120,45769],[994,-2267],[-350,-1471]],[[26080,42648],[-1807,2447],[-2528,829],[-640,-829]],[[21105,45095],[-74,1977],[1458,3918]],[[29647,32082],[-720,-2750]],[[28927,29332],[-3093,2040],[-1684,-465]],[[24150,30907],[-163,691]],[[23987,31598],[-641,2445],[251,3840],[956,2533]],[[24553,40416],[1527,2232]],[[81375,75014],[-2354,154]],[[81965,73839],[-93,-461]],[[81872,73378],[-1390,-1861],[-2447,2862]],[[74655,71953],[556,-2199]],[[75211,69754],[-1491,-1369]],[[73720,68385],[-4139,4171],[-359,1008]],[[76704,72490],[1178,-899]],[[77882,71591],[-576,-1611]],[[77306,69980],[-2095,-226]],[[48242,56716],[489,1578],[2221,1428]],[[50952,59722],[1260,-1795]],[[52212,57927],[-1245,-4180]],[[50967,53747],[-1926,886]],[[55819,69314],[2118,-2330]],[[57937,66984],[197,-4219]],[[58134,62765],[-1601,565],[-738,-1308]],[[55795,62022],[-1785,2411]],[[55795,62022],[-598,-4302]],[[55197,57720],[-285,185]],[[54912,57905],[-1390,3443]],[[53522,61348],[488,3085]],[[53522,61348],[-1359,2079]],[[52163,63427],[-271,2779]],[[52163,63427],[-1201,-2379]],[[50962,61048],[-725,1437],[-2246,-1571]],[[47991,60914],[-320,1009]],[[62409,65371],[-2015,-12]],[[60394,65359],[-1118,1908]],[[59276,67267],[1542,3764],[1389,314]],[[62207,71345],[1065,-3722],[-863,-2252]],[[62409,65371],[1193,-2168]],[[63602,63203],[246,-1572]],[[63848,61631],[-571,-3527]],[[63277,58104],[-2118,1364],[-1641,2802]],[[59518,62270],[876,3089]],[[62207,71345],[-290,2147]],[[62532,73160],[553,-1723],[2231,-1941]],[[65316,69496],[79,-3705]],[[65395,65791],[-1793,-2588]],[[59276,67267],[-1339,-283]],[[46650,49526],[-201,1618]],[[50967,53747],[925,84]],[[51892,53831],[-227,-1787],[1223,-3286],[-996,-474]],[[51892,48284],[-2812,-1820],[-553,2208],[-1877,854]],[[51892,48284],[79,-4355],[2193,579]],[[54164,44508],[718,-1695]],[[54882,42813],[699,-2506]],[[55581,40307],[-2398,-253],[-522,-2106],[-2211,337]],[[50450,38285],[-590,3001],[-2229,3592],[-1900,-718],[-2212,411]],[[43519,44571],[-755,951]],[[42764,45522],[1321,1449]],[[44085,46971],[2565,2555]],[[47991,60914],[-704,-3343]],[[35710,31745],[474,-2784]],[[36184,28961],[-1522,-1636],[-335,-1941],[1009,-2874]],[[32409,19708],[-1999,3236]],[[30410,22944],[-1705,1543],[222,4845]],[[32094,31094],[1311,-42]],[[35710,31745],[2054,-904],[966,1973]],[[38730,32814],[497,875]],[[39227,33689],[1247,-2368]],[[40474,31321],[-44,-1765],[1552,-2178]],[[41982,27378],[-3198,-1704]],[[38784,25674],[-723,-233]],[[38061,25441],[-1877,3520]],[[30410,22944],[-2118,-1900],[-3891,-1605],[-1287,740]],[[23114,20179],[-1783,3244]],[[21331,23423],[681,3306],[-400,1966]],[[21612,28695],[2538,2212]],[[23026,13928],[-891,4319],[979,1932]],[[59518,62270],[-444,-219]],[[59074,62051],[-940,714]],[[63277,58104],[-607,-2186]],[[62670,55918],[-1206,-2786]],[[58764,53779],[310,8272]],[[50962,61048],[-10,-1326]],[[41859,50010],[108,-1851]],[[41967,48159],[-2951,-1435]],[[39016,46724],[-793,775]],[[43647,39887],[300,334]],[[43947,40221],[4059,-59],[1581,-2716]],[[49587,37446],[-1222,-1504],[-369,-4983]],[[47996,30959],[-847,-1101],[168,-3185],[-1626,-715]],[[45691,25958],[-1454,2766],[-221,3189]],[[44016,31913],[-591,4424],[-582,388],[804,3162]],[[43647,39887],[-966,903],[-1557,-1482],[-1413,477]],[[39711,39785],[-927,1301],[-1635,-164],[-69,-1585]],[[37080,39337],[-635,541],[-2164,-1661]],[[39016,46724],[1232,-1371],[2516,169]],[[43519,44571],[428,-4350]],[[50450,38285],[-863,-839]],[[37080,39337],[659,-1238],[89,-3559],[902,-1726]],[[41967,48159],[2118,-1188]],[[55197,57720],[1070,-1320],[-848,-3380]],[[55419,53020],[-2093,417]],[[53326,53437],[192,2276]],[[53518,55713],[1394,2192]],[[45691,25958],[290,-2767]],[[45415,22180],[-3433,5198]],[[40474,31321],[999,1066],[2543,-474]],[[54164,44508],[1107,2001]],[[55271,46509],[1813,-72]],[[58306,44234],[596,-2171],[-4020,750]],[[62670,55918],[759,-3314]],[[65395,65791],[2467,-813]],[[67862,64978],[1207,-1029],[365,-4650]],[[69434,59299],[-714,-77]],[[68720,59222],[-4872,2409]],[[24553,40416],[-873,478],[-2575,4201]],[[65316,69496],[2137,-2062],[409,-2456]],[[21105,45095],[-2079,949],[-1305,-1774],[-906,443]],[[21612,28695],[-1882,2831],[-960,-280],[-2242,-3127]],[[15460,40158],[458,-1195],[5590,-6572],[2479,-793]],[[19829,23701],[1502,-278]],[[38061,25441],[379,-3801]],[[68720,59222],[-2607,-3509],[1134,-4178],[1965,-746]],[[68912,49067],[-1892,-1954],[512,-2398]],[[65178,44411],[-1586,612]],[[70424,39598],[635,1683],[-1404,-77]],[[69434,59299],[423,-283]],[[63420,35487],[-1459,1553],[-2492,-2276]],[[59469,34764],[-1837,1874],[-2051,3669]],[[54627,26557],[-1547,2411]],[[53080,28968],[14,1395],[2039,2349],[1360,-1491]],[[53080,28968],[-2487,498],[-937,1565],[-1660,-72]],[[53739,24817],[-2413,-1026]],[[95655,81658],[-1586,-1108]],[[93181,81488],[-83,3507]],[[87143,83330],[-985,-2133]],[[86158,81197],[-2085,38]],[[86158,81197],[-49,-3561]],[[84286,75514],[-410,910]],[[93181,81488],[-1097,-1957]],[[90522,80571],[-1777,1510]],[[89251,78899],[-1280,2989],[774,193]],[[39227,33689],[-315,4948],[799,1148]],[[55271,46509],[-1311,2985],[1533,3254]],[[55493,52748],[-74,272]],[[51892,53831],[1434,-394]],[[53518,55713],[-1306,2214]],[[77882,71591],[1616,-4914]],[[78290,67425],[-984,2555]],[[81872,73378],[280,-2053]],[[82152,71325],[-320,-2113]],[[81832,69212],[-1237,-1869]],[[73636,59044],[1103,2587],[-113,2275],[-1119,1638]],[[73507,65544],[3863,-885]],[[73720,68385],[-213,-2841]],[[81832,69212],[1272,-269]],[[82152,71325],[765,-323],[1389,3082]],[[53089,14419],[827,3071],[1242,616]],[[38784,25674],[2799,-1790],[-917,-4176]]],"transform":{"scale":[0.00003150071783717819,0.000014403399243992706],"translate":[13.365261271000094,45.42363678]}}