{"type":"Topology","objects":{"subunits":{"type":"GeometryCollection","name":"USA_subunits","crs":{"type":"name","properties":{"name":"urn:ogc:def:crs:OGC:1.3:CRS84"}},"geometries":[{"type":"MultiPolygon","properties":{"name":"Washington","fips":"US53","scalerank":2,"country":"USA","latitude":47.4865,"longitude":-120.361,"type":"State","iso":"US-WA"},"id":"WA","arcs":[[[0,1,2,3,4,5,6,7,8,9,10,11,12,13,14,15,16,17,18,19,20,21,22,23,24,25,26,27,28,29,30,31,32,33,34,35]],[[36]],[[37]],[[38,39,40,41,42,43]],[[44]],[[45]]]},{"type":"Polygon","properties":{"name":"Idaho","fips":"US16","scalerank":2,"country":"USA","latitude":43.7825,"longitude":-114.133,"type":"State","iso":"US-ID"},"id":"ID","arcs":[[46,47,48,49,50,51,-1]]},{"type":"Polygon","properties":{"name":"Montana","fips":"US30","scalerank":2,"country":"USA","latitude":46.9965,"longitude":-110.044,"type":"State","iso":"US-MT"},"id":"MT","arcs":[[52,53,54,55,-48]]},{"type":"Polygon","properties":{"name":"North Dakota","fips":"US38","scalerank":2,"country":"USA","latitude":47.4675,"longitude":-100.302,"type":"State","iso":"US-ND"},"id":"ND","arcs":[[56,57,58,-54]]},{"type":"Polygon","properties":{"name":"Minnesota","fips":"US27","scalerank":2,"country":"USA","latitude":46.0592,"longitude":-93.364,"type":"State","iso":"US-MN"},"id":"MN","arcs":[[59,60,61,62,-58]]},{"type":"MultiPolygon","properties":{"name":"Michigan","fips":"US26","scalerank":2,"country":"USA","latitude":43.4343,"longitude":-84.9479,"type":"State","iso":"US-MI"},"id":"MI","arcs":[[[63,64]],[[65,66,67]],[[68]],[[69]],[[70]],[[71]],[[72]],[[73]]]},{"type":"Polygon","properties":{"name":"Ohio","fips":"US39","scalerank":2,"country":"USA","latitude":40.0924,"longitude":-82.6719,"type":"State","iso":"US-OH"},"id":"OH","arcs":[[74,75,76,77,-66,78]]},{"type":"Polygon","properties":{"name":"Pennsylvania","fips":"US42","scalerank":2,"country":"USA","latitude":40.8601,"longitude":-77.6094,"type":"State","iso":"US-PA"},"id":"PA","arcs":[[79,80,81,82,83,84,-75,85]]},{"type":"MultiPolygon","properties":{"name":"New York","fips":"US36","scalerank":2,"country":"USA","latitude":43.1988,"longitude":-75.3242,"type":"State","iso":"US-NY"},"id":"NY","arcs":[[[86,87,88,89,90,91,92,-80,93]],[[94]],[[95,96,97,98,99,100,101,102,103,104,105,106,107,108,109]],[[110]]]},{"type":"Polygon","properties":{"name":"Vermont","fips":"US50","scalerank":2,"country":"USA","latitude":44.0886,"longitude":-72.7317,"type":"State","iso":"US-VT"},"id":"VT","arcs":[[111,112,113,-87]]},{"type":"Polygon","properties":{"name":"New Hampshire","fips":"US33","scalerank":2,"country":"USA","latitude":43.5993,"longitude":-71.6301,"type":"State","iso":"US-NH"},"id":"NH","arcs":[[114,115,116,117,-113]]},{"type":"MultiPolygon","properties":{"name":"Maine","fips":"US23","scalerank":2,"country":"USA","latitude":45.148,"longitude":-69.1973,"type":"State","iso":"US-ME"},"id":"ME","arcs":[[[118,119,120,121,122,123,124,125,126,127,128,129,130,131,132,133,134,135,136,137,138,139,140,-116]],[[141]],[[142,143,144]]]},{"type":"Polygon","properties":{"name":"Arizona","fips":"US04","scalerank":2,"country":"USA","latitude":34.3046,"longitude":-111.935,"type":"State","iso":"US-AZ"},"id":"AZ","arcs":[[145,146,147,148,149]]},{"type":"MultiPolygon","properties":{"name":"California","fips":"US06","scalerank":2,"country":"USA","latitude":36.7496,"longitude":-119.591,"type":"State","iso":"US-CA"},"id":"CA","arcs":[[[150,151,152,153,154,155,156,157,158,159,160,161,162,163,164,165,166,167,168,169,170,171,172,173,174,175,176,177,178,179,180,181,182,183,184,185,186,187,188,189,190,191,192,193,194,195,196,197,198,199,200,201,202,203,204,205,206,207,208,209,210,211,212,-146]],[[213]],[[214]],[[215]],[[216]]]},{"type":"Polygon","properties":{"name":"New Mexico","fips":"US35","scalerank":2,"country":"USA","latitude":34.5002,"longitude":-106.024,"type":"State","iso":"US-NM"},"id":"NM","arcs":[[-149,217,218,219,220]]},{"type":"MultiPolygon","properties":{"name":"Texas","fips":"US48","scalerank":2,"country":"USA","latitude":31.131,"longitude":-98.7607,"type":"State","iso":"US-TX"},"id":"TX","arcs":[[[-220,221,222,223,224,225,226,227,228,229,230,231,232,233,234,235,236,237,238,239,240,241,242,243,244,245,246,247,248,249,250,251,252,253,254]],[[255]],[[256]],[[257]],[[258]]]},{"type":"MultiPolygon","properties":{"name":"Alaska","fips":"US02","scalerank":2,"country":"USA","latitude":65.3609,"longitude":-151.604,"type":"State","iso":"US-AK"},"id":"AK","arcs":[[[259,260,261,262,263,264,265,266,267,268,269,270,271,272,273,274,275,276,277,278,279,280,281,282,283,284,285,286,287,288,289,290,291,292,293,294,295,296,297,298,299,300,301,302,303,304,305,306,307,308,309,310,311,312,313,314,315,316,317,318,319,320,321,322,323,324,325,326,327,328,329,330,331,332,333,334,335,336,337,338,339,340,341,342,343,344,345,346,347,348,349,350,351,352,353,354,355,356,357,358,359,360,361,362,363,364,365,366,367,368,369,370,371,372,373,374,375,376,377,378,379,380,381,382,383,384,385,386,387,388,389,390,391,392,393,394,395,396,397,398,399,400,401,402,403,404,405,406,407,408,409,410,411,412,413,414,415,416,417,418,419,420,421,422,423,424,425,426,427,428,429,430,431,432,433,434,435,436,437,438,439,440,441,442,443,444,445,446,447,448,449,450,451,452,453,454,455,456,457,458,459,460,461,462,463,464,465,466,467,468,469,470,471,472,473,474,475,476,477,478,479,480,481,482,483,484,485,486,487,488,489,490,491,492,493,494,495,496,497,498,499,500,501,502,503,504,505,506,507,508,509,510,511,512,513,514,515,516,517,518,519,520,521,522,523,524,525,526,527,528,529,530,531,532,533,534,535,536,537,538,539,540,541,542,543,544,545,546,547,548,549,550,551,552,553,554,555,556,557,558,559,560,561,562,563,564,565,566,567,568,569,570,571,572,573,574,575,576,577,578,579,580,581,582,583,584,585,586,587,588,589,590,591,592,593,594,595,596,597,598,599,600,601,602,603,604,605,606,607,608,609,610,611,612,613,614,615,616,617,618,619,620,621,622,623,624,625,626,627,628,629,630,631,632,633,634,635,636,637,638,639,640,641,642,643,644,645,646,647,648,649,650,651,652,653,654]],[[655]],[[656]],[[657]],[[658,659,660,661,662,663]],[[664]],[[665]],[[666]],[[667]],[[668]],[[669]],[[670]],[[671]],[[672]],[[673]],[[674,675,676,677,678,679,680,681,682,683,684]],[[685]],[[686,687,688,689,690,691,692]],[[693,694,695,696,697,698,699,700,701,702,703,704,705,706,707,708,709,710,711,712,713,714,715,716]],[[717,718,719,720,721]],[[722,723,724,725,726]],[[727]],[[728]],[[729]],[[730,731,732,733]],[[734,735,736,737,738,739,740,741,742,743,744]],[[745,746,747,748,749,750,751,752]],[[753,754,755]],[[756,757,758,759]],[[760,761,762,763,764,765,766,767,768,769,770]],[[771]],[[772,773,774,775,776,777,778,779,780,781,782,783,784,785,786,787,788,789,790,791,792,793,794,795,796,797,798]],[[799]],[[800]],[[801,802,803,804,805,806,807,808,809,810,811,812,813]],[[814]],[[815,816,817,818,819,820,821,822,823,824,825,826,827]],[[828,829,830,831,832,833,834,835,836,837]],[[838]],[[839]],[[840]],[[841]],[[842]],[[843,844,845,846]],[[847]],[[848]],[[849]],[[850]],[[851]],[[852]],[[853]],[[854]],[[855]],[[856,857,858,859]],[[860]],[[861,862,863,864]],[[865]],[[866,867,868,869]],[[870]],[[871,872,873,874,875,876,877,878]],[[879]],[[880]],[[881,882,883,884,885,886,887,888,889,890,891]],[[892]],[[893,894,895,896,897,898,899,900,901,902,903,904,905,906,907,908]],[[909,910,911,912]],[[913]],[[914]],[[915]],[[916]],[[917]],[[918,919,920]],[[921]],[[922]],[[923,924,925,926,927,928]],[[929]],[[930]],[[931,932,933,934,935,936,937,938,939,940,941]],[[942]],[[943]],[[944,945,946,947,948]],[[949]],[[950]],[[951,952,953,954,955,956,957,958,959,960]],[[961]],[[962,963,964,965,966,967,968,969,970,971,972,973,974,975,976,977]]]},{"type":"MultiPolygon","properties":{"name":"Louisiana","fips":"US22","scalerank":2,"country":"USA","latitude":30.5274,"longitude":-91.9991,"type":"State","iso":"US-LA"},"id":"LA","arcs":[[[978,979,980,981,982,983,984,985,986,987,988,989,990,991,992,993,994,995,996,997,998,999,1000,1001,1002,1003,1004,1005,1006,1007,1008,1009,1010,1011,1012,1013,1014,1015,1016,1017,1018,1019,1020,1021,1022,1023,-224,1024,1025]],[[1026,1027,1028,1029]]]},{"type":"Polygon","properties":{"name":"Mississippi","fips":"US28","scalerank":2,"country":"USA","latitude":32.8657,"longitude":-89.7189,"type":"State","iso":"US-MS"},"id":"MS","arcs":[[1030,1031,1032,1033,1034,1035,1036,-1026,1037,1038,1039]]},{"type":"Polygon","properties":{"name":"Alabama","fips":"US01","scalerank":2,"country":"USA","latitude":32.8551,"longitude":-86.7184,"type":"State","iso":"US-AL"},"id":"AL","arcs":[[1040,1041,1042,1043,1044,1045,1046,-1040,1047,1048,1049]]},{"type":"MultiPolygon","properties":{"name":"Florida","fips":"US12","scalerank":2,"country":"USA","latitude":28.1568,"longitude":-81.6228,"type":"State","iso":"US-FL"},"id":"FL","arcs":[[[-1050,1050,1051,1052,1053,1054,1055,1056,1057,1058,1059,1060,1061,1062,1063,1064,1065,1066,1067,1068,1069,1070,1071,1072,1073,1074,1075,1076,1077,1078,1079,1080,1081,1082,1083,1084,1085,1086,1087,1088,1089,1090,1091,1092,1093,1094,1095,1096,1097,1098,1099,1100,1101,1102,1103,1104,1105,1106,1107,1108,1109,1110,1111,1112,1113,1114,1115,1116]],[[1117]],[[1118]]]},{"type":"MultiPolygon","properties":{"name":"Georgia","fips":"US13","scalerank":2,"country":"USA","latitude":32.8547,"longitude":-83.4078,"type":"State","iso":"US-GA"},"id":"GA","arcs":[[[1119,1120,1121,1122,1123,1124,1125,-1051,-1049,1126,1127,1128]],[[1129]],[[1130]]]},{"type":"Polygon","properties":{"name":"South Carolina","fips":"US45","scalerank":2,"country":"USA","latitude":33.8578,"longitude":-80.6471,"type":"State","iso":"US-SC"},"id":"SC","arcs":[[1131,1132,1133,1134,1135,1136,1137,1138,1139,1140,1141,-1129,1142]]},{"type":"MultiPolygon","properties":{"name":"North Carolina","fips":"US37","scalerank":2,"country":"USA","latitude":35.6152,"longitude":-78.866,"type":"State","iso":"US-NC"},"id":"NC","arcs":[[[1143,1144,1145,1146,1147,1148,1149,1150,1151,1152,1153,1154,1155,1156,1157,1158,1159,1160,1161,1162,1163,1164,1165,1166,1167,1168,1169,1170,-1143,-1128,1171,1172]],[[1173,1174]],[[1175]]]},{"type":"MultiPolygon","properties":{"name":"Virginia","fips":"US51","scalerank":2,"country":"USA","latitude":37.7403,"longitude":-78.2431,"type":"State","iso":"US-VA"},"id":"VA","arcs":[[[1176,-1173,1177,1178,1179,1180,1181,1182,1183,1184,1185,1186,1187,1188,1189,1190,1191,1192,-1174]],[[1193,1194,1195,1196,1197,1198,1199]]]},{"type":"Polygon","properties":{"name":"District of Columbia","fips":"US11","scalerank":2,"country":"USA","latitude":38.8922,"longitude":-77.0113,"type":"Federal District","iso":"US-DC"},"id":"DC","arcs":[[1200,-1182,1201]]},{"type":"MultiPolygon","properties":{"name":"Maryland","fips":"US24","scalerank":2,"country":"USA","latitude":39.3874,"longitude":-77.0454,"type":"State","iso":"US-MD"},"id":"MD","arcs":[[[1202,1203,1204,1205,1206,1207,1208,1209,1210,1211,1212,1213,1214,1215,1216,1217,1218,1219,1220,-1202,-1181,1221,-84,1222,1223,1224,-1200]],[[-1226]]]},{"type":"Polygon","properties":{"name":"Delaware","fips":"US10","scalerank":2,"country":"USA","latitude":38.8657,"longitude":-75.4112,"type":"State","iso":"US-DE"},"id":"DE","arcs":[[-1223,-83,1226,1227,1228,1229,1230]]},{"type":"Polygon","properties":{"name":"New Jersey","fips":"US34","scalerank":2,"country":"USA","latitude":40.0449,"longitude":-74.4653,"type":"State","iso":"US-NJ"},"id":"NJ","arcs":[[-81,-93,1231,1232,1233,1234,1235,1236,1237,1238,1239,1240,1241,1242,1243]]},{"type":"Polygon","properties":{"name":"Connecticut","fips":"US09","scalerank":2,"country":"USA","latitude":41.6486,"longitude":-72.7594,"type":"State","iso":"US-CT"},"id":"CT","arcs":[[-89,1244,1245,1246,1247,1248,1249]]},{"type":"MultiPolygon","properties":{"name":"Rhode Island","fips":"US44","scalerank":2,"country":"USA","latitude":41.6242,"longitude":-71.5082,"type":"State","iso":"US-RI"},"id":"RI","arcs":[[[1250,1251,1252,1253,-1246,1254]],[[1255,1256]]]},{"type":"MultiPolygon","properties":{"name":"Massachusetts","fips":"US25","scalerank":2,"country":"USA","latitude":42.3739,"longitude":-71.9993,"type":"State","iso":"US-MA"},"id":"MA","arcs":[[[1257,-1255,-1245,-88,-114,-118,1258,1259,1260,1261,1262,1263,1264,1265,1266,1267,1268,1269,1270,1271,-1257]],[[1272]],[[1273]]]},{"type":"Polygon","properties":{"name":"Oregon","fips":"US41","scalerank":2,"country":"USA","latitude":43.8333,"longitude":-120.386,"type":"State","iso":"US-OR"},"id":"OR","arcs":[[-2,-52,1274,-212,1275,1276,1277,1278,1279,1280,1281,1282,1283,1284,1285,1286,1287,1288,1289,1290,1291]]},{"type":"MultiPolygon","properties":{"name":"Hawaii","fips":"US15","scalerank":2,"country":"USA","latitude":21.4919,"longitude":-157.999,"type":"State","iso":"US-HI"},"id":"HI","arcs":[[[1292,1293,1294,1295,1296,1297,1298,1299,1300,1301,1302,1303,1304,1305,1306,1307,1308,1309]],[[1310]],[[1311]],[[1312,1313,1314,1315,1316,1317,1318,1319,1320,1321]],[[1322,1323,1324,1325]],[[1326,1327,1328,1329,1330,1331,1332,1333]],[[1334]],[[1335,1336,1337,1338,1339,1340]]]},{"type":"Polygon","properties":{"name":"Utah","fips":"US49","scalerank":2,"country":"USA","latitude":39.5007,"longitude":-111.544,"type":"State","iso":"US-UT"},"id":"UT","arcs":[[1341,1342,-148,1343,-50]]},{"type":"Polygon","properties":{"name":"Wyoming","fips":"US56","scalerank":2,"country":"USA","latitude":42.9999,"longitude":-107.552,"type":"State","iso":"US-WY"},"id":"WY","arcs":[[-1342,-49,-56,1344,1345,1346]]},{"type":"Polygon","properties":{"name":"Nevada","fips":"US32","scalerank":2,"country":"USA","latitude":39.4299,"longitude":-117.02,"type":"State","iso":"US-NV"},"id":"NV","arcs":[[-1344,-147,-213,-1275,-51]]},{"type":"Polygon","properties":{"name":"Colorado","fips":"US08","scalerank":2,"country":"USA","latitude":38.9998,"longitude":-105.543,"type":"State","iso":"US-CO"},"id":"CO","arcs":[[-1347,1347,1348,1349,-218,-1343]]},{"type":"Polygon","properties":{"name":"South Dakota","fips":"US46","scalerank":2,"country":"USA","latitude":44.4711,"longitude":-100.255,"type":"State","iso":"US-SD"},"id":"SD","arcs":[[-55,-59,-63,1350,1351,-1345]]},{"type":"Polygon","properties":{"name":"Nebraska","fips":"US31","scalerank":2,"country":"USA","latitude":41.5002,"longitude":-99.6855,"type":"State","iso":"US-NE"},"id":"NE","arcs":[[-1346,-1352,1352,1353,1354,-1348]]},{"type":"Polygon","properties":{"name":"Kansas","fips":"US20","scalerank":2,"country":"USA","latitude":38.5,"longitude":-98.3309,"type":"State","iso":"US-KS"},"id":"KS","arcs":[[-1349,-1355,1355,1356]]},{"type":"Polygon","properties":{"name":"Oklahoma","fips":"US40","scalerank":2,"country":"USA","latitude":35.452,"longitude":-97.1309,"type":"State","iso":"US-OK"},"id":"OK","arcs":[[-219,-1350,-1357,1357,1358,-222]]},{"type":"Polygon","properties":{"name":"Iowa","fips":"US19","scalerank":2,"country":"USA","latitude":42.0423,"longitude":-93.3891,"type":"State","iso":"US-IA"},"id":"IA","arcs":[[-1351,-62,1359,1360,1361,-1353]]},{"type":"Polygon","properties":{"name":"Missouri","fips":"US29","scalerank":2,"country":"USA","latitude":38.5487,"longitude":-92.446,"type":"State","iso":"US-MO"},"id":"MO","arcs":[[-1354,-1362,1362,1363,1364,1365,-1358,-1356]]},{"type":"MultiPolygon","properties":{"name":"Wisconsin","fips":"US55","scalerank":2,"country":"USA","latitude":44.3709,"longitude":-89.5831,"type":"State","iso":"US-WI"},"id":"WI","arcs":[[[1366,-1360,-61,1367,-64,1368]],[[1369]],[[1370]]]},{"type":"Polygon","properties":{"name":"Illinois","fips":"US17","scalerank":2,"country":"USA","latitude":39.946,"longitude":-89.1991,"type":"State","iso":"US-IL"},"id":"IL","arcs":[[-1363,-1361,-1367,1371,1372,1373]]},{"type":"Polygon","properties":{"name":"Kentucky","fips":"US21","scalerank":2,"country":"USA","latitude":37.3994,"longitude":-85.5729,"type":"State","iso":"US-KY"},"id":"KY","arcs":[[-1364,-1374,1374,-77,1375,-1179,1376]]},{"type":"Polygon","properties":{"name":"Arkansas","fips":"US05","scalerank":2,"country":"USA","latitude":34.7563,"longitude":-92.1428,"type":"State","iso":"US-AR"},"id":"AR","arcs":[[-1038,-1025,-223,-1359,-1366,1377]]},{"type":"Polygon","properties":{"name":"Tennessee","fips":"US47","scalerank":2,"country":"USA","latitude":35.7514,"longitude":-86.3415,"type":"State","iso":"US-TN"},"id":"TN","arcs":[[-1378,-1365,-1377,-1178,-1172,-1127,-1048,-1039]]},{"type":"Polygon","properties":{"name":"West Virginia","fips":"US54","scalerank":2,"country":"USA","latitude":38.6422,"longitude":-80.7128,"type":"State","iso":"US-WV"},"id":"WV","arcs":[[-76,-85,-1222,-1180,-1376]]},{"type":"Polygon","properties":{"name":"Indiana","fips":"US18","scalerank":2,"country":"USA","latitude":39.8874,"longitude":-86.1396,"type":"State","iso":"US-IN"},"id":"IN","arcs":[[-78,-1375,-1373,1378,-67]]}]},"places":{"type":"GeometryCollection","name":"USA_places","crs":{"type":"name","properties":{"name":"urn:ogc:def:crs:OGC:1.3:CRS84"}},"geometries":[{"type":"Point","properties":{"name":"Faribault","scalerank":8,"subregion":"Minnesota","latitude":44.290487,"longitude":-93.268013},"id":"Q177861","coordinates":[2409,7733]},{"type":"Point","properties":{"name":"Mankato","scalerank":8,"subregion":"Minnesota","latitude":44.163621,"longitude":-93.999157},"id":"Q913243","coordinates":[2389,7726]},{"type":"Point","properties":{"name":"Albert Lea","scalerank":8,"subregion":"Minnesota","latitude":43.647787,"longitude":-93.368704},"id":"Q913476","coordinates":[2406,7696]},{"type":"Point","properties":{"name":"Willmar","scalerank":8,"subregion":"Minnesota","latitude":45.121883,"longitude":-95.043305},"id":"Q1986492","coordinates":[2360,7781]},{"type":"Point","properties":{"name":"Brainerd","scalerank":8,"subregion":"Minnesota","latitude":46.358009,"longitude":-94.20085},"id":"Q897435","coordinates":[2383,7852]},{"type":"Point","properties":{"name":"Crookston","scalerank":8,"subregion":"Minnesota","latitude":47.773762,"longitude":-96.607731},"id":"Q1626913","coordinates":[2316,7934]},{"type":"Point","properties":{"name":"Hardin","scalerank":8,"subregion":"Montana","latitude":45.731768,"longitude":-107.612486},"id":"Q964591","coordinates":[2011,7816]},{"type":"Point","properties":{"name":"Glendive","scalerank":8,"subregion":"Montana","latitude":47.108583,"longitude":-104.710493},"id":"Q967324","coordinates":[2091,7896]},{"type":"Point","properties":{"name":"Dillon","scalerank":8,"subregion":"Montana","latitude":45.215676,"longitude":-112.683985},"id":"Q955026","coordinates":[1870,7787]},{"type":"Point","properties":{"name":"Polson","scalerank":8,"subregion":"Montana","latitude":47.688005,"longitude":-114.156686},"id":"Q963395","coordinates":[1829,7929]},{"type":"Point","properties":{"name":"Devils Lake","scalerank":8,"subregion":"North Dakota","latitude":48.112217,"longitude":-98.859687},"id":"Q1772496","coordinates":[2254,7953]},{"type":"Point","properties":{"name":"Burley","scalerank":8,"subregion":"Idaho","latitude":42.535813,"longitude":-113.791876},"id":"Q844028","coordinates":[1839,7632]},{"type":"Point","properties":{"name":"Wallace","scalerank":8,"subregion":"Idaho","latitude":47.47422,"longitude":-115.926888},"id":"Q1516495","coordinates":[1780,7917]},{"type":"Point","properties":{"name":"Kennewick","scalerank":8,"subregion":"Washington","latitude":46.211377,"longitude":-119.136098},"id":"Q844033","coordinates":[1690,7844]},{"type":"Point","properties":{"name":"Centralia","scalerank":8,"subregion":"Washington","latitude":46.716411,"longitude":-122.952971},"id":"Q868700","coordinates":[1584,7873]},{"type":"Point","properties":{"name":"Glendale","scalerank":8,"subregion":"Arizona","latitude":33.581941,"longitude":-112.195824},"id":"Q51682","coordinates":[1884,7114]},{"type":"Point","properties":{"name":"Safford","scalerank":8,"subregion":"Arizona","latitude":32.833821,"longitude":-109.70688},"id":"Q79767","coordinates":[1952,7074]},{"type":"Point","properties":{"name":"Casa Grande","scalerank":8,"subregion":"Arizona","latitude":32.879374,"longitude":-111.756626},"id":"Q79889","coordinates":[1895,7076]},{"type":"Point","properties":{"name":"Mesa","scalerank":8,"subregion":"Arizona","latitude":33.423915,"longitude":-111.736084},"id":"Q49261","coordinates":[1894,7107]},{"type":"Point","properties":{"name":"Lake Havasu City","scalerank":8,"subregion":"Arizona","latitude":34.498294,"longitude":-114.308279},"id":"Q79435","coordinates":[1825,7169]},{"type":"Point","properties":{"name":"Berkeley","scalerank":8,"subregion":"California","latitude":37.873901,"longitude":-122.271152},"id":"Q484678","coordinates":[1603,7364]},{"type":"Point","properties":{"name":"National City","scalerank":8,"subregion":"California","latitude":32.671945,"longitude":-117.098005},"id":"Q430316","coordinates":[1747,7064]},{"type":"Point","properties":{"name":"Mendocino","scalerank":8,"subregion":"California","latitude":39.307767,"longitude":-123.799431},"id":"Q1920378","coordinates":[1561,7446]},{"type":"Point","properties":{"name":"Paso Robles","scalerank":8,"subregion":"California","latitude":35.626597,"longitude":-120.689982},"id":"Q586528","coordinates":[1647,7234]},{"type":"Point","properties":{"name":"Riverside","scalerank":8,"subregion":"California","latitude":33.941945,"longitude":-117.398039},"id":"Q49243","coordinates":[1739,7137]},{"type":"Point","properties":{"name":"Delano","scalerank":8,"subregion":"California","latitude":35.761937,"longitude":-119.243068},"id":"Q775868","coordinates":[1688,7242]},{"type":"Point","properties":{"name":"San Mateo","scalerank":8,"subregion":"California","latitude":37.556918,"longitude":-122.313062},"id":"Q169943","coordinates":[1603,7345]},{"type":"Point","properties":{"name":"Vallejo","scalerank":8,"subregion":"California","latitude":38.111949,"longitude":-122.258052},"id":"Q208445","coordinates":[1604,7378]},{"type":"Point","properties":{"name":"Glenwood Springs","scalerank":8,"subregion":"Colorado","latitude":39.54659,"longitude":-107.3247},"id":"Q927455","coordinates":[2019,7460]},{"type":"Point","properties":{"name":"Aurora","scalerank":8,"subregion":"Colorado","latitude":39.695857,"longitude":-104.808497},"id":"Q49246","coordinates":[2088,7469]},{"type":"Point","properties":{"name":"Greeley","scalerank":8,"subregion":"Colorado","latitude":40.419198,"longitude":-104.739974},"id":"Q94274","coordinates":[2090,7510]},{"type":"Point","properties":{"name":"Tonopah","scalerank":8,"subregion":"Nevada","latitude":38.06699,"longitude":-117.228979},"id":"Q988827","coordinates":[1743,7375]},{"type":"Point","properties":{"name":"Deming","scalerank":8,"subregion":"New Mexico","latitude":32.261092,"longitude":-107.755785},"id":"Q988813","coordinates":[2007,7041]},{"type":"Point","properties":{"name":"Truth or Consequences","scalerank":8,"subregion":"New Mexico","latitude":33.133596,"longitude":-107.252896},"id":"Q431932","coordinates":[2021,7091]},{"type":"Point","properties":{"name":"Las Vegas","scalerank":8,"subregion":"New Mexico","latitude":35.597012,"longitude":-105.222503},"id":"Q676171","coordinates":[2077,7233]},{"type":"Point","properties":{"name":"Farmington","scalerank":8,"subregion":"New Mexico","latitude":36.754151,"longitude":-108.186094},"id":"Q1012695","coordinates":[1995,7299]},{"type":"Point","properties":{"name":"Springfield","scalerank":8,"subregion":"Oregon","latitude":44.051948,"longitude":-122.978034},"id":"Q40268","coordinates":[1584,7720]},{"type":"Point","properties":{"name":"Tillamook","scalerank":8,"subregion":"Oregon","latitude":45.455247,"longitude":-123.842503},"id":"Q764687","coordinates":[1560,7800]},{"type":"Point","properties":{"name":"Ontario","scalerank":8,"subregion":"Oregon","latitude":44.026627,"longitude":-116.96189},"id":"Q1639059","coordinates":[1751,7718]},{"type":"Point","properties":{"name":"La Grande","scalerank":8,"subregion":"Oregon","latitude":45.324687,"longitude":-118.086601},"id":"Q1645049","coordinates":[1720,7793]},{"type":"Point","properties":{"name":"Richfield","scalerank":8,"subregion":"Utah","latitude":38.772477,"longitude":-112.083298},"id":"Q483319","coordinates":[1886,7416]},{"type":"Point","properties":{"name":"Nephi","scalerank":8,"subregion":"Utah","latitude":39.710275,"longitude":-111.835484},"id":"Q130153","coordinates":[1893,7470]},{"type":"Point","properties":{"name":"Lander","scalerank":8,"subregion":"Wyoming","latitude":42.833004,"longitude":-108.732599},"id":"Q992094","coordinates":[1979,7649]},{"type":"Point","properties":{"name":"Powell","scalerank":8,"subregion":"Wyoming","latitude":44.758675,"longitude":-108.758437},"id":"Q1029174","coordinates":[1979,7760]},{"type":"Point","properties":{"name":"Paragould","scalerank":8,"subregion":"Arkansas","latitude":36.057087,"longitude":-90.502884},"id":"Q79386","coordinates":[2486,7259]},{"type":"Point","properties":{"name":"Iowa City","scalerank":8,"subregion":"Iowa","latitude":41.661086,"longitude":-91.529979},"id":"Q487977","coordinates":[2457,7582]},{"type":"Point","properties":{"name":"Ottumwa","scalerank":8,"subregion":"Iowa","latitude":41.012883,"longitude":-92.414809},"id":"Q853566","coordinates":[2433,7545]},{"type":"Point","properties":{"name":"Spencer","scalerank":8,"subregion":"Iowa","latitude":43.145285,"longitude":-95.147175},"id":"Q1903286","coordinates":[2357,7667]},{"type":"Point","properties":{"name":"Ft. Dodge","scalerank":8,"subregion":"Iowa","latitude":42.506823,"longitude":-94.180257},"id":"Q983761","coordinates":[2384,7631]},{"type":"Point","properties":{"name":"Hutchinson","scalerank":8,"subregion":"Kansas","latitude":38.065492,"longitude":-97.923491},"id":"Q958555","coordinates":[2280,7375]},{"type":"Point","properties":{"name":"Kansas City","scalerank":8,"subregion":"Kansas","latitude":39.113581,"longitude":-94.630146},"id":"Q486472","coordinates":[2371,7435]},{"type":"Point","properties":{"name":"Lawrence","scalerank":8,"subregion":"Kansas","latitude":38.959752,"longitude":-95.25523},"id":"Q493840","coordinates":[2354,7426]},{"type":"Point","properties":{"name":"Garden City","scalerank":8,"subregion":"Kansas","latitude":37.975213,"longitude":-100.864087},"id":"Q983784","coordinates":[2198,7370]},{"type":"Point","properties":{"name":"Manhattan","scalerank":8,"subregion":"Kansas","latitude":39.194028,"longitude":-96.592435},"id":"Q856841","coordinates":[2317,7440]},{"type":"Point","properties":{"name":"Hays","scalerank":8,"subregion":"Kansas","latitude":38.87937,"longitude":-99.322191},"id":"Q1057071","coordinates":[2241,7422]},{"type":"Point","properties":{"name":"Goodland","scalerank":8,"subregion":"Kansas","latitude":39.348488,"longitude":-101.711037},"id":"Q1931362","coordinates":[2174,7449]},{"type":"Point","properties":{"name":"Independence","scalerank":8,"subregion":"Missouri","latitude":39.091114,"longitude":-94.415281},"id":"Q24603","coordinates":[2377,7434]},{"type":"Point","properties":{"name":"Kirksville","scalerank":8,"subregion":"Missouri","latitude":40.193682,"longitude":-92.582809},"id":"Q966460","coordinates":[2428,7497]},{"type":"Point","properties":{"name":"Kearney","scalerank":8,"subregion":"Nebraska","latitude":40.700706,"longitude":-99.081146},"id":"Q846044","coordinates":[2248,7527]},{"type":"Point","properties":{"name":"Grand Island","scalerank":8,"subregion":"Nebraska","latitude":40.922268,"longitude":-98.357986},"id":"Q461826","coordinates":[2268,7539]},{"type":"Point","properties":{"name":"Alliance","scalerank":8,"subregion":"Nebraska","latitude":42.101395,"longitude":-102.870192},"id":"Q964529","coordinates":[2142,7607]},{"type":"Point","properties":{"name":"Bartlesville","scalerank":8,"subregion":"Oklahoma","latitude":36.7472,"longitude":-95.980586},"id":"Q809450","coordinates":[2334,7299]},{"type":"Point","properties":{"name":"Enid","scalerank":8,"subregion":"Oklahoma","latitude":36.395542,"longitude":-97.878093},"id":"Q984361","coordinates":[2281,7279]},{"type":"Point","properties":{"name":"Ardmore","scalerank":8,"subregion":"Oklahoma","latitude":34.181078,"longitude":-97.129405},"id":"Q639640","coordinates":[2302,7151]},{"type":"Point","properties":{"name":"McAlester","scalerank":8,"subregion":"Oklahoma","latitude":34.932996,"longitude":-95.765974},"id":"Q1994656","coordinates":[2340,7194]},{"type":"Point","properties":{"name":"Stillwater","scalerank":8,"subregion":"Oklahoma","latitude":36.135351,"longitude":-97.068298},"id":"Q852714","coordinates":[2303,7264]},{"type":"Point","properties":{"name":"Lead","scalerank":8,"subregion":"South Dakota","latitude":44.350845,"longitude":-103.76577},"id":"Q584982","coordinates":[2117,7737]},{"type":"Point","properties":{"name":"Slidell","scalerank":8,"subregion":"Louisiana","latitude":30.27496,"longitude":-89.781094},"id":"Q988156","coordinates":[2506,6926]},{"type":"Point","properties":{"name":"Lake Charles","scalerank":8,"subregion":"Louisiana","latitude":30.226384,"longitude":-93.217189},"id":"Q864106","coordinates":[2410,6923]},{"type":"Point","properties":{"name":"Metairie","scalerank":8,"subregion":"Louisiana","latitude":29.983866,"longitude":-90.152777},"id":"Q126661","coordinates":[2496,6909]},{"type":"Point","properties":{"name":"New Iberia","scalerank":8,"subregion":"Louisiana","latitude":30.003581,"longitude":-91.818308},"id":"Q991355","coordinates":[2449,6911]},{"type":"Point","properties":{"name":"Bryan","scalerank":8,"subregion":"Texas","latitude":30.674186,"longitude":-96.369684},"id":"Q695556","coordinates":[2323,6949]},{"type":"Point","properties":{"name":"San Marcos","scalerank":8,"subregion":"Texas","latitude":29.883071,"longitude":-97.941113},"id":"Q982353","coordinates":[2279,6904]},{"type":"Point","properties":{"name":"Longview","scalerank":8,"subregion":"Texas","latitude":32.500534,"longitude":-94.740274},"id":"Q852645","coordinates":[2368,7054]},{"type":"Point","properties":{"name":"McAllen","scalerank":8,"subregion":"Texas","latitude":26.203038,"longitude":-98.229725},"id":"Q51698","coordinates":[2271,6692]},{"type":"Point","properties":{"name":"Harlingen","scalerank":8,"subregion":"Texas","latitude":26.19756,"longitude":-97.690198},"id":"Q868869","coordinates":[2286,6691]},{"type":"Point","properties":{"name":"Alice","scalerank":8,"subregion":"Texas","latitude":27.750463,"longitude":-98.070485},"id":"Q981528","coordinates":[2276,6781]},{"type":"Point","properties":{"name":"New Braunfels","scalerank":8,"subregion":"Texas","latitude":29.697811,"longitude":-98.126321},"id":"Q574612","coordinates":[2274,6893]},{"type":"Point","properties":{"name":"Cleburne","scalerank":8,"subregion":"Texas","latitude":32.351525,"longitude":-97.39249},"id":"Q534957","coordinates":[2294,7046]},{"type":"Point","properties":{"name":"Brownwood","scalerank":8,"subregion":"Texas","latitude":31.707895,"longitude":-98.982315},"id":"Q981222","coordinates":[2250,7009]},{"type":"Point","properties":{"name":"Alpine","scalerank":8,"subregion":"Texas","latitude":30.360717,"longitude":-103.665001},"id":"Q661540","coordinates":[2120,6931]},{"type":"Point","properties":{"name":"Van Horn","scalerank":8,"subregion":"Texas","latitude":31.042484,"longitude":-104.832242},"id":"Q976246","coordinates":[2088,6970]},{"type":"Point","properties":{"name":"Big Spring","scalerank":8,"subregion":"Texas","latitude":32.243186,"longitude":-101.475186},"id":"Q859362","coordinates":[2181,7040]},{"type":"Point","properties":{"name":"Vernon","scalerank":8,"subregion":"Texas","latitude":34.151054,"longitude":-99.290384},"id":"Q979546","coordinates":[2242,7149]},{"type":"Point","properties":{"name":"Childress","scalerank":8,"subregion":"Texas","latitude":34.424887,"longitude":-100.21392},"id":"Q982513","coordinates":[2216,7165]},{"type":"Point","properties":{"name":"Hereford","scalerank":8,"subregion":"Texas","latitude":34.821917,"longitude":-102.398592},"id":"Q981218","coordinates":[2155,7188]},{"type":"Point","properties":{"name":"Dalhart","scalerank":8,"subregion":"Texas","latitude":36.060808,"longitude":-102.518611},"id":"Q982372","coordinates":[2152,7259]},{"type":"Point","properties":{"name":"Texas City","scalerank":8,"subregion":"Texas","latitude":29.410878,"longitude":-94.962767},"id":"Q912475","coordinates":[2362,6876]},{"type":"Point","properties":{"name":"Pasadena","scalerank":8,"subregion":"Texas","latitude":29.660863,"longitude":-95.147743},"id":"Q51695","coordinates":[2357,6891]},{"type":"Point","properties":{"name":"Baytown","scalerank":8,"subregion":"Texas","latitude":29.755844,"longitude":-94.967728},"id":"Q812646","coordinates":[2362,6896]},{"type":"Point","properties":{"name":"Arlington","scalerank":8,"subregion":"Texas","latitude":32.684761,"longitude":-97.020239},"id":"Q17943","coordinates":[2305,7065]},{"type":"Point","properties":{"name":"New London","scalerank":8,"subregion":"Connecticut","latitude":41.355524,"longitude":-72.100028},"id":"Q49146","coordinates":[2997,7564]},{"type":"Point","properties":{"name":"Stamford","scalerank":8,"subregion":"Connecticut","latitude":41.053346,"longitude":-73.539191},"id":"Q49169","coordinates":[2957,7547]},{"type":"Point","properties":{"name":"Waterbury","scalerank":8,"subregion":"Connecticut","latitude":41.550008,"longitude":-73.050022},"id":"Q49178","coordinates":[2971,7576]},{"type":"Point","properties":{"name":"New Bedford","scalerank":8,"subregion":"Massachusetts","latitude":41.656125,"longitude":-70.944698},"id":"Q49147","coordinates":[3029,7582]},{"type":"Point","properties":{"name":"Springfield","scalerank":8,"subregion":"Massachusetts","latitude":42.120025,"longitude":-72.579999},"id":"Q49158","coordinates":[2984,7608]},{"type":"Point","properties":{"name":"Salem","scalerank":8,"subregion":"Massachusetts","latitude":42.522499,"longitude":-70.883092},"id":"Q54140","coordinates":[3031,7632]},{"type":"Point","properties":{"name":"Pittsfield","scalerank":8,"subregion":"Massachusetts","latitude":42.448196,"longitude":-73.259828},"id":"Q49184","coordinates":[2965,7627]},{"type":"Point","properties":{"name":"Montpelier","scalerank":8,"subregion":"Vermont","latitude":44.259972,"longitude":-72.575813},"id":"Q26426","coordinates":[2984,7732]},{"type":"Point","properties":{"name":"Auburn","scalerank":8,"subregion":"Alabama","latitude":32.609701,"longitude":-85.48084},"id":"Q79728","coordinates":[2625,7061]},{"type":"Point","properties":{"name":"Florence","scalerank":8,"subregion":"Alabama","latitude":34.799696,"longitude":-87.677243},"id":"Q79743","coordinates":[2564,7187]},{"type":"Point","properties":{"name":"Winter Haven","scalerank":8,"subregion":"Florida","latitude":28.021919,"longitude":-81.733006},"id":"Q1778769","coordinates":[2729,6796]},{"type":"Point","properties":{"name":"Melbourne","scalerank":8,"subregion":"Florida","latitude":28.08331,"longitude":-80.60832},"id":"Q949779","coordinates":[2761,6800]},{"type":"Point","properties":{"name":"Homestead","scalerank":8,"subregion":"Florida","latitude":25.468302,"longitude":-80.477786},"id":"Q280557","coordinates":[2764,6649]},{"type":"Point","properties":{"name":"Sanford","scalerank":8,"subregion":"Florida","latitude":28.78996,"longitude":-81.279985},"id":"Q786770","coordinates":[2742,6841]},{"type":"Point","properties":{"name":"Miami Beach","scalerank":8,"subregion":"Florida","latitude":25.80992,"longitude":-80.131781},"id":"Q201516","coordinates":[2774,6669]},{"type":"Point","properties":{"name":"Coral Springs","scalerank":8,"subregion":"Florida","latitude":26.270837,"longitude":-80.270822},"id":"Q505557","coordinates":[2770,6696]},{"type":"Point","properties":{"name":"Port Charlotte","scalerank":8,"subregion":"Florida","latitude":27.000043,"longitude":-82.105697},"id":"Q1022776","coordinates":[2719,6738]},{"type":"Point","properties":{"name":"Spring Hill","scalerank":8,"subregion":"Florida","latitude":28.478945,"longitude":-82.547711},"id":"Q2321558","coordinates":[2707,6823]},{"type":"Point","properties":{"name":"Palm Coast","scalerank":8,"subregion":"Florida","latitude":29.538002,"longitude":-81.223296},"id":"Q610463","coordinates":[2744,6884]},{"type":"Point","properties":{"name":"Palatka","scalerank":8,"subregion":"Florida","latitude":29.647685,"longitude":-81.651306},"id":"Q955907","coordinates":[2732,6890]},{"type":"Point","properties":{"name":"Leesburg","scalerank":8,"subregion":"Florida","latitude":28.810501,"longitude":-81.883333},"id":"Q625833","coordinates":[2725,6842]},{"type":"Point","properties":{"name":"Lake City","scalerank":8,"subregion":"Florida","latitude":30.189719,"longitude":-82.639747},"id":"Q985179","coordinates":[2704,6921]},{"type":"Point","properties":{"name":"Crestview","scalerank":8,"subregion":"Florida","latitude":30.754207,"longitude":-86.572608},"id":"Q2153124","coordinates":[2595,6954]},{"type":"Point","properties":{"name":"Panama City","scalerank":8,"subregion":"Florida","latitude":30.15861,"longitude":-85.655273},"id":"Q852591","coordinates":[2620,6920]},{"type":"Point","properties":{"name":"Dalton","scalerank":8,"subregion":"Georgia","latitude":34.769724,"longitude":-84.970302},"id":"Q996830","coordinates":[2639,7185]},{"type":"Point","properties":{"name":"Marietta","scalerank":8,"subregion":"Georgia","latitude":33.955613,"longitude":-84.543248},"id":"Q852684","coordinates":[2651,7138]},{"type":"Point","properties":{"name":"Waycross","scalerank":8,"subregion":"Georgia","latitude":31.213817,"longitude":-82.354906},"id":"Q615027","coordinates":[2712,6980]},{"type":"Point","properties":{"name":"La Grange","scalerank":8,"subregion":"Georgia","latitude":33.036471,"longitude":-85.031875},"id":"Q593529","coordinates":[2638,7085]},{"type":"Point","properties":{"name":"Southaven","scalerank":8,"subregion":"Mississippi","latitude":34.968911,"longitude":-90.003458},"id":"Q768007","coordinates":[2500,7197]},{"type":"Point","properties":{"name":"Meridian","scalerank":8,"subregion":"Mississippi","latitude":32.364186,"longitude":-88.703614},"id":"Q118152","coordinates":[2536,7047]},{"type":"Point","properties":{"name":"Laurel","scalerank":8,"subregion":"Mississippi","latitude":31.697379,"longitude":-89.139273},"id":"Q934987","coordinates":[2524,7008]},{"type":"Point","properties":{"name":"Spartanburg","scalerank":8,"subregion":"South Carolina","latitude":34.949429,"longitude":-81.932271},"id":"Q773325","coordinates":[2724,7195]},{"type":"Point","properties":{"name":"Orangeburg","scalerank":8,"subregion":"South Carolina","latitude":33.496804,"longitude":-80.862233},"id":"Q2276157","coordinates":[2754,7112]},{"type":"Point","properties":{"name":"Galesburg","scalerank":8,"subregion":"Illinois","latitude":40.947771,"longitude":-90.371084},"id":"Q782574","coordinates":[2489,7541]},{"type":"Point","properties":{"name":"Joliet","scalerank":8,"subregion":"Illinois","latitude":41.529983,"longitude":-88.106674},"id":"Q40345","coordinates":[2552,7574]},{"type":"Point","properties":{"name":"Cape Girardeau","scalerank":8,"subregion":"Illinois","latitude":37.305822,"longitude":-89.518087},"id":"Q866294","coordinates":[2513,7331]},{"type":"Point","properties":{"name":"Rockford","scalerank":8,"subregion":"Illinois","latitude":42.269705,"longitude":-89.06969},"id":"Q233892","coordinates":[2526,7617]},{"type":"Point","properties":{"name":"Evanston","scalerank":8,"subregion":"Illinois","latitude":42.048349,"longitude":-87.699955},"id":"Q462799","coordinates":[2564,7604]},{"type":"Point","properties":{"name":"Rock Island","scalerank":8,"subregion":"Illinois","latitude":41.493396,"longitude":-90.534614},"id":"Q577878","coordinates":[2485,7572]},{"type":"Point","properties":{"name":"Elgin","scalerank":8,"subregion":"Illinois","latitude":42.039461,"longitude":-88.289919},"id":"Q499887","coordinates":[2547,7604]},{"type":"Point","properties":{"name":"Richmond","scalerank":8,"subregion":"Indiana","latitude":39.828898,"longitude":-84.890281},"id":"Q548664","coordinates":[2642,7476]},{"type":"Point","properties":{"name":"Terre Haute","scalerank":8,"subregion":"Indiana","latitude":39.466647,"longitude":-87.413874},"id":"Q492478","coordinates":[2572,7456]},{"type":"Point","properties":{"name":"Lafayette","scalerank":8,"subregion":"Indiana","latitude":40.417209,"longitude":-86.878248},"id":"Q638187","coordinates":[2586,7510]},{"type":"Point","properties":{"name":"Marion","scalerank":8,"subregion":"Indiana","latitude":40.558337,"longitude":-85.659175},"id":"Q286068","coordinates":[2620,7518]},{"type":"Point","properties":{"name":"South Bend","scalerank":8,"subregion":"Indiana","latitude":41.683307,"longitude":-86.250017},"id":"Q486877","coordinates":[2604,7583]},{"type":"Point","properties":{"name":"New Albany","scalerank":8,"subregion":"Indiana","latitude":38.310877,"longitude":-85.821284},"id":"Q1762878","coordinates":[2616,7389]},{"type":"Point","properties":{"name":"Elkhart","scalerank":8,"subregion":"Indiana","latitude":41.682945,"longitude":-85.968794},"id":"Q2008706","coordinates":[2612,7583]},{"type":"Point","properties":{"name":"Hopkinsville","scalerank":8,"subregion":"Kentucky","latitude":36.865488,"longitude":-87.488624},"id":"Q845461","coordinates":[2570,7306]},{"type":"Point","properties":{"name":"London","scalerank":8,"subregion":"Kentucky","latitude":37.128882,"longitude":-84.083354},"id":"Q3061911","coordinates":[2664,7321]},{"type":"Point","properties":{"name":"Madisonville","scalerank":8,"subregion":"Kentucky","latitude":37.332746,"longitude":-87.502215},"id":"Q989909","coordinates":[2569,7333]},{"type":"Point","properties":{"name":"Rocky Mount","scalerank":8,"subregion":"North Carolina","latitude":35.937999,"longitude":-77.790766},"id":"Q1021026","coordinates":[2839,7252]},{"type":"Point","properties":{"name":"Salisbury","scalerank":8,"subregion":"North Carolina","latitude":35.67078,"longitude":-80.474478},"id":"Q2028813","coordinates":[2764,7237]},{"type":"Point","properties":{"name":"Durham","scalerank":8,"subregion":"North Carolina","latitude":35.999959,"longitude":-78.92},"id":"Q49229","coordinates":[2808,7256]},{"type":"Point","properties":{"name":"Lumberton","scalerank":8,"subregion":"North Carolina","latitude":34.6272,"longitude":-79.011906},"id":"Q2029674","coordinates":[2805,7177]},{"type":"Point","properties":{"name":"Zanesville","scalerank":8,"subregion":"Ohio","latitude":39.940287,"longitude":-82.013325},"id":"Q146811","coordinates":[2722,7483]},{"type":"Point","properties":{"name":"Mansfield","scalerank":8,"subregion":"Ohio","latitude":40.758325,"longitude":-82.515542},"id":"Q983698","coordinates":[2708,7530]},{"type":"Point","properties":{"name":"Bowling Green","scalerank":8,"subregion":"Ohio","latitude":41.374747,"longitude":-83.65139},"id":"Q895459","coordinates":[2676,7565]},{"type":"Point","properties":{"name":"Springfield","scalerank":8,"subregion":"Ohio","latitude":39.920004,"longitude":-83.799986},"id":"Q40325","coordinates":[2672,7482]},{"type":"Point","properties":{"name":"Lancaster","scalerank":8,"subregion":"Ohio","latitude":39.719215,"longitude":-82.605304},"id":"Q986005","coordinates":[2705,7470]},{"type":"Point","properties":{"name":"Johnson City","scalerank":8,"subregion":"Tennessee","latitude":36.313325,"longitude":-82.353614},"id":"Q770571","coordinates":[2712,7274]},{"type":"Point","properties":{"name":"Kingsport","scalerank":8,"subregion":"Tennessee","latitude":36.548323,"longitude":-82.561948},"id":"Q241814","coordinates":[2706,7287]},{"type":"Point","properties":{"name":"Columbia","scalerank":8,"subregion":"Tennessee","latitude":35.614995,"longitude":-87.035267},"id":"Q5675279","coordinates":[2582,7234]},{"type":"Point","properties":{"name":"Barlett","scalerank":8,"subregion":"Tennessee","latitude":35.2229,"longitude":-89.84109},"id":"Q809451","coordinates":[2504,7211]},{"type":"Point","properties":{"name":"Blacksburg","scalerank":8,"subregion":"Virginia","latitude":37.229419,"longitude":-80.414198},"id":"Q285816","coordinates":[2766,7327]},{"type":"Point","properties":{"name":"Harrisonburg","scalerank":8,"subregion":"Virginia","latitude":38.449422,"longitude":-78.869176},"id":"Q511935","coordinates":[2809,7397]},{"type":"Point","properties":{"name":"Petersburg","scalerank":8,"subregion":"Virginia","latitude":37.227765,"longitude":-77.402237},"id":"Q511964","coordinates":[2850,7327]},{"type":"Point","properties":{"name":"Hampton","scalerank":8,"subregion":"Virginia","latitude":37.030025,"longitude":-76.34995},"id":"Q342043","coordinates":[2879,7315]},{"type":"Point","properties":{"name":"Sheboygan","scalerank":8,"subregion":"Wisconsin","latitude":43.75083,"longitude":-87.714424},"id":"Q984834","coordinates":[2563,7702]},{"type":"Point","properties":{"name":"Waukesha","scalerank":8,"subregion":"Wisconsin","latitude":43.01165,"longitude":-88.231369},"id":"Q94919","coordinates":[2549,7660]},{"type":"Point","properties":{"name":"La Crosse","scalerank":8,"subregion":"Wisconsin","latitude":43.801369,"longitude":-91.239429},"id":"Q936780","coordinates":[2465,7705]},{"type":"Point","properties":{"name":"Eau Claire","scalerank":8,"subregion":"Wisconsin","latitude":44.811359,"longitude":-91.498353},"id":"Q122563","coordinates":[2458,7763]},{"type":"Point","properties":{"name":"Tomah","scalerank":8,"subregion":"Wisconsin","latitude":43.985053,"longitude":-90.503892},"id":"Q1570021","coordinates":[2486,7716]},{"type":"Point","properties":{"name":"Janesville","scalerank":8,"subregion":"Wisconsin","latitude":42.682626,"longitude":-89.021579},"id":"Q257536","coordinates":[2527,7641]},{"type":"Point","properties":{"name":"Appleton","scalerank":8,"subregion":"Wisconsin","latitude":44.268679,"longitude":-88.400506},"id":"Q94928","coordinates":[2544,7732]},{"type":"Point","properties":{"name":"Parkersburg","scalerank":8,"subregion":"West Virginia","latitude":39.266659,"longitude":-81.561647},"id":"Q329485","coordinates":[2734,7444]},{"type":"Point","properties":{"name":"White Sulphur Springs","scalerank":8,"subregion":"West Virginia","latitude":37.79388,"longitude":-80.303481},"id":"Q2035099","coordinates":[2769,7359]},{"type":"Point","properties":{"name":"Clarksburg","scalerank":8,"subregion":"West Virginia","latitude":39.283273,"longitude":-80.336916},"id":"Q1010199","coordinates":[2768,7445]},{"type":"Point","properties":{"name":"Dover","scalerank":8,"subregion":"Delaware","latitude":39.158087,"longitude":-75.524703},"id":"Q33518","coordinates":[2902,7438]},{"type":"Point","properties":{"name":"St. Charles","scalerank":8,"subregion":"Maryland","latitude":38.603056,"longitude":-76.938932},"id":"Q755927","coordinates":[2863,7406]},{"type":"Point","properties":{"name":"Annapolis","scalerank":8,"subregion":"Maryland","latitude":38.97833,"longitude":-76.492499},"id":"Q28271","coordinates":[2875,7427]},{"type":"Point","properties":{"name":"Hagerstown","scalerank":8,"subregion":"Maryland","latitude":39.641649,"longitude":-77.72028},"id":"Q755559","coordinates":[2841,7466]},{"type":"Point","properties":{"name":"Paterson","scalerank":8,"subregion":"New Jersey","latitude":40.919995,"longitude":-74.170005},"id":"Q138391","coordinates":[2939,7539]},{"type":"Point","properties":{"name":"Saratoga Springs","scalerank":8,"subregion":"New York","latitude":43.082963,"longitude":-73.785016},"id":"Q1144357","coordinates":[2950,7664]},{"type":"Point","properties":{"name":"Poughkeepsie","scalerank":8,"subregion":"New York","latitude":41.700231,"longitude":-73.921416},"id":"Q178093","coordinates":[2946,7584]},{"type":"Point","properties":{"name":"Plattsburgh","scalerank":8,"subregion":"New York","latitude":44.694984,"longitude":-73.457982},"id":"Q998669","coordinates":[2959,7757]},{"type":"Point","properties":{"name":"Beaver Falls","scalerank":8,"subregion":"Pennsylvania","latitude":40.751943,"longitude":-80.319423},"id":"Q1130843","coordinates":[2769,7530]},{"type":"Point","properties":{"name":"Altoona","scalerank":8,"subregion":"Pennsylvania","latitude":40.518598,"longitude":-78.394967},"id":"Q444210","coordinates":[2822,7516]},{"type":"Point","properties":{"name":"Williamsport","scalerank":8,"subregion":"Pennsylvania","latitude":41.241086,"longitude":-77.001383},"id":"Q1016159","coordinates":[2861,7558]},{"type":"Point","properties":{"name":"Lancaster","scalerank":8,"subregion":"Pennsylvania","latitude":40.037775,"longitude":-76.305766},"id":"Q320514","coordinates":[2880,7488]},{"type":"Point","properties":{"name":"Allentown","scalerank":8,"subregion":"Pennsylvania","latitude":40.599988,"longitude":-75.500028},"id":"Q142811","coordinates":[2902,7521]},{"type":"Point","properties":{"name":"Waterville","scalerank":8,"subregion":"Maine","latitude":44.551892,"longitude":-69.645785},"id":"Q997170","coordinates":[3065,7748]},{"type":"Point","properties":{"name":"Calais","scalerank":8,"subregion":"Maine","latitude":45.165989,"longitude":-67.242392},"id":"Q612696","coordinates":[3132,7784]},{"type":"Point","properties":{"name":"Houlton","scalerank":8,"subregion":"Maine","latitude":46.125517,"longitude":-67.83972},"id":"Q913153","coordinates":[3115,7839]},{"type":"Point","properties":{"name":"Benton Harbor","scalerank":8,"subregion":"Michigan","latitude":42.11664,"longitude":-86.454191},"id":"Q818338","coordinates":[2598,7608]},{"type":"Point","properties":{"name":"Battle Creek","scalerank":8,"subregion":"Michigan","latitude":42.321098,"longitude":-85.179747},"id":"Q810998","coordinates":[2634,7620]},{"type":"Point","properties":{"name":"Bay City","scalerank":8,"subregion":"Michigan","latitude":43.594457,"longitude":-83.888895},"id":"Q746820","coordinates":[2669,7693]},{"type":"Point","properties":{"name":"Alpena","scalerank":8,"subregion":"Michigan","latitude":45.061602,"longitude":-83.432696},"id":"Q1012455","coordinates":[2682,7778]},{"type":"Point","properties":{"name":"Iron Mountain","scalerank":8,"subregion":"Michigan","latitude":45.82246,"longitude":-88.064093},"id":"Q567814","coordinates":[2554,7822]},{"type":"Point","properties":{"name":"Ironwood","scalerank":8,"subregion":"Michigan","latitude":46.455807,"longitude":-90.159391},"id":"Q2002936","coordinates":[2495,7858]},{"type":"Point","properties":{"name":"Sand Point","scalerank":8,"subregion":"Alaska","latitude":55.339709,"longitude":-160.497191},"id":"Q79400","coordinates":[542,8370]},{"type":"Point","properties":{"name":"Hydaburg","scalerank":8,"subregion":"Alaska","latitude":55.21398,"longitude":-132.800639},"id":"Q79680","coordinates":[1311,8362]},{"type":"Point","properties":{"name":"Mekoryuk","scalerank":8,"subregion":"Alaska","latitude":60.388647,"longitude":-166.189937},"id":"Q80182","coordinates":[384,8660]},{"type":"Point","properties":{"name":"Atqasuk","scalerank":8,"subregion":"Alaska","latitude":70.46938,"longitude":-157.395778},"id":"Q79714","coordinates":[628,9241]},{"type":"Point","properties":{"name":"Port Heiden","scalerank":8,"subregion":"Alaska","latitude":56.949094,"longitude":-158.626892},"id":"Q79464","coordinates":[594,8462]},{"type":"Point","properties":{"name":"Perryville","scalerank":8,"subregion":"Alaska","latitude":55.918614,"longitude":-159.151149},"id":"Q2740286","coordinates":[579,8403]},{"type":"Point","properties":{"name":"Dillingham","scalerank":8,"subregion":"Alaska","latitude":59.05656,"longitude":-158.480312},"id":"Q79383","coordinates":[598,8584]},{"type":"Point","properties":{"name":"Goodnews Bay","scalerank":8,"subregion":"Alaska","latitude":59.120993,"longitude":-161.58713},"id":"Q79543","coordinates":[511,8587]},{"type":"Point","properties":{"name":"Nyac","scalerank":8,"subregion":"Alaska","latitude":61.004143,"longitude":-159.940481},"coordinates":[557,8696]},{"type":"Point","properties":{"name":"Tununak","scalerank":8,"subregion":"Alaska","latitude":60.585487,"longitude":-165.255789},"id":"Q550177","coordinates":[410,8672]},{"type":"Point","properties":{"name":"Mountain Village","scalerank":8,"subregion":"Alaska","latitude":62.085524,"longitude":-163.729009},"id":"Q79558","coordinates":[452,8758]},{"type":"Point","properties":{"name":"Emmonak","scalerank":8,"subregion":"Alaska","latitude":62.776981,"longitude":-164.522992},"id":"Q79553","coordinates":[430,8798]},{"type":"Point","properties":{"name":"Kaltag","scalerank":8,"subregion":"Alaska","latitude":64.327196,"longitude":-158.721899},"id":"Q79345","coordinates":[591,8887]},{"type":"Point","properties":{"name":"Teller","scalerank":8,"subregion":"Alaska","latitude":65.263599,"longitude":-166.360786},"id":"Q79856","coordinates":[379,8941]},{"type":"Point","properties":{"name":"Koyukuk","scalerank":8,"subregion":"Alaska","latitude":64.880289,"longitude":-157.70085},"id":"Q79685","coordinates":[619,8919]},{"type":"Point","properties":{"name":"Kobuk","scalerank":8,"subregion":"Alaska","latitude":66.907246,"longitude":-156.880977},"id":"Q79333","coordinates":[642,9036]},{"type":"Point","properties":{"name":"Selawik","scalerank":8,"subregion":"Alaska","latitude":66.603879,"longitude":-160.009391},"id":"Q79395","coordinates":[555,9018]},{"type":"Point","properties":{"name":"Talkeetna","scalerank":8,"subregion":"Alaska","latitude":62.323779,"longitude":-150.109427},"id":"Q668224","coordinates":[830,8772]},{"type":"Point","properties":{"name":"Whittier","scalerank":8,"subregion":"Alaska","latitude":60.784157,"longitude":-148.67768},"id":"Q79716","coordinates":[870,8683]},{"type":"Point","properties":{"name":"Montana","scalerank":8,"subregion":"Alaska","latitude":62.079685,"longitude":-150.072763},"coordinates":[831,8758]},{"type":"Point","properties":{"name":"Lake Minchumina","scalerank":8,"subregion":"Alaska","latitude":63.882831,"longitude":-152.312187},"id":"Q1837435","coordinates":[769,8862]},{"type":"Point","properties":{"name":"Cantwell","scalerank":8,"subregion":"Alaska","latitude":63.391595,"longitude":-148.95079},"id":"Q1033949","coordinates":[862,8833]},{"type":"Point","properties":{"name":"Gulkana","scalerank":8,"subregion":"Alaska","latitude":62.271353,"longitude":-145.382196},"id":"Q2282173","coordinates":[962,8769]},{"type":"Point","properties":{"name":"Eagle","scalerank":8,"subregion":"Alaska","latitude":64.787995,"longitude":-141.199997},"id":"Q1023677","coordinates":[1078,8914]},{"type":"Point","properties":{"name":"Nenana","scalerank":8,"subregion":"Alaska","latitude":64.563797,"longitude":-149.093003},"id":"Q80058","coordinates":[858,8901]},{"type":"Point","properties":{"name":"Big Delta","scalerank":8,"subregion":"Alaska","latitude":64.15253,"longitude":-145.842194},"id":"Q691255","coordinates":[949,8877]},{"type":"Point","properties":{"name":"Allakaket","scalerank":8,"subregion":"Alaska","latitude":66.565483,"longitude":-152.6455},"id":"Q79350","coordinates":[760,9016]},{"type":"Point","properties":{"name":"Tanana","scalerank":8,"subregion":"Alaska","latitude":65.171873,"longitude":-152.07879},"id":"Q79614","coordinates":[776,8936]},{"type":"Point","properties":{"name":"Virginia","scalerank":7,"subregion":"Minnesota","latitude":47.523674,"longitude":-92.536404},"id":"Q986681","coordinates":[2429,7920]},{"type":"Point","properties":{"name":"Winona","scalerank":7,"subregion":"Minnesota","latitude":44.050424,"longitude":-91.639197},"id":"Q773527","coordinates":[2454,7720]},{"type":"Point","properties":{"name":"Rochester","scalerank":7,"subregion":"Minnesota","latitude":44.022053,"longitude":-92.469689},"id":"Q486479","coordinates":[2431,7718]},{"type":"Point","properties":{"name":"Lakeville","scalerank":7,"subregion":"Minnesota","latitude":44.650103,"longitude":-93.24251},"id":"Q983776","coordinates":[2410,7754]},{"type":"Point","properties":{"name":"Ely","scalerank":7,"subregion":"Minnesota","latitude":47.900421,"longitude":-91.825698},"id":"Q514934","coordinates":[2449,7941]},{"type":"Point","properties":{"name":"Moorhead","scalerank":7,"subregion":"Minnesota","latitude":46.874308,"longitude":-96.742193},"id":"Q983754","coordinates":[2312,7882]},{"type":"Point","properties":{"name":"St. Cloud","scalerank":7,"subregion":"Minnesota","latitude":45.56121,"longitude":-94.162222},"id":"Q736834","coordinates":[2384,7807]},{"type":"Point","properties":{"name":"Miles City","scalerank":7,"subregion":"Montana","latitude":46.408884,"longitude":-105.839984},"id":"Q960167","coordinates":[2060,7855]},{"type":"Point","properties":{"name":"Bozeman","scalerank":7,"subregion":"Montana","latitude":45.680092,"longitude":-111.037833},"id":"Q569678","coordinates":[1915,7813]},{"type":"Point","properties":{"name":"Glasgow","scalerank":7,"subregion":"Montana","latitude":48.18397,"longitude":-106.635259},"id":"Q955640","coordinates":[2038,7958]},{"type":"Point","properties":{"name":"Dickinson","scalerank":7,"subregion":"North Dakota","latitude":46.883997,"longitude":-102.788801},"id":"Q853559","coordinates":[2145,7883]},{"type":"Point","properties":{"name":"Jamestown","scalerank":7,"subregion":"North Dakota","latitude":46.906012,"longitude":-98.702978},"id":"Q1052658","coordinates":[2258,7884]},{"type":"Point","properties":{"name":"Williston","scalerank":7,"subregion":"North Dakota","latitude":48.156788,"longitude":-103.628001},"id":"Q1999172","coordinates":[2121,7956]},{"type":"Point","properties":{"name":"Lihue","scalerank":7,"subregion":"Hawaii","latitude":21.981512,"longitude":-159.371006},"id":"Q588881","coordinates":[573,6448]},{"type":"Point","properties":{"name":"Wahiawa","scalerank":7,"subregion":"Hawaii","latitude":21.503092,"longitude":-158.023621},"id":"Q2016119","coordinates":[610,6421]},{"type":"Point","properties":{"name":"Wailuku","scalerank":7,"subregion":"Hawaii","latitude":20.891475,"longitude":-156.504721},"id":"Q2087831","coordinates":[653,6386]},{"type":"Point","properties":{"name":"Montpelier","scalerank":7,"subregion":"Idaho","latitude":42.322622,"longitude":-111.296912},"id":"Q984372","coordinates":[1908,7620]},{"type":"Point","properties":{"name":"Twin Falls","scalerank":7,"subregion":"Idaho","latitude":42.560954,"longitude":-114.460569},"id":"Q548384","coordinates":[1820,7634]},{"type":"Point","properties":{"name":"Caldwell","scalerank":7,"subregion":"Idaho","latitude":43.660964,"longitude":-116.670538},"id":"Q849592","coordinates":[1759,7697]},{"type":"Point","properties":{"name":"Salmon","scalerank":7,"subregion":"Idaho","latitude":45.175678,"longitude":-113.894997},"id":"Q1516936","coordinates":[1836,7784]},{"type":"Point","properties":{"name":"Coeur d'Alene","scalerank":7,"subregion":"Idaho","latitude":47.678083,"longitude":-116.779446},"id":"Q499681","coordinates":[1756,7928]},{"type":"Point","properties":{"name":"Richland","scalerank":7,"subregion":"Washington","latitude":46.291811,"longitude":-119.291101},"id":"Q693638","coordinates":[1686,7849]},{"type":"Point","properties":{"name":"Bellingham","scalerank":7,"subregion":"Washington","latitude":48.760136,"longitude":-122.486927},"id":"Q430267","coordinates":[1597,7991]},{"type":"Point","properties":{"name":"Longview","scalerank":7,"subregion":"Washington","latitude":46.13872,"longitude":-122.936951},"id":"Q983801","coordinates":[1585,7840]},{"type":"Point","properties":{"name":"Walla Walla","scalerank":7,"subregion":"Washington","latitude":46.065159,"longitude":-118.341883},"id":"Q222338","coordinates":[1713,7836]},{"type":"Point","properties":{"name":"Aberdeen","scalerank":7,"subregion":"Washington","latitude":46.974896,"longitude":-123.814391},"id":"Q233808","coordinates":[1561,7888]},{"type":"Point","properties":{"name":"Bremerton","scalerank":7,"subregion":"Washington","latitude":47.573596,"longitude":-122.642018},"id":"Q695417","coordinates":[1593,7922]},{"type":"Point","properties":{"name":"Everett","scalerank":7,"subregion":"Washington","latitude":47.960418,"longitude":-122.199968},"id":"Q392599","coordinates":[1605,7945]},{"type":"Point","properties":{"name":"Bullhead City","scalerank":7,"subregion":"Arizona","latitude":35.148176,"longitude":-114.567488},"id":"Q79432","coordinates":[1817,7207]},{"type":"Point","properties":{"name":"Winslow","scalerank":7,"subregion":"Arizona","latitude":35.02361,"longitude":-110.696815},"id":"Q79727","coordinates":[1925,7200]},{"type":"Point","properties":{"name":"Gila Bend","scalerank":7,"subregion":"Arizona","latitude":32.950378,"longitude":-112.724655},"id":"Q991040","coordinates":[1869,7080]},{"type":"Point","properties":{"name":"Tombstone","scalerank":7,"subregion":"Arizona","latitude":31.713141,"longitude":-110.066884},"id":"Q79873","coordinates":[1942,7009]},{"type":"Point","properties":{"name":"Willcox","scalerank":7,"subregion":"Arizona","latitude":32.253211,"longitude":-109.831395},"id":"Q79450","coordinates":[1949,7040]},{"type":"Point","properties":{"name":"Scottsdale","scalerank":7,"subregion":"Arizona","latitude":33.692348,"longitude":-111.86804},"id":"Q49221","coordinates":[1891,7111]},{"type":"Point","properties":{"name":"Kingman","scalerank":7,"subregion":"Arizona","latitude":35.189879,"longitude":-114.052222},"id":"Q79733","coordinates":[1832,7209]},{"type":"Point","properties":{"name":"Grand Canyon","scalerank":7,"subregion":"Arizona","latitude":36.054788,"longitude":-112.138592},"id":"Q182273","coordinates":[1885,7259]},{"type":"Point","properties":{"name":"Arcata","scalerank":7,"subregion":"California","latitude":40.88519,"longitude":-124.088225},"id":"Q631752","coordinates":[1553,7536]},{"type":"Point","properties":{"name":"Stockton","scalerank":7,"subregion":"California","latitude":37.958134,"longitude":-121.289739},"id":"Q49240","coordinates":[1631,7369]},{"type":"Point","properties":{"name":"Barstow","scalerank":7,"subregion":"California","latitude":34.899018,"longitude":-117.021886},"id":"Q499174","coordinates":[1749,7193]},{"type":"Point","properties":{"name":"Victorville","scalerank":7,"subregion":"California","latitude":34.536508,"longitude":-117.290319},"id":"Q495353","coordinates":[1742,7172]},{"type":"Point","properties":{"name":"Pasadena","scalerank":7,"subregion":"California","latitude":34.160381,"longitude":-118.138872},"id":"Q485176","coordinates":[1718,7150]},{"type":"Point","properties":{"name":"Visalia","scalerank":7,"subregion":"California","latitude":36.32503,"longitude":-119.316009},"id":"Q495373","coordinates":[1686,7275]},{"type":"Point","properties":{"name":"El Centro","scalerank":7,"subregion":"California","latitude":32.792377,"longitude":-115.558048},"id":"Q495369","coordinates":[1790,7071]},{"type":"Point","properties":{"name":"San Luis Obispo","scalerank":7,"subregion":"California","latitude":35.283181,"longitude":-120.658589},"id":"Q49012","coordinates":[1648,7215]},{"type":"Point","properties":{"name":"Merced","scalerank":7,"subregion":"California","latitude":37.302618,"longitude":-120.481933},"id":"Q499189","coordinates":[1653,7331]},{"type":"Point","properties":{"name":"Yuba City","scalerank":7,"subregion":"California","latitude":39.141033,"longitude":-121.615766},"id":"Q169948","coordinates":[1622,7437]},{"type":"Point","properties":{"name":"Redding","scalerank":7,"subregion":"California","latitude":40.587043,"longitude":-122.390576},"id":"Q495361","coordinates":[1600,7520]},{"type":"Point","properties":{"name":"Santa Rosa","scalerank":7,"subregion":"California","latitude":38.450404,"longitude":-122.699989},"id":"Q212991","coordinates":[1592,7397]},{"type":"Point","properties":{"name":"Oceanside","scalerank":7,"subregion":"California","latitude":33.220465,"longitude":-117.334968},"id":"Q488924","coordinates":[1740,7094]},{"type":"Point","properties":{"name":"Modesto","scalerank":7,"subregion":"California","latitude":37.655413,"longitude":-120.98999},"id":"Q204561","coordinates":[1639,7351]},{"type":"Point","properties":{"name":"Irvine","scalerank":7,"subregion":"California","latitude":33.680411,"longitude":-117.82995},"id":"Q49219","coordinates":[1727,7122]},{"type":"Point","properties":{"name":"Ukiah","scalerank":7,"subregion":"California","latitude":39.154237,"longitude":-123.210862},"id":"Q837105","coordinates":[1577,7438]},{"type":"Point","properties":{"name":"Needles","scalerank":7,"subregion":"California","latitude":34.848427,"longitude":-114.613351},"id":"Q846591","coordinates":[1816,7190]},{"type":"Point","properties":{"name":"Bishop","scalerank":7,"subregion":"California","latitude":37.363958,"longitude":-118.394076},"id":"Q852658","coordinates":[1711,7334]},{"type":"Point","properties":{"name":"Palm Springs","scalerank":7,"subregion":"California","latitude":33.777356,"longitude":-116.533053},"id":"Q488004","coordinates":[1763,7128]},{"type":"Point","properties":{"name":"Santa Maria","scalerank":7,"subregion":"California","latitude":34.940127,"longitude":-120.436639},"id":"Q643953","coordinates":[1654,7195]},{"type":"Point","properties":{"name":"Tulare","scalerank":7,"subregion":"California","latitude":36.207026,"longitude":-119.344121},"id":"Q616562","coordinates":[1685,7268]},{"type":"Point","properties":{"name":"Mt. Shasta","scalerank":7,"subregion":"California","latitude":41.310358,"longitude":-122.309393},"id":"Q987106","coordinates":[1602,7562]},{"type":"Point","properties":{"name":"Crescent City","scalerank":7,"subregion":"California","latitude":41.756455,"longitude":-124.200492},"id":"Q166866","coordinates":[1550,7587]},{"type":"Point","properties":{"name":"Fort Collins","scalerank":7,"subregion":"Colorado","latitude":40.560688,"longitude":-105.058869},"id":"Q490732","coordinates":[2081,7519]},{"type":"Point","properties":{"name":"Pueblo","scalerank":7,"subregion":"Colorado","latitude":38.280388,"longitude":-104.630007},"id":"Q675576","coordinates":[2093,7387]},{"type":"Point","properties":{"name":"Lamar","scalerank":7,"subregion":"Colorado","latitude":38.086498,"longitude":-102.619406},"id":"Q994475","coordinates":[2149,7376]},{"type":"Point","properties":{"name":"Trinidad","scalerank":7,"subregion":"Colorado","latitude":37.171335,"longitude":-104.506397},"id":"Q74198","coordinates":[2097,7323]},{"type":"Point","properties":{"name":"Gunnison","scalerank":7,"subregion":"Colorado","latitude":38.544765,"longitude":-106.92829},"id":"Q222762","coordinates":[2030,7402]},{"type":"Point","properties":{"name":"Durango","scalerank":7,"subregion":"Colorado","latitude":37.275643,"longitude":-107.879989},"id":"Q1012665","coordinates":[2003,7329]},{"type":"Point","properties":{"name":"Montrose","scalerank":7,"subregion":"Colorado","latitude":38.477275,"longitude":-107.86552},"id":"Q994436","coordinates":[2004,7399]},{"type":"Point","properties":{"name":"Craig","scalerank":7,"subregion":"Colorado","latitude":40.51728,"longitude":-107.550397},"id":"Q989873","coordinates":[2012,7516]},{"type":"Point","properties":{"name":"Boulder","scalerank":7,"subregion":"Colorado","latitude":40.038446,"longitude":-105.246093},"id":"Q192517","coordinates":[2076,7487]},{"type":"Point","properties":{"name":"Boulder City","scalerank":7,"subregion":"Nevada","latitude":35.978953,"longitude":-114.83158},"id":"Q858801","coordinates":[1810,7255]},{"type":"Point","properties":{"name":"Winnemucca","scalerank":7,"subregion":"Nevada","latitude":40.973376,"longitude":-117.734685},"id":"Q983426","coordinates":[1729,7542]},{"type":"Point","properties":{"name":"Roswell","scalerank":7,"subregion":"New Mexico","latitude":33.394537,"longitude":-104.522468},"id":"Q33561","coordinates":[2096,7106]},{"type":"Point","properties":{"name":"Clovis","scalerank":7,"subregion":"New Mexico","latitude":34.405069,"longitude":-103.204771},"id":"Q985559","coordinates":[2133,7164]},{"type":"Point","properties":{"name":"Las Cruces","scalerank":7,"subregion":"New Mexico","latitude":32.312613,"longitude":-106.777808},"id":"Q33264","coordinates":[2034,7044]},{"type":"Point","properties":{"name":"Hobbs","scalerank":7,"subregion":"New Mexico","latitude":32.712614,"longitude":-103.140614},"id":"Q1010782","coordinates":[2135,7067]},{"type":"Point","properties":{"name":"Socorro","scalerank":7,"subregion":"New Mexico","latitude":34.062119,"longitude":-106.89899},"id":"Q503818","coordinates":[2030,7144]},{"type":"Point","properties":{"name":"Gallup","scalerank":7,"subregion":"New Mexico","latitude":35.524071,"longitude":-108.733994},"id":"Q577981","coordinates":[1979,7229]},{"type":"Point","properties":{"name":"Raton","scalerank":7,"subregion":"New Mexico","latitude":36.897398,"longitude":-104.439889},"id":"Q990990","coordinates":[2099,7308]},{"type":"Point","properties":{"name":"Tucumcari","scalerank":7,"subregion":"New Mexico","latitude":35.169803,"longitude":-103.725514},"id":"Q986001","coordinates":[2119,7208]},{"type":"Point","properties":{"name":"Roseburg","scalerank":7,"subregion":"Oregon","latitude":43.218433,"longitude":-123.356099},"id":"Q846170","coordinates":[1573,7672]},{"type":"Point","properties":{"name":"Pendleton","scalerank":7,"subregion":"Oregon","latitude":45.672599,"longitude":-118.787489},"id":"Q944507","coordinates":[1700,7813]},{"type":"Point","properties":{"name":"John Day","scalerank":7,"subregion":"Oregon","latitude":44.416525,"longitude":-118.952026},"id":"Q1282972","coordinates":[1696,7741]},{"type":"Point","properties":{"name":"Grants Pass","scalerank":7,"subregion":"Oregon","latitude":42.43954,"longitude":-123.327186},"id":"Q143405","coordinates":[1574,7627]},{"type":"Point","properties":{"name":"Corvallis","scalerank":7,"subregion":"Oregon","latitude":44.572356,"longitude":-123.279979},"id":"Q748474","coordinates":[1575,7750]},{"type":"Point","properties":{"name":"Albany","scalerank":7,"subregion":"Oregon","latitude":44.620492,"longitude":-123.086942},"id":"Q516817","coordinates":[1581,7752]},{"type":"Point","properties":{"name":"Astoria","scalerank":7,"subregion":"Oregon","latitude":46.188381,"longitude":-123.829997},"id":"Q490724","coordinates":[1560,7843]},{"type":"Point","properties":{"name":"Logan","scalerank":7,"subregion":"Utah","latitude":41.73594,"longitude":-111.833598},"id":"Q482657","coordinates":[1893,7586]},{"type":"Point","properties":{"name":"Parowan","scalerank":7,"subregion":"Utah","latitude":37.842534,"longitude":-112.827207},"id":"Q129989","coordinates":[1866,7362]},{"type":"Point","properties":{"name":"Kanab","scalerank":7,"subregion":"Utah","latitude":37.047389,"longitude":-112.525494},"id":"Q130069","coordinates":[1874,7316]},{"type":"Point","properties":{"name":"Monticello","scalerank":7,"subregion":"Utah","latitude":37.871783,"longitude":-109.3422},"id":"Q130063","coordinates":[1963,7364]},{"type":"Point","properties":{"name":"Moab","scalerank":7,"subregion":"Utah","latitude":38.573704,"longitude":-109.54919},"id":"Q130134","coordinates":[1957,7404]},{"type":"Point","properties":{"name":"Price","scalerank":7,"subregion":"Utah","latitude":39.599791,"longitude":-110.810017},"id":"Q482891","coordinates":[1922,7463]},{"type":"Point","properties":{"name":"Cedar City","scalerank":7,"subregion":"Utah","latitude":37.677428,"longitude":-113.061094},"id":"Q487212","coordinates":[1859,7353]},{"type":"Point","properties":{"name":"Vernal","scalerank":7,"subregion":"Utah","latitude":40.455398,"longitude":-109.528002},"id":"Q482828","coordinates":[1957,7512]},{"type":"Point","properties":{"name":"Ogden","scalerank":7,"subregion":"Utah","latitude":41.232379,"longitude":-111.968034},"id":"Q52471","coordinates":[1890,7557]},{"type":"Point","properties":{"name":"Green River","scalerank":7,"subregion":"Wyoming","latitude":41.514558,"longitude":-109.464983},"id":"Q983538","coordinates":[1959,7573]},{"type":"Point","properties":{"name":"Rawlins","scalerank":7,"subregion":"Wyoming","latitude":41.790665,"longitude":-107.234292},"id":"Q958137","coordinates":[2021,7589]},{"type":"Point","properties":{"name":"Douglas","scalerank":7,"subregion":"Wyoming","latitude":42.756472,"longitude":-105.384534},"id":"Q983438","coordinates":[2072,7645]},{"type":"Point","properties":{"name":"Riverton","scalerank":7,"subregion":"Wyoming","latitude":43.02816,"longitude":-108.395048},"id":"Q603240","coordinates":[1989,7661]},{"type":"Point","properties":{"name":"Thermopolis","scalerank":7,"subregion":"Wyoming","latitude":43.645978,"longitude":-108.214672},"id":"Q1020393","coordinates":[1994,7696]},{"type":"Point","properties":{"name":"Gillette","scalerank":7,"subregion":"Wyoming","latitude":44.283174,"longitude":-105.50525},"id":"Q919040","coordinates":[2069,7733]},{"type":"Point","properties":{"name":"Jonesboro","scalerank":7,"subregion":"Arkansas","latitude":35.842578,"longitude":-90.704164},"id":"Q61455","coordinates":[2480,7247]},{"type":"Point","properties":{"name":"Texarkana","scalerank":7,"subregion":"Arkansas","latitude":33.442105,"longitude":-94.037475},"id":"Q79438","coordinates":[2388,7109]},{"type":"Point","properties":{"name":"Pine Bluff","scalerank":7,"subregion":"Arkansas","latitude":34.228698,"longitude":-92.003051},"id":"Q80012","coordinates":[2444,7154]},{"type":"Point","properties":{"name":"Hot Springs","scalerank":7,"subregion":"Arkansas","latitude":34.503952,"longitude":-93.055003},"id":"Q79924","coordinates":[2415,7170]},{"type":"Point","properties":{"name":"Fort Smith","scalerank":7,"subregion":"Arkansas","latitude":35.386224,"longitude":-94.398357},"id":"Q79535","coordinates":[2378,7221]},{"type":"Point","properties":{"name":"Fayetteville","scalerank":7,"subregion":"Arkansas","latitude":36.062978,"longitude":-94.157209},"id":"Q219526","coordinates":[2384,7260]},{"type":"Point","properties":{"name":"Conway","scalerank":7,"subregion":"Arkansas","latitude":35.091281,"longitude":-92.451318},"id":"Q79853","coordinates":[2432,7204]},{"type":"Point","properties":{"name":"El Dorado","scalerank":7,"subregion":"Arkansas","latitude":33.213927,"longitude":-92.66252},"id":"Q79489","coordinates":[2426,7095]},{"type":"Point","properties":{"name":"Davenport","scalerank":7,"subregion":"Iowa","latitude":41.553987,"longitude":-90.58753},"id":"Q26887","coordinates":[2483,7576]},{"type":"Point","properties":{"name":"Burlington","scalerank":7,"subregion":"Iowa","latitude":40.807934,"longitude":-91.11277},"id":"Q580182","coordinates":[2469,7533]},{"type":"Point","properties":{"name":"Dubuque","scalerank":7,"subregion":"Iowa","latitude":42.500932,"longitude":-90.664451},"id":"Q493794","coordinates":[2481,7630]},{"type":"Point","properties":{"name":"Waterloo","scalerank":7,"subregion":"Iowa","latitude":42.493154,"longitude":-92.342798},"id":"Q496381","coordinates":[2435,7630]},{"type":"Point","properties":{"name":"Sioux City","scalerank":7,"subregion":"Iowa","latitude":42.500389,"longitude":-96.399992},"id":"Q489255","coordinates":[2322,7630]},{"type":"Point","properties":{"name":"Council Bluffs","scalerank":7,"subregion":"Iowa","latitude":41.262273,"longitude":-95.8608},"id":"Q695565","coordinates":[2337,7559]},{"type":"Point","properties":{"name":"Ames","scalerank":7,"subregion":"Iowa","latitude":42.053853,"longitude":-93.619723},"id":"Q470273","coordinates":[2399,7603]},{"type":"Point","properties":{"name":"Mason City","scalerank":7,"subregion":"Iowa","latitude":43.154018,"longitude":-93.200833},"id":"Q1444028","coordinates":[2411,7668]},{"type":"Point","properties":{"name":"Emporia","scalerank":7,"subregion":"Kansas","latitude":38.404231,"longitude":-96.181375},"id":"Q1583523","coordinates":[2328,7394]},{"type":"Point","properties":{"name":"Salina","scalerank":7,"subregion":"Kansas","latitude":38.82467,"longitude":-97.607179},"id":"Q1650620","coordinates":[2288,7419]},{"type":"Point","properties":{"name":"Dodge City","scalerank":7,"subregion":"Kansas","latitude":37.760058,"longitude":-100.018195},"id":"Q647127","coordinates":[2221,7357]},{"type":"Point","properties":{"name":"Coffeyville","scalerank":7,"subregion":"Kansas","latitude":37.038061,"longitude":-95.626318},"id":"Q996804","coordinates":[2343,7316]},{"type":"Point","properties":{"name":"St. Charles","scalerank":7,"subregion":"Missouri","latitude":38.784285,"longitude":-90.506166},"id":"Q773432","coordinates":[2486,7416]},{"type":"Point","properties":{"name":"Poplar Bluff","scalerank":7,"subregion":"Missouri","latitude":36.760197,"longitude":-90.402684},"id":"Q955462","coordinates":[2489,7300]},{"type":"Point","properties":{"name":"Joplin","scalerank":7,"subregion":"Missouri","latitude":37.084596,"longitude":-94.513079},"id":"Q317865","coordinates":[2374,7318]},{"type":"Point","properties":{"name":"Columbia","scalerank":7,"subregion":"Missouri","latitude":38.952079,"longitude":-92.33391},"id":"Q59670","coordinates":[2435,7426]},{"type":"Point","properties":{"name":"St. Joseph","scalerank":7,"subregion":"Missouri","latitude":39.769031,"longitude":-94.846392},"id":"Q745120","coordinates":[2365,7473]},{"type":"Point","properties":{"name":"McCook","scalerank":7,"subregion":"Nebraska","latitude":40.205594,"longitude":-100.626168},"id":"Q961951","coordinates":[2205,7498]},{"type":"Point","properties":{"name":"Norfolk","scalerank":7,"subregion":"Nebraska","latitude":42.028712,"longitude":-97.433598},"id":"Q959951","coordinates":[2293,7603]},{"type":"Point","properties":{"name":"North Platte","scalerank":7,"subregion":"Nebraska","latitude":41.136286,"longitude":-100.770501},"id":"Q989960","coordinates":[2201,7552]},{"type":"Point","properties":{"name":"Sidney","scalerank":7,"subregion":"Nebraska","latitude":41.1398,"longitude":-102.978273},"id":"Q966516","coordinates":[2139,7552]},{"type":"Point","properties":{"name":"Scottsbluff","scalerank":7,"subregion":"Nebraska","latitude":41.867508,"longitude":-103.660686},"id":"Q959484","coordinates":[2120,7594]},{"type":"Point","properties":{"name":"Chadron","scalerank":7,"subregion":"Nebraska","latitude":42.827914,"longitude":-103.003077},"id":"Q955662","coordinates":[2139,7649]},{"type":"Point","properties":{"name":"Lawton","scalerank":7,"subregion":"Oklahoma","latitude":34.599037,"longitude":-98.409973},"id":"Q503336","coordinates":[2266,7175]},{"type":"Point","properties":{"name":"Norman","scalerank":7,"subregion":"Oklahoma","latitude":35.227913,"longitude":-97.344146},"id":"Q40347","coordinates":[2293,7211]},{"type":"Point","properties":{"name":"Muskogee","scalerank":7,"subregion":"Oklahoma","latitude":35.748217,"longitude":-95.369435},"id":"Q524233","coordinates":[2351,7241]},{"type":"Point","properties":{"name":"Ponca City","scalerank":7,"subregion":"Oklahoma","latitude":36.707358,"longitude":-97.085273},"id":"Q1778752","coordinates":[2303,7297]},{"type":"Point","properties":{"name":"Shawnee","scalerank":7,"subregion":"Oklahoma","latitude":35.34279,"longitude":-96.933784},"id":"Q843999","coordinates":[2307,7218]},{"type":"Point","properties":{"name":"Woodward","scalerank":7,"subregion":"Oklahoma","latitude":36.433421,"longitude":-99.39769},"id":"Q2173029","coordinates":[2239,7281]},{"type":"Point","properties":{"name":"Guymon","scalerank":7,"subregion":"Oklahoma","latitude":36.685809,"longitude":-101.479501},"id":"Q1920861","coordinates":[2181,7295]},{"type":"Point","properties":{"name":"Yankton","scalerank":7,"subregion":"South Dakota","latitude":42.88202,"longitude":-97.39249},"id":"Q989288","coordinates":[2294,7652]},{"type":"Point","properties":{"name":"Brookings","scalerank":7,"subregion":"South Dakota","latitude":44.306765,"longitude":-96.78803},"id":"Q1650462","coordinates":[2311,7734]},{"type":"Point","properties":{"name":"Mitchell","scalerank":7,"subregion":"South Dakota","latitude":43.714294,"longitude":-98.026198},"id":"Q1988986","coordinates":[2277,7700]},{"type":"Point","properties":{"name":"Aberdeen","scalerank":7,"subregion":"South Dakota","latitude":45.465118,"longitude":-98.486402},"id":"Q236713","coordinates":[2264,7801]},{"type":"Point","properties":{"name":"Mobridge","scalerank":7,"subregion":"South Dakota","latitude":45.540126,"longitude":-100.434707},"id":"Q2284683","coordinates":[2210,7805]},{"type":"Point","properties":{"name":"Houma","scalerank":7,"subregion":"Louisiana","latitude":29.595931,"longitude":-90.719486},"id":"Q388503","coordinates":[2480,6887]},{"type":"Point","properties":{"name":"Monroe","scalerank":7,"subregion":"Louisiana","latitude":32.509604,"longitude":-92.119194},"id":"Q947115","coordinates":[2441,7055]},{"type":"Point","properties":{"name":"Conroe","scalerank":7,"subregion":"Texas","latitude":30.312063,"longitude":-95.455864},"id":"Q260282","coordinates":[2348,6928]},{"type":"Point","properties":{"name":"Nacogdoches","scalerank":7,"subregion":"Texas","latitude":31.603742,"longitude":-94.655267},"id":"Q970482","coordinates":[2370,7003]},{"type":"Point","properties":{"name":"Eagle Pass","scalerank":7,"subregion":"Texas","latitude":28.711024,"longitude":-100.489277},"id":"Q982486","coordinates":[2208,6836]},{"type":"Point","properties":{"name":"Edinburg","scalerank":7,"subregion":"Texas","latitude":26.303187,"longitude":-98.159962},"id":"Q978246","coordinates":[2273,6698]},{"type":"Point","properties":{"name":"Kingsville","scalerank":7,"subregion":"Texas","latitude":27.515955,"longitude":-97.855846},"id":"Q970495","coordinates":[2282,6767]},{"type":"Point","properties":{"name":"Port Arthur","scalerank":7,"subregion":"Texas","latitude":29.898988,"longitude":-93.928593},"id":"Q45400","coordinates":[2391,6905]},{"type":"Point","properties":{"name":"Huntsville","scalerank":7,"subregion":"Texas","latitude":30.723769,"longitude":-95.550587},"id":"Q864885","coordinates":[2346,6952]},{"type":"Point","properties":{"name":"Killeen","scalerank":7,"subregion":"Texas","latitude":31.117285,"longitude":-97.727482},"id":"Q128228","coordinates":[2285,6975]},{"type":"Point","properties":{"name":"Lufkin","scalerank":7,"subregion":"Texas","latitude":31.338435,"longitude":-94.72888},"id":"Q975590","coordinates":[2368,6987]},{"type":"Point","properties":{"name":"Del Rio","scalerank":7,"subregion":"Texas","latitude":29.362948,"longitude":-100.896384},"id":"Q970792","coordinates":[2197,6874]},{"type":"Point","properties":{"name":"San Angelo","scalerank":7,"subregion":"Texas","latitude":31.464008,"longitude":-100.436697},"id":"Q925598","coordinates":[2210,6995]},{"type":"Point","properties":{"name":"Sherman","scalerank":7,"subregion":"Texas","latitude":33.635995,"longitude":-96.608584},"id":"Q982379","coordinates":[2316,7120]},{"type":"Point","properties":{"name":"Beaumont","scalerank":7,"subregion":"Texas","latitude":30.086263,"longitude":-94.101683},"id":"Q128282","coordinates":[2386,6915]},{"type":"Point","properties":{"name":"Bay City","scalerank":7,"subregion":"Texas","latitude":28.981111,"longitude":-95.96436},"id":"Q812071","coordinates":[2334,6852]},{"type":"Point","properties":{"name":"Port Lavaca","scalerank":7,"subregion":"Texas","latitude":28.616017,"longitude":-96.629694},"id":"Q982477","coordinates":[2316,6831]},{"type":"Point","properties":{"name":"Falfurrias","scalerank":7,"subregion":"Texas","latitude":27.226903,"longitude":-98.144899},"id":"Q387737","coordinates":[2274,6751]},{"type":"Point","properties":{"name":"Beeville","scalerank":7,"subregion":"Texas","latitude":28.405978,"longitude":-97.75084},"id":"Q814163","coordinates":[2284,6819]},{"type":"Point","properties":{"name":"Fort Stockton","scalerank":7,"subregion":"Texas","latitude":30.891692,"longitude":-102.884997},"id":"Q979901","coordinates":[2142,6962]},{"type":"Point","properties":{"name":"Pecos","scalerank":7,"subregion":"Texas","latitude":31.415794,"longitude":-103.499895},"id":"Q978232","coordinates":[2125,6992]},{"type":"Point","properties":{"name":"Dumas","scalerank":7,"subregion":"Texas","latitude":35.862396,"longitude":-101.966888},"id":"Q975768","coordinates":[2167,7248]},{"type":"Point","properties":{"name":"Denton","scalerank":7,"subregion":"Texas","latitude":33.215762,"longitude":-97.128837},"id":"Q128306","coordinates":[2302,7096]},{"type":"Point","properties":{"name":"Midland","scalerank":7,"subregion":"Texas","latitude":32.030718,"longitude":-102.0975},"id":"Q128321","coordinates":[2164,7027]},{"type":"Point","properties":{"name":"Temple","scalerank":7,"subregion":"Texas","latitude":31.102093,"longitude":-97.363008},"id":"Q427075","coordinates":[2295,6974]},{"type":"Point","properties":{"name":"New Haven","scalerank":7,"subregion":"Connecticut","latitude":41.330383,"longitude":-72.900005},"id":"Q49145","coordinates":[2975,7563]},{"type":"Point","properties":{"name":"Lowell","scalerank":7,"subregion":"Massachusetts","latitude":42.633688,"longitude":-71.316691},"id":"Q49162","coordinates":[3019,7638]},{"type":"Point","properties":{"name":"Worcester","scalerank":7,"subregion":"Massachusetts","latitude":42.270429,"longitude":-71.800021},"id":"Q49179","coordinates":[3005,7617]},{"type":"Point","properties":{"name":"Manchester","scalerank":7,"subregion":"New Hampshire","latitude":42.995992,"longitude":-71.455287},"id":"Q48370","coordinates":[3015,7659]},{"type":"Point","properties":{"name":"Newport","scalerank":7,"subregion":"Rhode Island","latitude":41.490399,"longitude":-71.313358},"id":"Q54264","coordinates":[3019,7572]},{"type":"Point","properties":{"name":"Dothan","scalerank":7,"subregion":"Alabama","latitude":31.223455,"longitude":-85.390587},"id":"Q79519","coordinates":[2628,6981]},{"type":"Point","properties":{"name":"Tuscaloosa","scalerank":7,"subregion":"Alabama","latitude":33.225115,"longitude":-87.544176},"id":"Q79580","coordinates":[2568,7096]},{"type":"Point","properties":{"name":"Gadsden","scalerank":7,"subregion":"Alabama","latitude":34.01455,"longitude":-86.006647},"id":"Q79389","coordinates":[2611,7142]},{"type":"Point","properties":{"name":"Enterprise","scalerank":7,"subregion":"Alabama","latitude":31.327815,"longitude":-85.843996},"id":"Q79260","coordinates":[2615,6987]},{"type":"Point","properties":{"name":"Selma","scalerank":7,"subregion":"Alabama","latitude":32.407568,"longitude":-87.021159},"id":"Q79941","coordinates":[2582,7049]},{"type":"Point","properties":{"name":"Coral Gables","scalerank":7,"subregion":"Florida","latitude":25.715419,"longitude":-80.291079},"id":"Q427559","coordinates":[2769,6664]},{"type":"Point","properties":{"name":"Cape Coral","scalerank":7,"subregion":"Florida","latitude":26.60291,"longitude":-81.979684},"id":"Q462789","coordinates":[2723,6715]},{"type":"Point","properties":{"name":"Naples","scalerank":7,"subregion":"Florida","latitude":26.142059,"longitude":-81.794992},"id":"Q257830","coordinates":[2728,6688]},{"type":"Point","properties":{"name":"Fort Pierce","scalerank":7,"subregion":"Florida","latitude":27.446786,"longitude":-80.325805},"id":"Q584340","coordinates":[2768,6763]},{"type":"Point","properties":{"name":"Kissimmee","scalerank":7,"subregion":"Florida","latitude":28.292057,"longitude":-81.407781},"id":"Q583894","coordinates":[2738,6812]},{"type":"Point","properties":{"name":"Titusville","scalerank":7,"subregion":"Florida","latitude":28.612348,"longitude":-80.807791},"id":"Q983779","coordinates":[2755,6830]},{"type":"Point","properties":{"name":"St. Augustine","scalerank":7,"subregion":"Florida","latitude":29.894879,"longitude":-81.314711},"id":"Q487988","coordinates":[2741,6904]},{"type":"Point","properties":{"name":"Ocala","scalerank":7,"subregion":"Florida","latitude":29.187352,"longitude":-82.140268},"id":"Q918195","coordinates":[2718,6864]},{"type":"Point","properties":{"name":"Fort Lauderdale","scalerank":7,"subregion":"Florida","latitude":26.136065,"longitude":-80.141786},"id":"Q165972","coordinates":[2774,6688]},{"type":"Point","properties":{"name":"Apalachicola","scalerank":7,"subregion":"Florida","latitude":29.725613,"longitude":-84.992523},"id":"Q617392","coordinates":[2639,6895]},{"type":"Point","properties":{"name":"Vero Beach","scalerank":7,"subregion":"Florida","latitude":27.642252,"longitude":-80.391124},"id":"Q969026","coordinates":[2767,6775]},{"type":"Point","properties":{"name":"Valdosta","scalerank":7,"subregion":"Georgia","latitude":30.832858,"longitude":-83.278597},"id":"Q1010240","coordinates":[2686,6958]},{"type":"Point","properties":{"name":"Albany","scalerank":7,"subregion":"Georgia","latitude":31.57873,"longitude":-84.15583},"id":"Q285599","coordinates":[2662,7001]},{"type":"Point","properties":{"name":"Athens","scalerank":7,"subregion":"Georgia","latitude":33.961298,"longitude":-83.378022},"id":"Q203263","coordinates":[2684,7139]},{"type":"Point","properties":{"name":"Macon","scalerank":7,"subregion":"Georgia","latitude":32.850384,"longitude":-83.630048},"id":"Q219656","coordinates":[2677,7075]},{"type":"Point","properties":{"name":"Columbus","scalerank":7,"subregion":"Georgia","latitude":32.470433,"longitude":-84.980017},"id":"Q239870","coordinates":[2639,7053]},{"type":"Point","properties":{"name":"Douglas","scalerank":7,"subregion":"Georgia","latitude":31.507778,"longitude":-82.85069},"id":"Q1004791","coordinates":[2698,6997]},{"type":"Point","properties":{"name":"Dublin","scalerank":7,"subregion":"Georgia","latitude":32.537457,"longitude":-82.918283},"id":"Q2671021","coordinates":[2696,7057]},{"type":"Point","properties":{"name":"Gulfport","scalerank":7,"subregion":"Mississippi","latitude":30.367564,"longitude":-89.092764},"id":"Q490587","coordinates":[2525,6932]},{"type":"Point","properties":{"name":"Hattiesburg","scalerank":7,"subregion":"Mississippi","latitude":31.327273,"longitude":-89.290245},"id":"Q384464","coordinates":[2519,6987]},{"type":"Point","properties":{"name":"Tupelo","scalerank":7,"subregion":"Mississippi","latitude":34.257921,"longitude":-88.70333},"id":"Q667727","coordinates":[2536,7156]},{"type":"Point","properties":{"name":"Greenville","scalerank":7,"subregion":"Mississippi","latitude":33.410375,"longitude":-91.061688},"id":"Q988112","coordinates":[2470,7107]},{"type":"Point","properties":{"name":"Natchez","scalerank":7,"subregion":"Mississippi","latitude":31.554804,"longitude":-91.387507},"id":"Q944044","coordinates":[2461,7000]},{"type":"Point","properties":{"name":"Florence","scalerank":7,"subregion":"South Carolina","latitude":34.195676,"longitude":-79.762791},"id":"Q597842","coordinates":[2784,7152]},{"type":"Point","properties":{"name":"Greenville","scalerank":7,"subregion":"South Carolina","latitude":34.852923,"longitude":-82.394155},"id":"Q574192","coordinates":[2711,7190]},{"type":"Point","properties":{"name":"Sumter","scalerank":7,"subregion":"South Carolina","latitude":33.920654,"longitude":-80.341722},"id":"Q1010203","coordinates":[2768,7136]},{"type":"Point","properties":{"name":"Anderson","scalerank":7,"subregion":"South Carolina","latitude":34.503745,"longitude":-82.650263},"id":"Q1150893","coordinates":[2704,7170]},{"type":"Point","properties":{"name":"Aiken","scalerank":7,"subregion":"South Carolina","latitude":33.549463,"longitude":-81.720604},"id":"Q404887","coordinates":[2730,7115]},{"type":"Point","properties":{"name":"Beaufort","scalerank":7,"subregion":"South Carolina","latitude":32.432166,"longitude":-80.689504},"id":"Q813376","coordinates":[2758,7050]},{"type":"Point","properties":{"name":"Rock Hill","scalerank":7,"subregion":"South Carolina","latitude":34.940385,"longitude":-81.03},"id":"Q960774","coordinates":[2749,7195]},{"type":"Point","properties":{"name":"Decatur","scalerank":7,"subregion":"Illinois","latitude":39.840706,"longitude":-88.954736},"id":"Q506325","coordinates":[2529,7477]},{"type":"Point","properties":{"name":"Alton","scalerank":7,"subregion":"Illinois","latitude":38.890997,"longitude":-90.184222},"id":"Q443852","coordinates":[2495,7422]},{"type":"Point","properties":{"name":"Quincy","scalerank":7,"subregion":"Illinois","latitude":39.935972,"longitude":-91.409728},"id":"Q575750","coordinates":[2461,7483]},{"type":"Point","properties":{"name":"Urbana","scalerank":7,"subregion":"Illinois","latitude":40.109992,"longitude":-88.204188},"id":"Q462184","coordinates":[2550,7493]},{"type":"Point","properties":{"name":"Bloomington","scalerank":7,"subregion":"Illinois","latitude":40.484595,"longitude":-88.993597},"id":"Q577802","coordinates":[2528,7514]},{"type":"Point","properties":{"name":"Kankakee","scalerank":7,"subregion":"Illinois","latitude":41.12037,"longitude":-87.861108},"id":"Q578351","coordinates":[2559,7551]},{"type":"Point","properties":{"name":"Waukegan","scalerank":7,"subregion":"Illinois","latitude":42.364041,"longitude":-87.844726},"id":"Q578289","coordinates":[2560,7622]},{"type":"Point","properties":{"name":"Aurora","scalerank":7,"subregion":"Illinois","latitude":41.765395,"longitude":-88.299996},"id":"Q22595","coordinates":[2547,7588]},{"type":"Point","properties":{"name":"Carbondale","scalerank":7,"subregion":"Illinois","latitude":37.72683,"longitude":-89.22025},"id":"Q577511","coordinates":[2521,7355]},{"type":"Point","properties":{"name":"Belleville","scalerank":7,"subregion":"Illinois","latitude":38.525154,"longitude":-90.000228},"id":"Q79892","coordinates":[2500,7401]},{"type":"Point","properties":{"name":"Bloomington","scalerank":7,"subregion":"Indiana","latitude":39.165657,"longitude":-86.526409},"id":"Q490385","coordinates":[2596,7438]},{"type":"Point","properties":{"name":"Muncie","scalerank":7,"subregion":"Indiana","latitude":40.19376,"longitude":-85.386375},"id":"Q932981","coordinates":[2628,7497]},{"type":"Point","properties":{"name":"Kokomo","scalerank":7,"subregion":"Indiana","latitude":40.486765,"longitude":-86.133642},"id":"Q913209","coordinates":[2607,7514]},{"type":"Point","properties":{"name":"Gary","scalerank":7,"subregion":"Indiana","latitude":41.580394,"longitude":-87.330003},"id":"Q184116","coordinates":[2574,7577]},{"type":"Point","properties":{"name":"Fort Wayne","scalerank":7,"subregion":"Indiana","latitude":41.080398,"longitude":-85.129982},"id":"Q49268","coordinates":[2635,7548]},{"type":"Point","properties":{"name":"Covington","scalerank":7,"subregion":"Kentucky","latitude":39.084008,"longitude":-84.508599},"id":"Q747599","coordinates":[2652,7434]},{"type":"Point","properties":{"name":"Bowling Green","scalerank":7,"subregion":"Kentucky","latitude":36.9907,"longitude":-86.443649},"id":"Q694545","coordinates":[2599,7313]},{"type":"Point","properties":{"name":"Paducah","scalerank":7,"subregion":"Kentucky","latitude":37.083717,"longitude":-88.600003},"id":"Q984377","coordinates":[2539,7318]},{"type":"Point","properties":{"name":"Owensboro","scalerank":7,"subregion":"Kentucky","latitude":37.774579,"longitude":-87.113324},"id":"Q494295","coordinates":[2580,7358]},{"type":"Point","properties":{"name":"Jacksonville","scalerank":7,"subregion":"North Carolina","latitude":34.754324,"longitude":-77.430556},"id":"Q986369","coordinates":[2849,7184]},{"type":"Point","properties":{"name":"Goldsboro","scalerank":7,"subregion":"North Carolina","latitude":35.385139,"longitude":-77.993054},"id":"Q367400","coordinates":[2833,7221]},{"type":"Point","properties":{"name":"Greenville","scalerank":7,"subregion":"North Carolina","latitude":35.612877,"longitude":-77.366684},"id":"Q1989904","coordinates":[2851,7234]},{"type":"Point","properties":{"name":"Fayetteville","scalerank":7,"subregion":"North Carolina","latitude":35.062936,"longitude":-78.883594},"id":"Q331104","coordinates":[2808,7201]},{"type":"Point","properties":{"name":"Hickory","scalerank":7,"subregion":"North Carolina","latitude":35.733489,"longitude":-81.341402},"id":"Q2028564","coordinates":[2740,7241]},{"type":"Point","properties":{"name":"Asheville","scalerank":7,"subregion":"North Carolina","latitude":35.601198,"longitude":-82.554145},"id":"Q648501","coordinates":[2707,7233]},{"type":"Point","properties":{"name":"Winston-Salem","scalerank":7,"subregion":"North Carolina","latitude":36.105431,"longitude":-80.259995},"id":"Q49227","coordinates":[2770,7262]},{"type":"Point","properties":{"name":"Kitty Hawk","scalerank":7,"subregion":"North Carolina","latitude":36.077319,"longitude":-75.704718},"id":"Q628311","coordinates":[2897,7260]},{"type":"Point","properties":{"name":"Akron","scalerank":7,"subregion":"Ohio","latitude":41.070399,"longitude":-81.519996},"id":"Q163132","coordinates":[2735,7548]},{"type":"Point","properties":{"name":"Lima","scalerank":7,"subregion":"Ohio","latitude":40.742874,"longitude":-84.105265},"id":"Q983974","coordinates":[2663,7529]},{"type":"Point","properties":{"name":"Oak Ridge","scalerank":7,"subregion":"Tennessee","latitude":36.010656,"longitude":-84.269725},"id":"Q48809","coordinates":[2659,7257]},{"type":"Point","properties":{"name":"Murfreesboro","scalerank":7,"subregion":"Tennessee","latitude":35.845963,"longitude":-86.390267},"id":"Q501766","coordinates":[2600,7247]},{"type":"Point","properties":{"name":"Clarksville","scalerank":7,"subregion":"Tennessee","latitude":36.530082,"longitude":-87.359433},"id":"Q328941","coordinates":[2573,7286]},{"type":"Point","properties":{"name":"Jackson","scalerank":7,"subregion":"Tennessee","latitude":35.614866,"longitude":-88.813892},"id":"Q985409","coordinates":[2533,7234]},{"type":"Point","properties":{"name":"Alexandria","scalerank":7,"subregion":"Virginia","latitude":38.820433,"longitude":-77.099982},"id":"Q88","coordinates":[2859,7417]},{"type":"Point","properties":{"name":"Fredericksburg","scalerank":7,"subregion":"Virginia","latitude":38.303513,"longitude":-77.460786},"id":"Q492342","coordinates":[2848,7389]},{"type":"Point","properties":{"name":"Roanoke","scalerank":7,"subregion":"Virginia","latitude":37.271199,"longitude":-79.941617},"id":"Q501796","coordinates":[2779,7329]},{"type":"Point","properties":{"name":"Danville","scalerank":7,"subregion":"Virginia","latitude":36.586254,"longitude":-79.39532},"id":"Q511922","coordinates":[2794,7290]},{"type":"Point","properties":{"name":"Winchester","scalerank":7,"subregion":"Virginia","latitude":39.178731,"longitude":-78.166635},"id":"Q492355","coordinates":[2828,7439]},{"type":"Point","properties":{"name":"Bristol","scalerank":7,"subregion":"Virginia","latitude":36.611524,"longitude":-82.176002},"id":"Q917821","coordinates":[2717,7291]},{"type":"Point","properties":{"name":"Superior","scalerank":7,"subregion":"Wisconsin","latitude":46.721243,"longitude":-92.103898},"id":"Q984577","coordinates":[2441,7873]},{"type":"Point","properties":{"name":"West Bend","scalerank":7,"subregion":"Wisconsin","latitude":43.425707,"longitude":-88.183336},"id":"Q989459","coordinates":[2550,7684]},{"type":"Point","properties":{"name":"Fond du Lac","scalerank":7,"subregion":"Wisconsin","latitude":43.773438,"longitude":-88.446912},"id":"Q985584","coordinates":[2543,7704]},{"type":"Point","properties":{"name":"Oshkosh","scalerank":7,"subregion":"Wisconsin","latitude":44.025102,"longitude":-88.542513},"id":"Q936741","coordinates":[2540,7718]},{"type":"Point","properties":{"name":"Rhinelander","scalerank":7,"subregion":"Wisconsin","latitude":45.639913,"longitude":-89.412072},"id":"Q1002641","coordinates":[2516,7811]},{"type":"Point","properties":{"name":"Racine","scalerank":7,"subregion":"Wisconsin","latitude":42.727714,"longitude":-87.811834},"id":"Q40340","coordinates":[2561,7643]},{"type":"Point","properties":{"name":"Marinette","scalerank":7,"subregion":"Wisconsin","latitude":45.100385,"longitude":-87.630476},"id":"Q1013700","coordinates":[2566,7780]},{"type":"Point","properties":{"name":"Wheeling","scalerank":7,"subregion":"West Virginia","latitude":40.06431,"longitude":-80.721078},"id":"Q838112","coordinates":[2757,7490]},{"type":"Point","properties":{"name":"Morgantown","scalerank":7,"subregion":"West Virginia","latitude":39.629815,"longitude":-79.95606},"id":"Q653636","coordinates":[2779,7465]},{"type":"Point","properties":{"name":"Huntington","scalerank":7,"subregion":"West Virginia","latitude":38.419579,"longitude":-82.445288},"id":"Q241808","coordinates":[2710,7395]},{"type":"Point","properties":{"name":"Beckley","scalerank":7,"subregion":"West Virginia","latitude":37.780186,"longitude":-81.183014},"id":"Q813745","coordinates":[2745,7358]},{"type":"Point","properties":{"name":"Wilmington","scalerank":7,"subregion":"Delaware","latitude":39.746268,"longitude":-75.546898},"id":"Q174224","coordinates":[2901,7472]},{"type":"Point","properties":{"name":"Cumberland","scalerank":7,"subregion":"Maryland","latitude":39.653173,"longitude":-78.762774},"id":"Q754868","coordinates":[2812,7466]},{"type":"Point","properties":{"name":"Atlantic City","scalerank":7,"subregion":"New Jersey","latitude":39.364637,"longitude":-74.423323},"id":"Q139564","coordinates":[2932,7450]},{"type":"Point","properties":{"name":"Newark","scalerank":7,"subregion":"New Jersey","latitude":40.700421,"longitude":-74.170005},"id":"Q25395","coordinates":[2939,7527]},{"type":"Point","properties":{"name":"Schenectady","scalerank":7,"subregion":"New York","latitude":42.814582,"longitude":-73.939968},"id":"Q331380","coordinates":[2946,7648]},{"type":"Point","properties":{"name":"Binghamton","scalerank":7,"subregion":"New York","latitude":42.099018,"longitude":-75.918322},"id":"Q213814","coordinates":[2891,7607]},